FacDerivedStctyFIPS,SDWAFormalActionCount,FacDateLastPenalty,SDWISFlag,FacState,FacDerivedHuc,FacTotalPenalties,Score,SDWASystemTypes,SDWAInspections5yr,FacFIPSCode,FacLastPenaltyAmt,FacName,FacZip,FacEPARegion,FacMajorFlag,NC,FacFormalActionCount,ViolFlag,FacReferencePoint,FacCity,FacImpWaterFlg,FacPenaltyCount,SDWAIDs,SDWA3yrComplQtrsHistory,FacPercentMinority,FacDerivedWBD,FacLat,FacCollectionMethod,CurrVioFlag,FacStdCountyName,SDWAInformalCount,FacDerivedZip,RegistryID,FacStreet,FacAccuracyMeters,FacCounty,FacLong
,,,Y,AZ,,$0,1,Transient non-community system,,,,3 DREAMERS RV PARK LLC,,09,,N,0,1,,,,,AZ0415101,VVVVVVV_____U,,,33.727625,County Centroid,0,,2,,110051216475,,30000,LA PAZ,-114.038793
,,,Y,AZ,,$0,1,Transient non-community system,,04001,,303 DOMESTIC WTR IMPRO DIST,85920,09,,Y,0,1,,ADAMANA,,,AZ0409053,VVVVVVVVVVVVU,,,33.849349,Zip Code Centroid,1,APACHE COUNTY,13,,110017890834,303 DOMESTIC,10000,APACHE,-109.14645
,,,Y,AZ,,$0,1,Transient non-community system,,,,4 SEASONS RV PARK,,09,,N,0,1,,,,,AZ0408172,____VVVVVV__U,,,35.717705,County Centroid,0,,1,,110051053499,,30000,MOHAVE,-113.749689
,,,Y,AZ,,$0,1,Community water system,,04013,,67 AVE PROPERTY OWNERS WT,85001,09,,N,0,1,,PHOENIX,,,AZ0407280,VVVVVV_V__V_U,,,33.453993,Zip Code Centroid,0,MARICOPA COUNTY,4,,110013256859,67TH AVE,10000,MARICOPA,-112.07398
04012,,,Y,AZ,15030106,$0,1,Transient non-community system,,04012,,88 SHADES RV PARK,85346,09,,N,0,0,ENTRANCE POINT OF A FACILITY OR STATION,QUARTZSITE,,,AZ0415435,____________U,10.456,150301060203,33.665268,ADDRESS MATCHING-HOUSE NUMBER,0,LA PAZ COUNTY,1,85346,110039236555,575 W MAIN ST,30,LA PAZ,-114.226188
,,,Y,AZ,,$0,1,Transient non-community system,,,,89 ER TRAILER PARK,,09,,N,0,0,,,,,AZ0413432,____________U,,,34.630044,County Centroid,0,,,,110051122361,,30000,YAVAPAI,-112.573745
,,,Y,AZ,,$0,1,Community water system,,04017,,A PETERSEN WATER CO,85937,09,,N,0,0,,SNOWFLAKE,,,AZ0409032,____________U,,,34.570721,Zip Code Centroid,0,NAVAJO COUNTY,3,,110013103630,PETERSEN,10000,NAVAJO,-109.948961
,,,Y,AZ,,$0,1,Transient non-community system,,,,AA RV CAMPGROUND,,09,,N,0,1,,,,,AZ0420451,______VV__V_U,,,32.128237,County Centroid,0,,2,,110051104728,,30000,PIMA,-111.783018
04025,,,Y,AZ,15060201,$0,1,Community water system,,04025,,ABRA WATER CO,86334,09,,N,0,1,ENTRANCE POINT OF A FACILITY OR STATION,PAULDEN,,,AZ0413001,VVVVV_____V_U,34.526,150602010809,34.91826,ADDRESS MATCHING-HOUSE NUMBER,0,YAVAPAI COUNTY,7,86334,110013110178,ABRA,30,YAVAPAI,-112.46922
,,,Y,AZ,,$0,1,Transient non-community system,,,,AC'S TRUCK STOP,,09,,Y,0,1,,,,,AZ0412314,VVV_VVVVVVVVU,,,31.525904,County Centroid,1,,10,,110051163931,,30000,SANTA CRUZ,-110.84519
,,,Y,AZ,,$0,1,Non-Transient non-community system,,,,ACCELERATED LEARNING CENTER,,09,,N,0,1,,,,,AZ0410197,__________V_U,,,32.128237,County Centroid,0,,,,110051063102,,30000,PIMA,-111.783018
04013,,,Y,AZ,15070102,$0,1,Community water system,,04013,,ADAMAN MUTUAL WATER CO,85340,09,,N,0,1,CENTER OF A FACILITY OR STATION,LITCHFIELD PARK,,,AZ0407001,VVVVVVVVVVVVU,34.634,150701020908,33.53717,ADDRESS MATCHING-HOUSE NUMBER,0,MARICOPA COUNTY,9,85340,110013095015,16251 WEST GLENDALE AVENUE,30,MARICOPA,-112.40934
,,,Y,AZ,,$0,1,Community water system,,04013,,ADJC ADOBE MTN SCHOOL,85003,09,,N,0,1,,PHOENIX,,,AZ0407307,VVVVVVVVVVV_U,,,33.454785,Zip Code Centroid,0,MARICOPA COUNTY,6,,110013097102,HWY 85,10000,MARICOPA,-112.078385
04019,,,Y,AZ,15050301,$0,1,Community water system,,04019,,ADOC-CORRECTION TRAINING,85716,09,,Y,0,1,ENTRANCE POINT OF A FACILITY OR STATION,TUCSON,,,AZ0420557,VVVVVVVVVVVVU,49.831,150503010906,32.22074,ADDRESS MATCHING-HOUSE NUMBER,1,PIMA COUNTY,27,85716,110013115672,151 SOUTH TUCSON BOULEVARD,50,PIMA,-110.93516
04021,,,Y,AZ,15050100,$0,1,Community water system,,04021,,ADOC-EYMAN UNIT,85232,09,,Y,0,1,ENTRANCE POINT OF A FACILITY OR STATION,FLORENCE,,,AZ0411705,VVVVVV__VVVVU,57.042,150501000707,33.06077,ADDRESS MATCHING-HOUSE NUMBER,1,PINAL COUNTY,10,85132,110013106520,600 EAST TRACK ROAD,50,PINAL,-111.38123
04021,,,Y,AZ,15050100,$0,1,Community water system,,04021,,ADOC-FLORENCE ASP,85232,09,,N,0,1,CENTER OF A FACILITY OR STATION,FLORENCE,,,AZ0411066,__VV__VVV_V_U,57.237,150501000707,33.04417,ADDRESS MATCHING-HOUSE NUMBER,0,PINAL COUNTY,11,85132,110013105674,1155 NORTH PINAL PARKWAY,30,PINAL,-111.37914
04027,,,Y,AZ,15030107,$0,1,Community water system,,04027,,ADOC-YUMA,85364,09,,Y,0,1,ENTRANCE POINT OF A FACILITY OR STATION,YUMA,,,AZ0414099,VVVVVVVVVVVVU,69.89,150301080300,32.722535,ADDRESS MATCHING-HOUSE NUMBER,1,YUMA COUNTY,7,85364,110013113424,244 SOUTH 1ST AVENUE,50,YUMA,-114.62087
04005,,,Y,AZ,15010004,$0,1,Community water system,,04005,,ADOT AIRPORT GRAND CANYON,86023,09,,Y,0,1,ENTRANCE POINT OF A FACILITY OR STATION,GRAND CANYON,,,AZ0403010,VVVVVVVVVVVVU,57.782,150100040803,35.958511,ADDRESS MATCHING-HOUSE NUMBER,1,COCONINO COUNTY,8,86023,110050134341,871 LIBERATOR DR,50,COCONINO,-112.136739
,,,Y,AZ,,$0,1,Transient non-community system,,,,ADOT BOUSE WASH REST AREA,,09,,N,0,1,,,,,AZ0415016,_VVVVVVVV___U,,,33.727625,County Centroid,0,,4,,110051117778,,30000,LA PAZ,-114.038793
,,,Y,AZ,,$0,1,Transient non-community system,,,,ADOT BURNT WELLS REST AREA,,09,,N,0,1,,,,,AZ0407141,____VVVVV___U,,,33.346541,County Centroid,0,,1,,110051137916,,30000,MARICOPA,-112.495534
,,,Y,AZ,,$0,1,Transient non-community system,,,,ADOT EHRENBERG POE,,09,,N,0,1,,,,,AZ0415308,_VV_VVVVV___U,,,33.727625,County Centroid,0,,7,,110051021951,,30000,LA PAZ,-114.038793
,,,Y,AZ,,$0,1,Transient non-community system,,,,ADOT EHRENBERG REST AREA,,09,,N,0,1,,,,,AZ0415062,V___VVVVV___U,,,33.727625,County Centroid,0,,6,,110051064557,,30000,LA PAZ,-114.038793
,,,Y,AZ,,$0,1,Transient non-community system,,,,ADOT HASSAYAMPA RIVER,,09,,N,0,1,,,,,AZ0407447,____VVVVV___U,,,33.346541,County Centroid,0,,2,,110051116788,,30000,MARICOPA,-112.495534
,,,Y,AZ,,$0,1,Transient non-community system,,,,ADOT HAVILAND REST AREA,,09,,N,0,1,,,,,AZ0408354,____VVVVV___U,,,35.717705,County Centroid,0,,3,,110051024173,,30000,MOHAVE,-113.749689
,,,Y,AZ,,$0,1,Transient non-community system,,,,ADOT LITTLE ANTELOPE,,09,,N,0,1,,,,,AZ0403348,____VVVVV___U,,,35.829692,County Centroid,0,,1,,110051106799,,30000,COCONINO,-111.773728
,,,Y,AZ,,$0,1,Transient non-community system,,,,ADOT MCGUIREVILLE REST AREA,,09,,N,0,1,,,,,AZ0413082,____VVVVV___U,,,34.630044,County Centroid,0,,2,,110051144114,,30000,YAVAPAI,-112.573745
,,,Y,AZ,,$0,1,Transient non-community system,,,,ADOT METEOR CRATER REST AREA,,09,,N,0,1,,,,,AZ0403030,____VVVVV___U,,,35.829692,County Centroid,0,,3,,110051070336,,30000,COCONINO,-111.773728
,,,Y,AZ,,$0,1,Transient non-community system,,,,ADOT MOHAWK RA,,09,,Y,0,1,,,,,AZ0414045,________VVVVU,,,32.773942,County Centroid,1,,,,110051083803,,30000,YUMA,-113.910905
,,,Y,AZ,,$0,1,Transient non-community system,,,,ADOT OAK CREEK RIM M/S - OVERLOOK VISTA,,09,,N,0,1,,,,,AZ0403349,V___VV______U,,,35.829692,County Centroid,0,,3,,110051106815,,30000,COCONINO,-111.773728
,,,Y,AZ,,$0,1,Transient non-community system,,,,ADOT PAINTED CLIFFS REST AREA,,09,,N,0,1,,,,,AZ0401357,____VVVVV___U,,,35.385845,County Centroid,0,,2,,110051159535,,30000,APACHE,-109.493747
,,,Y,AZ,,$0,1,Transient non-community system,,,,ADOT SAN SIMON PORT OF ENTRY,,09,,N,0,0,,,,,AZ0402347,____________U,,,31.881793,County Centroid,0,,2,,110051058289,,30000,COCHISE,-109.75412
,,,Y,AZ,,$0,1,Transient non-community system,,,,ADOT SAN SIMON REST AREA,,09,,Y,0,1,,,,,AZ0402060,VVVVV___VVVVU,,,31.881793,County Centroid,1,,6,,110051168419,,30000,COCHISE,-109.75412
,,,Y,AZ,,$0,1,Transient non-community system,,,,ADOT SANDERS PORT OF ENTRY,,09,,N,0,1,,,,,AZ0401305,____VVVVV___U,,,35.385845,County Centroid,0,,2,,110051089371,,30000,APACHE,-109.493747
,,,Y,AZ,,$0,1,Transient non-community system,,,,ADOT SENTINEL REST AREA C21,,09,,N,0,1,,,,,AZ0407110,____V_______U,,,33.346541,County Centroid,0,,2,,110051120808,,30000,MARICOPA,-112.495534
,,,Y,AZ,,$0,1,Non-Transient non-community system,,,,ADOT SONOITA REST AREA,,09,,N,0,1,,,,,AZ0412019,VVVVVVVVVVVVU,,,31.525904,County Centroid,0,,9,,110051122389,,30000,SANTA CRUZ,-110.84519
,,,Y,AZ,,$0,1,Transient non-community system,,,,ADOT SUNSET POINT REST AREA,,09,,N,0,1,,,,,AZ0413083,____VVVVVVVVU,,,34.630044,County Centroid,0,,5,,110051144141,,30000,YAVAPAI,-112.573745
,,,Y,AZ,,$0,1,Transient non-community system,,,,ADOT TEXAS CANYON REST AREA,,09,,N,0,1,,,,,AZ0402087,VVV_________U,,,31.881793,County Centroid,0,,1,,110051121264,,30000,COCHISE,-109.75412
,,,Y,AZ,,$0,1,Transient non-community system,,,,ADOT WIKIEUP MC,,09,,N,0,1,,,,,AZ0408304,____VVVVV___U,,,35.717705,County Centroid,0,,2,,110051020578,,30000,MOHAVE,-113.749689
,,,Y,AZ,,$0,1,Non-Transient non-community system,,,,AGUILA ELEMENTARY SCHOOL,,09,,N,0,1,,,,,AZ0407478,____VV______U,,,33.346541,County Centroid,0,,,,110051142054,,30000,MARICOPA,-112.495534
,,,Y,AZ,,$0,1,Transient non-community system,,,,AGUILA FIRE SERVICE,,09,,N,0,0,,,,,AZ0407467,____________U,,,33.346541,County Centroid,0,,,,110051117037,,30000,MARICOPA,-112.495534
,,,Y,AZ,,$0,1,Community water system,,04013,,AGUILA WATER SERVICE,,09,,Y,0,1,,,,,AZ0407003,V_VVV_VVVVVVU,,,33.346541,County Centroid,1,MARICOPA COUNTY,6,,110013095042,,30000,MARICOPA,-112.495534
,,,Y,AZ,,$0,1,Community water system,,04019,,AJO DOMESTIC WID,85321,09,,N,0,1,,AJO,,,AZ0410153,VVVVVVV__VVVU,,,32.396401,Zip Code Centroid,0,PIMA COUNTY,11,,110013102016,HWY 85,10000,PIMA,-112.870673
,,,Y,AZ,,$0,1,Community water system,,04019,,AJO IMPROVEMENT CO,85321,09,,N,0,1,,AJO,,,AZ0410001,_VV_______VVU,,,32.396401,Zip Code Centroid,0,PIMA COUNTY,2,,110013102365,GENERAL OFC,10000,PIMA,-112.870673
04021,,,Y,AZ,15050303,$0,1,Community water system,,04021,,AK CHIN FARM,85138,09,,N,0,0,UNKNOWN,MARICOPA,,,090400090,_____________,73.007,150503030506,32.999912,ADDRESS MATCHING-HOUSE NUMBER,0,PINAL COUNTY,,85138,110008257493,42507 W PETERS AND NALL RD,17560,PINAL,-112.024353
,,,Y,AZ,,$0,1,Transient non-community system,,,,ALCHESAY FISH HATCHERY,,09,,N,0,1,,,,,090400378,________VVVVV,,,34.209964,State Centroid,0,,,,110050998523,,100000,,-111.602401
,,,Y,AZ,,$0,1,Non-Transient non-community system,,,,ALCO CENTER,,09,,N,0,1,,,,,AZ0413066,_VV_________U,,,34.630044,County Centroid,0,,1,,110051025528,,30000,YAVAPAI,-112.573745
,,,Y,AZ,,$0,1,Community water system,,,,ALISO SPRINGS PROPERTY OWNER ASSOC INC,,09,,N,0,0,,,,,AZ0412040,____________U,,,31.525904,County Centroid,0,,4,,110048104216,,30000,SANTA CRUZ,-110.84519
04013,,,Y,AZ,15050100,$0,1,Community water system,,04013,,ALMA RANCHETTES,85286,09,,Y,0,1,CENTER OF A FACILITY OR STATION,CHANDLER,,,AZ0407286,SSSSSSSSSSSSU,45.744,150501001104,33.27652,ADDRESS MATCHING-HOUSE NUMBER,1,MARICOPA COUNTY,41,85286,110010731119,797 W GERMANN RD,30,MARICOPA,-111.85454
04001,,,Y,AZ,15040004,$0,1,Transient non-community system,,04001,,ALPINE COUNTRY CLUB,85920,09,,N,0,1,,ALPINE,,,AZ0401316,__________V_U,9.489,150400040301,33.815172,UNKNOWN,0,APACHE COUNTY,1,85920,110039297775,COUNTY ROAD 2122,17505,APACHE,-109.10676
04001,,,Y,AZ,15040004,$0,1,Transient non-community system,,04001,,ALPINE ESTATES WATER CO,85920,09,,N,0,1,ENTRANCE POINT OF A FACILITY OR STATION,ALPINE,,,AZ0401035,VVVVV_____V_U,8.84,150400040301,33.848785,ADDRESS MATCHING-HOUSE NUMBER,0,APACHE COUNTY,2,85920,110013022200,42637 US180,50,APACHE,-109.1465
04001,,,Y,AZ,15040004,$0,1,Community water system,,04001,,ALPINE WATER SYSTEMS,85920,09,,N,0,1,ENTRANCE POINT OF A FACILITY OR STATION,ALPINE,,,AZ0401001,_______VVVV_U,8.84,150400040301,33.848785,ADDRESS MATCHING-HOUSE NUMBER,0,APACHE COUNTY,5,85920,110013020051,42637 US180,50,APACHE,-109.1465
,,,Y,AZ,,$0,1,Transient non-community system,,,,AMADO TERRITORY INN,,09,,N,0,0,,,,,AZ0412343,____________U,,,31.525904,County Centroid,0,,2,,110051055610,,30000,SANTA CRUZ,-110.84519
,,,Y,AZ,,$0,1,Community water system,,,,AMERICAN INDIAN CHRISTIAN MISSION,,09,,Y,0,1,,,,,AZ0409074,VVVVVVVSVVVVU,,,35.390934,County Centroid,1,,12,,110048115696,,30000,NAVAJO,-110.320908
04025,,,Y,AZ,15060201,$0,1,Community water system,,04025,,AMERICAN RANCH DWID,86305,09,,N,0,1,ENTRANCE POINT OF A FACILITY OR STATION,PRESCOTT,,,AZ0413258,VVVVVVVVVVV_U,5.922,150602010707,34.679038,ADDRESS MATCHING-HOUSE NUMBER,0,YAVAPAI COUNTY,2,86305,110021058987,9500 AMERICAN RANCH ROAD,50,YAVAPAI,-112.547361
,1,,Y,AZ,,$0,1,Community water system,,04007,,AMERICAN REALTY & MORTGAGE,85541,09,,Y,1,1,,PAYSON,,,AZ0411301,VV_________VU,,,34.258793,Zip Code Centroid,1,GILA COUNTY,12,,110013106174,255865 EAST HIGHWAY 260,10000,GILA,-111.307582
,,,Y,AZ,,$0,1,Transient non-community system,,,,AMERICAN WEST QUARTER HORSES FACILITY,,09,,N,0,0,,,,,AZ0407205,____________U,,,33.346541,County Centroid,0,,,,110051062201,,30000,MARICOPA,-112.495534
,,,Y,AZ,,$0,1,Transient non-community system,,,,AMERIND FOUNDATION,,09,,N,0,1,,,,,AZ0402099,VVV___VV____U,,,31.881793,County Centroid,0,,3,,110051121344,,30000,COCHISE,-109.75412
,,,Y,AZ,,$0,1,Transient non-community system,,,,ANASAZI INN AT GRAY MOUNTAIN,,09,,N,0,1,,,,,AZ0403315,V_______VVV_U,,,35.829692,County Centroid,0,,9,,110051085222,,30000,COCONINO,-111.773728
,,,Y,AZ,,$0,1,Transient non-community system,,,,ANASAZI WATER COMPANY,,09,,N,0,0,,,,,AZ0403048,____________U,,,35.829692,County Centroid,0,,,,110051162512,,30000,COCONINO,-111.773728
,,,Y,AZ,,$0,1,Community water system,,04021,,ANTELOPE PEAK WATER ASSOCIATION,85172,09,,Y,0,1,,STANFIELD,,,AZ0411712,SSSVVVVVVVVVU,,,32.935634,Zip Code Centroid,1,PINAL COUNTY,50,,110010752168,PO BOX 162,10000,PINAL,-111.934411
04003,,,Y,AZ,15050202,$0,1,Community water system,,04003,,ANTELOPE RUN WATER CO,85635,09,,Y,0,1,ENTRANCE POINT OF A FACILITY OR STATION,SIERRA VISTA,,,AZ0402094 AZ0414001,VVVVVVVVVVVSU,39.504,150502020506,31.55676,ADDRESS MATCHING-HOUSE NUMBER,1,COCHISE COUNTY,6,85635,110013022166,301 NORTH GARDEN AVENUE,50,COCHISE,-110.30637
,2,,Y,AZ,,$0,1,Non-Transient non-community system,,,,ANTELOPE UNION HIGH SCHOOL,,09,,Y,2,1,,,,,AZ0414044,VVVVSSSVVVVSU,,,32.773942,County Centroid,1,,39,,110051147932,,30000,YUMA,-113.910905
,,,Y,AZ,,$0,1,Transient non-community system,,,,ANTHEM KINGDOM HALL OF JEHOVAHS WITNESS,,09,,N,0,0,,,,,AZ0407211,____________U,,,33.346541,County Centroid,0,,1,,110063341334,,30000,MARICOPA,-112.495534
,,,Y,AZ,,$0,1,Community water system,,04013,,ANTHEM WATER SYSTEM,85086,09,,N,0,1,,ANTHEM,,,AZ0407504,_______V____U,,,33.84608,Zip Code Centroid,0,MARICOPA COUNTY,4,,110013097889,W. ANTHEM WAY,10000,MARICOPA,-112.100105
,,,Y,AZ,,$0,1,Community water system,,04019,,ANWAY MANVILLE WATER CO,85701,09,,Y,0,1,,TUCSON,,,AZ0410354,VVVVVVVVVVVVU,,,32.216191,Zip Code Centroid,1,PIMA COUNTY,1,,110013104960,AVRA VALLEY,10000,PIMA,-110.9703
,,,Y,AZ,,$0,1,Non-Transient non-community system,,04009,,APACHE GOLD CASINO,85550,09,,N,0,0,,SAN CARLOS,,,090400698,V____________,,,33.333685,Zip Code Centroid,0,GRAHAM COUNTY,,,110050952876,5 US-70,10000,GRAHAM,-109.971468
04021,,,Y,AZ,15050100,$0,1,Community water system,,04021,,APACHE JUNCTION WATER COMPANY,85220,09,,Y,0,1,ENTRANCE POINT OF A FACILITY OR STATION,APACHE JUNCTION,,,AZ0411039,VVVVVVVVVVVVU,19.556,150501000804,33.413637,ADDRESS MATCHING-HOUSE NUMBER,1,PINAL COUNTY,16,85120,110015958640,183 W APACHE TRL,50,PINAL,-111.547744
,,,Y,AZ,,$0,1,Transient non-community system,,04013,,APACHE LAKE MARINA-RESORT,85290,09,,N,0,1,,TORTILLA FLAT,,,AZ0407630,VVVV__VVV_V_U,,,33.50257,Zip Code Centroid,0,MARICOPA COUNTY,6,,110022498064,APACHE LAKE,10000,MARICOPA,-112.03342
04003,,03/27/2018,Y,AZ,15050202,"$1,100,000",1,Non-Transient non-community system,,04003,"$600,000",APACHE NITROGEN PRODUCTS INC,85630,09,Y,Y,3,1,,SAINT DAVID,Y,2,AZ0402300,VV_VV_______U,14.776,150502020709,31.88,,1,COCHISE COUNTY,7,85630,110017427033,1436 S APACHE POWDER RD,17505,COCHISE,-110.24
,,,Y,AZ,,$0,1,Transient non-community system,,,,APACHE SPIRIT RANCH,,09,,N,0,0,,,,,AZ0402413,____________U,,,31.881793,County Centroid,0,,,,110051155708,,30000,COCHISE,-109.75412
,,,Y,AZ,,$0,1,Community water system,,04007,,APACHE TRAIL MHP,,09,,Y,0,1,,,,,AZ0404300,VVVVVVVVVVVVU,,,33.789618,County Centroid,1,GILA COUNTY,,,110013255100,,30000,GILA,-110.81187
,,,Y,AZ,,$0,1,Community water system,,04025,,APPALOOSA MEADOWS SUBDIVISION,86323,09,,Y,0,1,,CHINO VALLEY,,,AZ0413208,_________VVVU,,,34.773515,Zip Code Centroid,1,YAVAPAI COUNTY,1,,110013108724,HWY 89,10000,YAVAPAI,-112.39027
,,,Y,AZ,,$0,1,Transient non-community system,,,,APPLE ANNIES ORCHARD,,09,,Y,0,1,,,,,AZ0402406,VVV_____VVVVU,,,31.881793,County Centroid,1,,3,,110051155584,,30000,COCHISE,-109.75412
,,,Y,AZ,,$0,1,Non-Transient non-community system,,,,APS - YUCCA WATER,,09,,N,0,0,,,,,AZ0414312,____________U,,,32.773942,County Centroid,0,,1,,110051059126,,30000,YUMA,-113.910905
,,,Y,AZ,,$0,1,Non-Transient non-community system,,,,APS REDHAWK WATER,,09,,N,0,0,,,,,AZ0407740,____________U,,,33.346541,County Centroid,0,,,,110051133215,,30000,MARICOPA,-112.495534
,,,Y,AZ,,$0,1,Community water system,,04021,,ARAVAIPA WATER CO-ARAVAIPA,85235,09,,N,0,1,,HAYDEN,,,AZ0411003,VVVVVVVV__V_U,,,33.006,Zip Code Centroid,0,PINAL COUNTY,20,,110013105022,HWY 177,10000,GILA,-110.78416
,,,Y,AZ,,$0,1,Transient non-community system,,,,ARBORETUM AT FLAGSTAFF,,09,,N,0,1,,,,,AZ0403104,________V_V_U,,,35.829692,County Centroid,0,,1,,AZ0403104,,30000,Coconino,-111.773728
,,,Y,AZ,,$0,1,Community water system,,04025,,ARCOSANTI CAMP,86333,09,,N,0,1,,MAYER,,,AZ0413341,VVVVV__VVVVVU,,,34.339433,Zip Code Centroid,0,YAVAPAI COUNTY,11,,110008254708,I-17 @ CORDES JUNCTION,10000,YAVAPAI,-112.158115
04019,,,Y,AZ,15050304,$0,1,Community water system,,04019,,ARIVACA TOWNSITE WATER CO,85601,09,,Y,0,1,CENTER OF A FACILITY OR STATION,ARIVACA,,,AZ0410002,VVVVVVVVVVVVU,22.047,150503040103,31.59417,ADDRESS MATCHING-HOUSE NUMBER,1,PIMA COUNTY,10,85601,110013258116,16190 WEST UNIVERSAL RANCH ROAD,30,PIMA,-111.30902
,,,Y,AZ,,$0,1,Community water system,,04013,,ARIZONA DAIRY CO LLP,85236,09,,N,0,1,,HIGLEY,,,AZ0407701,________VVVVU,,,33.941378,Zip Code Centroid,0,MARICOPA COUNTY,9,,110021058558,ARIZONA DAIRY CO,10000,MARICOPA,-113.179107
,,,Y,AZ,,$0,1,Community water system,,04013,,ARIZONA OASIS MHP,85326,09,,N,0,0,,BUCKEYE,,,AZ0407392,____________U,,,33.375213,Zip Code Centroid,0,MARICOPA COUNTY,1,,110013097442,HWY 85,10000,MARICOPA,-112.565226
,,,Y,AZ,,$0,1,Transient non-community system,,,,ARIZONA OLYMPIAN GYMNASTICS,,09,,N,0,1,,,,,AZ0407909,_______VV___U,,,33.346541,County Centroid,0,,1,,110051069650,,30000,MARICOPA,-112.495534
,,06/17/1987,Y,AZ,,$0,1,Non-Transient non-community system,,04021,"$50,000",ARIZONA PROCESSING,85147,09,,N,0,0,,SACATON,,,090400683,,,,33.080862,Zip Code Centroid,0,PINAL COUNTY,,,110038714371,MARICOPA ROAD AND RIGGS ROAD,10000,PINAL,-111.744059
,,,Y,AZ,,$0,1,Non-Transient non-community system,,,,ARIZONA PROVING GROUND,,09,,Y,0,1,,,,,AZ0408316,VVVVVVVVVVVVU,,,35.717705,County Centroid,1,,5,,110051021041,,30000,MOHAVE,-113.749689
,,,Y,AZ,,$0,1,Non-Transient non-community system,,,,ARIZONA PROVING GROUND,,09,,N,0,1,,,,,AZ0407763,VVVVV__VV_V_U,,,33.346541,County Centroid,0,,2,,110051133297,,30000,MARICOPA,-112.495534
04021,,,Y,AZ,15050100,$0,1,Community water system,,04021,,ARIZONA TRAINING PROGRAM,85228,09,,Y,0,1,,COOLIDGE,,,AZ0411037,VVVVVVVVVVVVU,52.813,150501001002,32.90496,,1,PINAL COUNTY,27,85128,110013108403,COOLIDGE RD,17505,PINAL,-111.51673
04015,,,Y,AZ,15030101,$0,1,Community water system,,04015,,ARIZONA VILLAGE,86446,09,,N,0,0,CENTER OF A FACILITY OR STATION,MOHAVE VALLEY,,,090400300,_____________,26.02,150301010405,34.90471,ADDRESS MATCHING-HOUSE NUMBER,0,MOHAVE COUNTY,,86440,110012936653,8678 HIGHWAY 95 - PO BOX 5559,30,MOHAVE,-114.5979
04021,,,Y,AZ,15050100,$0,1,Community water system,,04021,,ARIZONA WATER CO - APACHE JUNCTION,85220,09,,N,0,0,ENTRANCE POINT OF A FACILITY OR STATION,APACHE JUNCTION,,,AZ0411004,V___________U,21.461,150501000804,33.393369,ADDRESS MATCHING-HOUSE NUMBER,0,PINAL COUNTY,,85120,110013258054,2380 W SOUTHERN AVE,50,MARICOPA,-111.571714
04003,,,Y,AZ,15050202,$0,1,Community water system,,04003,,ARIZONA WATER CO - BISBEE,85603,09,,N,0,0,,BISBEE,,,AZ0402001,V___________U,41.345,150502020202,31.408433,UNKNOWN,0,COCHISE COUNTY,,85603,110013255681,1345 S NACO HIGHWAY,17430,COCHISE,-109.91729
04021,,,Y,AZ,15050303,$0,1,Community water system,,04021,,ARIZONA WATER CO - CASA GRANDE,85222,09,,N,0,1,ENTRANCE POINT OF A FACILITY OR STATION,CASA GRANDE,,,AZ0411009,VVVVV_______U,54.374,150503030206,32.87621,ADDRESS MATCHING-HOUSE NUMBER,0,PINAL COUNTY,5,85122,110041359669,220 E 2ND ST,50,PINAL,-111.75186
04025,,,Y,AZ,15060202,$0,1,Community water system,,04025,,ARIZONA WATER CO - SEDONA,86336,09,,N,0,1,CENTER OF A FACILITY OR STATION,SEDONA,,,AZ0403003,VVV_________U,18.335,150602020508,34.86494,ADDRESS MATCHING-HOUSE NUMBER,0,YAVAPAI COUNTY,2,86336,110013024315,65 COFFEE POT DR,30,YAVAPAI,-111.79537
04021,,,Y,AZ,15050100,$0,1,Community water system,,04021,,ARIZONA WATER CO - SUPERIOR,85273,09,,N,0,0,CENTER OF A FACILITY OR STATION,SUPERIOR,,,AZ0411021,V___________U,70.89,150501000402,33.29419,ADDRESS MATCHING-HOUSE NUMBER,0,PINAL COUNTY,,85173,110013106968,20 N MAGMA AVE,30,PINAL,-111.09633
,,,Y,AZ,,$0,1,Non-Transient non-community system,,,,ARIZONA WEST MHP,,09,,Y,0,1,,,,,AZ0414418,VVVVVVVVVSSSU,,,32.773942,County Centroid,1,,12,,110051064432,,30000,YUMA,-113.910905
,,,Y,AZ,,$0,1,Community water system,,,,ARIZONIAN TRAVEL TRAILER,,09,,Y,0,1,,,,,AZ0411708,VVVVVVVVVVVVU,,,32.91891,County Centroid,1,,12,,110051103934,,30000,PINAL,-111.367257
,,,Y,AZ,,$0,1,Transient non-community system,,,,ARLINGTON VALLEY ENERGY FACILITY,,09,,N,0,0,,,,,AZ0407727,____________U,,,33.346541,County Centroid,0,,2,,110051133135,,30000,MARICOPA,-112.495534
,,,Y,AZ,,$0,1,Community water system,,04007,,ARROYO WATER CO INC,85553,09,,N,0,0,,PUNKIN CENTER,,,AZ0404083,____________U,,,33.935,Zip Code Centroid,0,GILA COUNTY,3,,110013255075,PUNKIN CORNERS,10000,GILA,-111.31667
04007,,,Y,AZ,15050100,$0,1,Non-Transient non-community system,,04007,,ASARCO - HAYDEN OPERATIONS,85135,09,Y,N,0,1,ENTRANCE POINT OF A FACILITY OR STATION,HAYDEN,,,AZ0404012,VVVVVVVVVVVVU,83.152,150501000201,33.001997,ADDRESS MATCHING-HOUSE NUMBER,0,GILA COUNTY,11,85135,110069332065,6094 ASARCO RD,50,GILA,-110.779247
04007,,12/30/2015,Y,AZ,15050100,"$4,500,000",1,Non-Transient non-community system,,04007,"$4,500,000",ASARCO - HAYDEN SMELTER,85135,09,Y,Y,1,1,CENTER OF A FACILITY OR STATION,HAYDEN,,1,AZ0404001,VVVVVVVVVVVVU,82.867,150501000201,33.001796,,1,GILA COUNTY,6,85135,110069332261,640 ASARCO AVE,17600,GILA,-110.777946
04021,,06/20/2007,Y,AZ,15050100,$0,1,Non-Transient non-community system,,04021,"$4,000","ASARCO - RAY COMPLEX, RAY OPERATIONS",85237,09,Y,Y,2,1,CENTER OF A FACILITY OR STATION,KELVIN,Y,,AZ0411339,,26.316,150501000207,33.156,INTERPOLATION-SATELLITE,1,PINAL COUNTY,,85137,110000471338,RAY MINE RD,18700,PINAL,-110.978
04019,,10/15/2010,Y,AZ,15050301,$0,1,Non-Transient non-community system,,04019,"$450,000",ASARCO LLC MISSION MINE COMPLEX,85629,09,Y,Y,0,1,CENTER OF FACILITY,SAHUARITA,,,AZ0420005,V__VVV______U,51.079,150503010709,31.998092,INTERPOLATION-PHOTO,1,PIMA COUNTY,2,85629,110000471864,4201 W PIMA MINE RD,6,PIMA,-111.052412
,,,Y,AZ,,$0,1,Non-Transient non-community system,,,,ASH CREEK ELEMENTARY SCHOOL,,09,,N,0,1,,,,,AZ0402071,__VVVVV_____U,,,31.881793,County Centroid,0,,4,,110051178881,,30000,COCHISE,-109.75412
04019,,,Y,AZ,15050303,$0,1,Community water system,,04019,,ASH CREEK WATER COMPANY,85543,09,,Y,0,1,ENTRANCE POINT OF A FACILITY OR STATION,PIMA,,,AZ0405007,VVVVVVVVVVVVU,37.418,150503030103,32.46344,ADDRESS MATCHING-HOUSE NUMBER,1,PIMA COUNTY,3,85658,110013094695,TONTO BASIN RD,30,GRAHAM,-111.2037
04025,,,Y,AZ,15060201,$0,1,Community water system,,04025,,ASH FORK WATER SERVICE,,09,,Y,0,1,ENTRANCE POINT OF A FACILITY OR STATION,,,,AZ0413008,VSVV_VVVVVVVU,36.637,150602010303,35.224642,ADDRESS MATCHING-HOUSE NUMBER,1,YAVAPAI COUNTY,9,86320,110017927234,,50,YAVAPAI,-112.487083
,,,Y,AZ,,$0,1,Community water system,,,,ASHLEYS MHP,,09,,N,0,1,,,,,AZ0402105,__VVV___VV__U,,,31.881793,County Centroid,0,,6,,110048213633,,30000,COCHISE,-109.75412
04009,,,Y,AZ,15050201,$0,1,Community water system,,04003,,ASP - FORT GRANT COMPLEX,85643,09,,N,0,1,,BONITA,,,AZ0405303,VVVVVVVVVVV_U,59.738,150502010204,32.623855,,0,COCHISE COUNTY,20,85643,110013094739,15500 S GRANT RD,36005,GRAHAM,-109.94616
,,,Y,AZ,,$0,1,Non-Transient non-community system,,,,ASPB KARTCHNER CAVERNS,,09,,N,0,1,,,,,AZ0402705,_____VVVVV__U,,,31.881793,County Centroid,0,,7,,110051183090,,30000,COCHISE,-109.75412
,,,Y,AZ,,$0,1,Community water system,,04017,,ASPC APACHE,86047,09,,N,0,1,,WINSLOW,,,AZ0401056,VVVVVVVVVVV_U,,,35.01684,Zip Code Centroid,0,NAVAJO COUNTY,28,,110013022460,ASPC APACHE,10000,NAVAJO,-110.695902
,,,Y,AZ,,$0,1,Community water system,,04013,,ASPC LEWIS COMPLEX WTR SY,85007,09,,N,0,1,,PHOENIX,,,AZ0407555,VVVVVVVVVVVVU,,,33.451082,Zip Code Centroid,0,MARICOPA COUNTY,26,,110013256582,ASPC LEWIS COMPLEX,10000,MARICOPA,-112.091204
,,,Y,AZ,,$0,1,Transient non-community system,,,,ASU CAMP TONTOZONA,,09,,N,0,1,,,,,AZ0404075,________V___U,,,33.789618,County Centroid,0,,2,,110051150446,,30000,GILA,-110.81187
,,,Y,AZ,,$0,1,Transient non-community system,,,,ATR WATER SYSTEM,,09,,N,0,0,,,,,AZ0412043,____________U,,,31.525904,County Centroid,0,,1,,110051082314,,30000,SANTA CRUZ,-110.84519
,,,Y,AZ,,$0,1,Community water system,,04025,,AUBREY WATER CO-SELIGMAN,86337,09,,Y,0,1,,SELIGMAN,,,AZ0413010,V_____V___VVU,,,35.55053,Zip Code Centroid,1,YAVAPAI COUNTY,1,,110013110285,PO BOX 961089 FT. WORTH TX 76161,10000,YAVAPAI,-113.179598
,,,Y,AZ,,$0,1,Community water system,,04007,,AUGUST HILLS MHP,85501,09,,N,0,1,,GLOBE,,,AZ0404332,VVVVV_______U,,,33.39855,Zip Code Centroid,0,GILA COUNTY,5,,110013094249,AUGUST HILLS,10000,GILA,-110.7969
,,,Y,AZ,,$0,1,Community water system,,,,AVALON GARDENS WATER SYSTEM,,09,,Y,0,1,,,,,AZ0412044,VSSVVVV___VVU,,,31.525904,County Centroid,1,,9,,110063367495,,30000,SANTA CRUZ,-110.84519
,,,Y,AZ,,$0,1,Non-Transient non-community system,,,,AVERY 'S,,09,,N,0,1,,,,,AZ0401345,VVVVVVVVVVVVU,,,35.385845,County Centroid,0,,9,,110051159367,,30000,APACHE,-109.493747
04015,,,Y,AZ,15030101,$0,1,Community water system,,04015,,AVI CASINO,86446,09,,N,0,0,CENTER OF A FACILITY OR STATION,MOHAVE VALLEY,,,090400302,_____________,26.02,150301010405,34.90471,ADDRESS MATCHING-HOUSE NUMBER,0,MOHAVE COUNTY,,86440,110012936751,8678 HIGHWAY 95 - PO BOX 5559,30,MOHAVE,-114.5979
04019,,,Y,AZ,15050304,$0,1,Community water system,,04019,,"AVRA WATER COOP, INC",85743,09,,N,0,0,CENTER OF A FACILITY OR STATION,TUCSON,,,AZ0410006,V___________U,20.173,150503040507,32.32797,ADDRESS MATCHING-HOUSE NUMBER,0,PIMA COUNTY,1,85743,110013102463,11821 WEST PICTURE ROCKS ROAD,30,PIMA,-111.21946
,,,Y,AZ,,$0,1,Community water system,,04013,,AZ AMERICAN WTR CO - AGUA FRIA - SURPRISE,85374,09,,N,0,0,,SURPRISE,,,AZ0407695,____________U,,,33.65042,Zip Code Centroid,0,MARICOPA COUNTY,,,110013099814,* NOT GIVEN,10000,MARICOPA,-112.409327
,,,Y,AZ,,$0,1,Community water system,,04015,,AZ AMERICAN WTR CO - MOHAVE VALLEY,86440,09,,N,0,0,,MOHAVE VALLEY,,,AZ0408333,____________U,,,34.931568,Zip Code Centroid,0,MOHAVE COUNTY,,,110013101035,* NOT GIVEN,10000,MOHAVE,-114.587352
,,,Y,AZ,,$0,1,Community water system,,04015,,AZ AMERICAN WTR CO-MOHAVE - BULLHEAD CITY,86429,09,,N,0,1,,BULLHEAD CITY,,,AZ0408032,_________VV_U,,,35.16426,Zip Code Centroid,0,MOHAVE COUNTY,2,,110013097371,* NOT GIVEN,10000,MOHAVE,-114.552035
,,,Y,AZ,,$0,1,Non-Transient non-community system,,,,AZ ELECTRIC POWER APACHE,,09,,N,0,1,,,,,AZ0402355,V____VV_VV__U,,,31.881793,County Centroid,0,,1,,110051058369,,30000,COCHISE,-109.75412
,,,Y,AZ,,$0,1,Transient non-community system,,,,AZ GAME FISH BEN AVERY,,09,,N,0,1,,,,,AZ0407144,VVVVVVVVVVV_U,,,33.346541,County Centroid,0,,14,,110051137952,,30000,MARICOPA,-112.495534
,,,Y,AZ,,$0,1,Transient non-community system,,,,AZ GAME FISH PAGE MAIN,,09,,N,0,1,,,,,AZ0413322,VVVVVV______U,,,34.630044,County Centroid,0,,5,,110051153915,,30000,YAVAPAI,-112.573745
,,,Y,AZ,,$0,1,Non-Transient non-community system,,,,AZ PUBLIC SERVICE CO CAMP VERDE WATER,,09,,Y,0,1,,,,,AZ0413233,___________VU,,,34.630044,County Centroid,1,,1,,110051143990,,30000,YAVAPAI,-112.573745
04012,,,Y,AZ,15030204,$0,1,"Transient non-community system, Community water system",,04012,,AZ STATE PARK ALAMO LAKE,85357,09,,N,0,0,,WENDEN,,,AZ0414059 AZ0415059 AZ0415064,____________U,0,150302040202,34.243889,UNKNOWN,0,LA PAZ COUNTY,3,85348,110039262561,ALAMO RD,36005,LA PAZ,-113.55861
,,,Y,AZ,,$0,1,Transient non-community system,,,,AZ STATE PARKS - LYMAN LAKE,,09,,N,0,1,,,,,AZ0401021,VVVVV_______U,,,35.385845,County Centroid,0,,6,,110051111541,,30000,APACHE,-109.493747
,,,Y,AZ,,$0,1,Transient non-community system,,,,AZ STATE PARKS CATTAIL COVE,,09,,Y,0,1,,,,,AZ0408029,VVVVVVVVVVVVU,,,35.717705,County Centroid,1,,17,,110051076642,,30000,MOHAVE,-113.749689
,,,Y,AZ,,$0,1,Transient non-community system,,,,AZ STATE PARKS PICACHO PEAK,,09,,Y,0,1,,,,,AZ0411069,________VVSSU,,,32.91891,County Centroid,1,,4,,110051063228,,30000,PINAL,-111.367257
,,,Y,AZ,,$0,1,Transient non-community system,,,,AZ STATE PARKS RIVER ISLAND,,09,,N,0,1,,,,,AZ0415087,VVVVV_______U,,,33.727625,County Centroid,0,,1,,110051216395,,30000,LA PAZ,-114.038793
,,,Y,AZ,,$0,1,Transient non-community system,,,,AZ STATE PARKS SLIDE ROCK,,09,,Y,0,1,,,,,AZ0403080,VVVVVVVVVVVVU,,,35.829692,County Centroid,1,,40,,110051183250,,30000,COCONINO,-111.773728
,,,Y,AZ,,$0,1,Transient non-community system,,,,AZ STATE PKS - TONTO NATURAL BRIDGE SPR,,09,,Y,0,1,,,,,AZ0404025,VV___V__VVVVU,,,33.789618,County Centroid,1,,3,,110051173779,,30000,GILA,-110.81187
,,,Y,AZ,,$0,1,Transient non-community system,,,,AZ STATE PKS BUCKSKIN MOUNTAIN,,09,,N,0,0,,,,,AZ0415048,____________U,,,33.727625,County Centroid,0,,,,110051176589,,30000,LA PAZ,-114.038793
,,,Y,AZ,,$0,1,Transient non-community system,,,,AZ STATE PKS CATALINA MOUNTAIN,,09,,N,0,1,,,,,AZ0410190,________VV__U,,,32.128237,County Centroid,0,,1,,110051063022,,30000,PIMA,-111.783018
,,,Y,AZ,,$0,1,Transient non-community system,,,,AZ STATE PKS DEAD HORSE RANCH PARK,,09,,Y,0,1,,,,,AZ0413089,VVVVV__VVVVVU,,,34.630044,County Centroid,1,,1,,110051144267,,30000,YAVAPAI,-112.573745
,,,Y,AZ,,$0,1,Transient non-community system,,,,AZ STATE PKS ORACLE STATE PARK,,09,,N,0,0,,,,,AZ0411408,____________U,,,32.91891,County Centroid,0,,,,110051053373,,30000,PINAL,-111.367257
,,,Y,AZ,,$0,1,Transient non-community system,,,,AZ STATE PKS PATAGONIA LAKE,,09,,N,0,0,,,,,AZ0412302,____________U,,,31.525904,County Centroid,0,,1,,110051082378,,30000,SANTA CRUZ,-110.84519
,,,Y,AZ,,$0,1,Transient non-community system,,,,AZ STATE PKS RED ROCK LOWER,,09,,N,0,1,,,,,AZ0413416,___VV_______U,,,34.630044,County Centroid,0,,1,,110051114174,,30000,YAVAPAI,-112.573745
,,,Y,AZ,,$0,1,Transient non-community system,,,,AZ STATE PKS RED ROCK UPPER,,09,,N,0,1,,,,,AZ0413472,___VV_______U,,,34.630044,County Centroid,0,,1,,110051147736,,30000,YAVAPAI,-112.573745
,,,Y,AZ,,$0,1,Transient non-community system,,,,AZ STATE PKS ROPER LAKE,,09,,N,0,0,,,,,AZ0405311,____________U,,,32.931828,County Centroid,0,,,,110051058029,,30000,GRAHAM,-109.87831
,,,Y,AZ,,$0,1,Community water system,,,,AZ STATE PRISON - GEO GROUP - KINGMAN,,09,,Y,0,1,,,,,AZ0408184,VVVVVVVVVVVVU,,,35.717705,County Centroid,1,,12,,110051053550,,30000,MOHAVE,-113.749689
04019,,,Y,AZ,15070202,$0,1,Community water system,,04019,,AZ WATER CO - AJO,85321,09,,N,0,0,ENTRANCE POINT OF A FACILITY OR STATION,AJO,,,AZ0410003,V___________U,48.009,150702020208,32.376776,ADDRESS MATCHING-HOUSE NUMBER,0,PIMA COUNTY,,85321,110013102409,625 N SAHUARO ST,50,PIMA,-112.871276
04017,,,Y,AZ,15020005,$0,1,Community water system,,04017,,AZ WATER CO - LAKESIDE,85929,09,,N,0,0,CENTER OF A FACILITY OR STATION,LAKESIDE,,,AZ0409003,V___________U,21.959,150200050101,34.15304,ADDRESS MATCHING-HOUSE NUMBER,0,NAVAJO COUNTY,,85929,110013101188,1669 W WHITE MOUNTAIN BLVD,30,NAVAJO,-109.97325
04007,,,Y,AZ,15060103,$0,1,Community water system,,04007,,"AZ WATER CO - MIAMI, CLAYPOOL",85539,09,,N,0,0,ENTRANCE POINT OF A FACILITY OR STATION,MIAMI,,,AZ0404002,V___________U,48.164,150601030602,33.399947,ADDRESS MATCHING-HOUSE NUMBER,0,GILA COUNTY,,85539,110013027553,422 SULLIVAN ST,50,GILA,-110.870017
,,,Y,AZ,,$0,1,Community water system,,04021,,AZ WATER CO - ORACLE,85623,09,,N,0,1,,ORACLE,,,AZ0402004 AZ0403002 AZ0404003 AZ0407128 AZ0409018 AZ0411012 AZ0411019 AZ0411076 AZ0413046 AZ0413114,VVVVVVVVVV__U,,,32.609201,Zip Code Centroid,0,PINAL COUNTY,33,,110013106922,* NOT GIVEN,10000,PINAL,-110.782878
,,,Y,AZ,,$0,1,Community water system,,04017,,AZ WATER CO - OVERGAARD,85933,09,,N,0,0,,OVERGAARD,,,AZ0409004,V___________U,,,34.403024,Zip Code Centroid,0,NAVAJO COUNTY,,,110013258544,2047 HIGHWAY 277,10000,NAVAJO,-110.564007
,,,Y,AZ,,$0,1,Community water system,,04021,,AZ WATER CO - SAN MANUEL,85631,09,,N,0,0,,SAN MANUEL,,,AZ0411020,V___________U,,,32.609497,Zip Code Centroid,0,PINAL COUNTY,2,,110013106940,460 S AVE,10000,PINAL,-110.630597
,,,Y,AZ,,$0,1,Non-Transient non-community system,,,,Apache Sky Casino,,09,,Y,0,1,,,,,090400667,_VVVVVVVVVVVV,,,34.209964,State Centroid,1,,,,090400667,,100000,,-111.602401
,,,Y,AZ,,$0,1,Community water system,,04013,,B & D WATER SYSTEM - TONOPAH,85354,09,,N,0,1,,TONOPAH,,,AZ0407618,__V_________U,,,33.450102,Zip Code Centroid,0,MARICOPA COUNTY,,,110013098245,* NOT GIVEN,10000,MARICOPA,-112.825079
,,,Y,AZ,,$0,1,Transient non-community system,,,,B10 CAMPGROUND,,09,,Y,0,1,,,,,AZ0415475,VVVVVVVSVVVSU,,,33.727625,County Centroid,1,,9,,110051145364,,30000,LA PAZ,-114.038793
04023,,,Y,AZ,15050301,$0,1,Community water system,,04023,,BACA FLOAT WATER CO,85646,09,,N,0,1,,TUBAC,,,AZ0412037,VVVVVVVVVVVVU,31.651,150503010506,31.606542,UNKNOWN,0,SANTA CRUZ COUNTY,12,85646,110013750299,BACA FLOAT WATER CO,17505,SANTA CRUZ,-111.04333
,,,Y,AZ,,$0,1,Community water system,,,,BACAVI VILLAGE,,09,,Y,0,1,,,,,090400687,__VVVVVVVVVVV,,,34.209964,State Centroid,1,,,,110012933237,,100000,,-111.602401
,,,Y,AZ,,$0,1,Transient non-community system,,,,BADGER CREEK DWID,,09,,N,0,1,,,,,AZ0403390,VVVVVVVVV___U,,,35.829692,County Centroid,0,,18,,110051132378,,30000,COCONINO,-111.773728
,,,Y,AZ,,$0,1,Transient non-community system,,,,BARTLETT LAKE MARINA,,09,,N,0,0,,,,,AZ0407188,____________U,,,33.346541,County Centroid,0,,,,110051116662,,30000,MARICOPA,-112.495534
,,,Y,AZ,,$0,1,Community water system,,04013,,BEARDSLEY WC #1 - SURPRISE,85374,09,,N,0,1,,SURPRISE,,,AZ0407007,VVV_VV_VVVV_U,,,33.65042,Zip Code Centroid,0,MARICOPA COUNTY,3,,110013257395,* NOT GIVEN,10000,MARICOPA,-112.409327
,,,Y,AZ,,$0,1,Community water system,,04013,,BEARDSLEY WC #4,85007,09,,N,0,1,,PHOENIX,,,AZ0407517,VVVVVV_VVVVVU,,,33.451082,Zip Code Centroid,0,MARICOPA COUNTY,4,,110016619480,* NOT GIVEN,10000,MARICOPA,-112.091204
,,,Y,AZ,,$0,1,Community water system,,04013,,BEARDSLEY WC #5 - SURPRISE,85374,09,,N,0,1,,SURPRISE,,,AZ0407528,VV__VV_VVVV_U,,,33.65042,Zip Code Centroid,0,MARICOPA COUNTY,9,,110020591322,* NOT GIVEN,10000,MARICOPA,-112.409327
,,,Y,AZ,,$0,1,Community water system,,,,BEARIZONA,,09,,N,0,1,,,,,AZ0403105,______VVVV__U,,,35.829692,County Centroid,0,,3,,AZ0403105,,30000,Coconino,-111.773728
,,,Y,AZ,,$0,1,Transient non-community system,,,,BEAVER CREEK GAS MART,,09,,N,0,0,,,,,AZ0413482,____________U,,,34.630044,County Centroid,0,,,,AZ0413482,,30000,Yavapai,-112.573745
,,,Y,AZ,,$0,1,Non-Transient non-community system,,,,BEAVER CREEK SCHOOL,,09,,N,0,1,,,,,AZ0413084,VV__________U,,,34.630044,County Centroid,0,,3,,110051144178,,30000,YAVAPAI,-112.573745
,,,Y,AZ,,$0,1,Community water system,,,,BEAVER DAM EAST DWID,,09,,Y,0,1,,,,,AZ0408127,VVVVVVVVVVVVU,,,35.717705,County Centroid,1,,6,,110048460358,,30000,MOHAVE,-113.749689
,,,Y,AZ,,$0,1,Community water system,,,,BEAVER DAM FILLING STATION,,09,,Y,0,1,,,,,AZ0408057,VVSVVSVVVVVVU,,,35.717705,County Centroid,1,,43,,110051188086,,30000,MOHAVE,-113.749689
04015,,,Y,AZ,15010010,$0,1,Community water system,,04015,,BEAVER DAM WATER CO II,86432,09,,Y,0,1,ENTRANCE POINT OF A FACILITY OR STATION,BEAVER DAM,,,AZ0408006,VVVVVVVVVVVVU,31.094,150100100208,36.90169,ADDRESS MATCHING-HOUSE NUMBER,1,MOHAVE COUNTY,11,86432,110013100072,BEAVER DAM WATER CO,30,MOHAVE,-113.92987
,,,Y,AZ,,$0,1,Community water system,,,,BEAVER DAM WC SYSTEM 2,,09,,N,0,1,,,,,AZ0408093,__VVVV_VV_VVU,,,35.717705,County Centroid,0,,4,,110048422284,,30000,MOHAVE,-113.749689
,,,Y,AZ,,$0,1,Transient non-community system,,,,BEAVER HOLLOW MINI MART,,09,,N,0,0,,,,,AZ0413343,____________U,,,34.630044,County Centroid,0,,,,110051160836,,30000,YAVAPAI,-112.573745
,1,,Y,AZ,,$0,1,Community water system,,04015,,BEAVER VALLEY WATER CO,86432,09,,N,1,1,,BEAVER DAM,,,AZ0404004,SSSVVV______U,,,36.907427,Zip Code Centroid,0,MOHAVE COUNTY,19,,110013255155,BEAVER VALLEY WATER CO,10000,MOHAVE,-113.934168
,,,Y,AZ,,$0,1,Community water system,,04003,,BELLA VISTA CITY - SIERRA VISTA,85635,09,,Y,0,1,,SIERRA VISTA,,,AZ0402010,VVVVVVVVVVVVU,,,31.549087,Zip Code Centroid,1,COCHISE COUNTY,3,,110013255770,* NOT GIVEN,10000,COCHISE,-110.252934
,,,Y,AZ,,$0,1,Community water system,,04003,,BELLA VISTA SOUTH - SIERRA VISTA,85635,09,,Y,0,1,,SIERRA VISTA,,,AZ0402007,VVVVVVVVVVVVU,,,31.549087,Zip Code Centroid,1,COCHISE COUNTY,1,,110013255716,* NOT GIVEN,10000,COCHISE,-110.252934
,,,Y,AZ,,$0,1,Community water system,,04005,,BELLEMONT TRUCK CENTER,86015,09,,Y,0,1,,BELLEMONT,,,AZ0403300,VVVV_VV____VU,,,35.237889,Zip Code Centroid,1,COCONINO COUNTY,4,,110020591297,BELLEMONT,10000,COCONINO,-111.821944
,1,,Y,AZ,,$0,1,Non-Transient non-community system,,,,BELLEMONT WATER COMPANY,,09,,Y,1,1,,,,,AZ0403394,VVVVVVVVVVVVU,,,35.829692,County Centroid,1,,33,,110051132430,,30000,COCONINO,-111.773728
,,,Y,AZ,,$0,1,Transient non-community system,,,,BELLINGER WATER SYSTEM,,09,,N,0,1,,,,,AZ0401025,V_VVV_______U,,,35.385845,County Centroid,0,,6,,110051111587,,30000,APACHE,-109.493747
04013,,,Y,AZ,15070104,$0,1,Community water system,,04013,,BELMONT MOUNTAIN DAIRY,85354,09,,N,0,0,CENTER OF A FACILITY OR STATION,TONOPAH,,,AZ0407736,____________U,59.774,150701040606,33.54092,ADDRESS MATCHING-HOUSE NUMBER,0,MARICOPA COUNTY,,85354,110039232229,7220 N 387TH AVE,30,MARICOPA,-112.88508
,,,Y,AZ,,$0,1,Transient non-community system,,,,BENSON ARIZONA KOA KAMPGROUND,,09,,N,0,0,,,,,AZ0402326,____________U,,,31.881793,County Centroid,0,,1,,110051128622,,30000,COCHISE,-109.75412
04003,,,Y,AZ,15050202,$0,1,Community water system,,04003,,"BENSON, CITY OF",85602,09,,Y,0,1,ENTRANCE POINT OF A FACILITY OR STATION,BENSON,,,AZ0402005,VVVVVVVVVVVVU,23.208,150502020905,31.967551,ADDRESS MATCHING-HOUSE NUMBER,1,COCHISE COUNTY,4,85602,110013022601,160 SOUTH HUACHUCA STREET,50,COCHISE,-110.29614
,,,Y,AZ,,$0,1,Community water system,,,,BENT RIVER APT ENCHANTMENT RESORT,,09,,N,0,1,,,,,AZ0413267,VV_____VVV__U,,,34.630044,County Centroid,0,,3,,110048141694,,30000,YAVAPAI,-112.573745
,,,Y,AZ,,$0,1,Community water system,,04019,,BERMUDA GARDENS TP - TUCSON,85701,09,,Y,0,1,,TUCSON,,,AZ0420014,_______VVVVVU,,,32.216191,Zip Code Centroid,1,PIMA COUNTY,,,110013262575,* NOT GIVEN,10000,PIMA,-110.9703
04015,,,Y,AZ,15030101,$0,1,Community water system,,04015,,BERMUDA WATER CO.,86426,09,,Y,0,1,ENTRANCE POINT OF A FACILITY OR STATION,BULLHEAD CITY,,,AZ0408063,VVVV____VVVVU,21.271,150301010306,35.024637,ADDRESS MATCHING-HOUSE NUMBER,1,MOHAVE COUNTY,201,86426,110013099388,4544 HIGHWAY 95,50,MOHAVE,-114.59798
,,,Y,AZ,,$0,1,Community water system,,04013,,BERNEIL WATER CO - PARADISE VALLEY,85253,09,,N,0,1,,PARADISE VALLEY,,,AZ0407008,_VVVV_VVVVV_U,,,33.545522,Zip Code Centroid,0,MARICOPA COUNTY,7,,110013095060,* NOT GIVEN,10000,MARICOPA,-111.958216
04025,,,Y,AZ,15060202,$0,1,Community water system,,04025,,BEVERLY GARDENS,86305,09,,Y,0,1,ENTRANCE POINT OF A FACILITY OR STATION,PRESCOTT,,,AZ0413408,VVSVVVVVVVSSU,14.275,150602020102,34.565898,ADDRESS MATCHING-HOUSE NUMBER,1,YAVAPAI COUNTY,19,86305,110010752159,1403 IRON SPRINGS ROAD,50,YAVAPAI,-112.492935
,,,Y,AZ,,$0,1,Community water system,,04017,,BIA HOPI HIGH SCHOOL,86043,09,,Y,0,1,,SECOND MESA,,,090400395,VSSSSV__VVVVV,,,35.935573,Zip Code Centroid,1,NAVAJO COUNTY,,,110013239003,P.O. BOX 337,10000,NAVAJO,-110.63931
,,,Y,AZ,,$0,1,Community water system,,,,BIA KEAMS CANYON,,09,,N,0,1,,,,,090400054,__VVVV_______,,,34.209964,State Centroid,0,,,,110012924513,,100000,,-111.602401
,,,Y,AZ,,$0,1,Community water system,,04015,,BIA TRUXTON AGENCY,86402,09,,N,0,1,,KINGMAN,,,090400063,_VVVVV_______,,,35.188901,Zip Code Centroid,0,MOHAVE COUNTY,,,110012931603,P.O. BOX 37,10000,MOHAVE,-114.05571
,,,Y,AZ,,$0,1,Community water system,,04015,,BIASI WATER COMPANY - MEADVIEW,86444,09,,N,0,1,,MEADVIEW,,,AZ0408138,VVVVVV____VVU,,,35.902871,Zip Code Centroid,0,MOHAVE COUNTY,9,,110013101008,* NOT GIVEN,10000,MOHAVE,-114.063845
,,01/12/2005,Y,AZ,,$0,1,Community water system,,04021,"$1,100",BIDEGAIN WATER CO,85237,09,,Y,0,1,,KEARNY,,,AZ0411022,VVVVVVVVVVVVU,,,33.06037,Zip Code Centroid,1,PINAL COUNTY,18,,110013107057,STAR RT BOX 207,10000,PINAL,-110.90684
04025,,,Y,AZ,15060202,$0,1,Community water system,,04025,,BIG PARK WATER CO,86351,09,,Y,0,1,CENTER OF A FACILITY OR STATION,SEDONA,,,AZ0413012,VVVVVVVVVVVSU,13.88,150602020611,34.78202,ADDRESS MATCHING-HOUSE NUMBER,1,YAVAPAI COUNTY,53,86351,110013110356,45 CASTLE ROCK ROAD SUITE 4,30,YAVAPAI,-111.76438
,,,Y,AZ,,$0,1,Non-Transient non-community system,,,,BIOSPHERE II,,09,,N,0,0,,,,,AZ0411405,____________U,,,32.91891,County Centroid,0,,,,110051053355,,30000,PINAL,-111.367257
,,,Y,AZ,,$0,1,Community water system,,04003,,BISBEE-DOUGLAS INTER ARPT,85603,09,,N,0,1,,BISBEE,,,AZ0402061,VVVVVVVV___VU,,,31.391365,Zip Code Centroid,0,COCHISE COUNTY,12,,110013022040,BISBEE-DOUGLAS INTER AIRPORT,10000,COCHISE,-109.924451
,,,Y,AZ,,$0,1,Community water system,,04025,,BLACK CANYON CITY WID,85324,09,,Y,0,1,,BLACK CANYON CITY,,,AZ0413051,VVVVVVVVVVVVU,,,34.074728,Zip Code Centroid,1,YAVAPAI COUNTY,16,,110013263253,34501 SOUTH OLD BLACK CANYON HIGHWAY,10000,YAVAPAI,-112.138004
,,,Y,AZ,,$0,1,Transient non-community system,,,,BLACK CANYON KOA INC,,09,,N,0,1,,,,,AZ0413406,VVV_VVVVVV__U,,,34.630044,County Centroid,0,,2,,110051114076,,30000,YAVAPAI,-112.573745
,,,Y,AZ,,$0,1,Transient non-community system,,,,BLACK ROCK RV VILLAGE,,09,,N,0,0,,,,,AZ0415080,____________U,,,33.727625,County Centroid,0,,3,,110051204594,,30000,LA PAZ,-114.038793
,,,Y,AZ,,$0,1,Transient non-community system,,,,BLAZIN M RANCH,,09,,N,0,0,,,,,AZ0413198,____________U,,,34.630044,County Centroid,0,,1,,110051135008,,30000,YAVAPAI,-112.573745
,,,Y,AZ,,$0,1,Transient non-community system,,,,BLM BURRO CREEK CAMPGROUND,,09,,N,0,1,,,,,AZ0408013,VVVVVV______U,,,35.717705,County Centroid,0,,8,,110051069829,,30000,MOHAVE,-113.749689
,,,Y,AZ,,$0,1,Transient non-community system,,,,BLM CEDAR POCKETS REST AREA,,09,,Y,0,1,,,,,AZ0408007,VVV_____VVVVU,,,35.717705,County Centroid,1,,4,,110051069758,,30000,MOHAVE,-113.749689
,,,Y,AZ,,$0,1,Transient non-community system,,,,BLM LAPOSA LTVA,,09,,N,0,1,,,,,AZ0415102,VVVVVVVVV__VU,,,33.727625,County Centroid,0,,15,,110051216484,,30000,LA PAZ,-114.038793
,,,Y,AZ,,$0,1,Transient non-community system,,,,BLM SAN PEDRO HOUSE,,09,,N,0,1,,,,,AZ0402412,VVVVV_______U,,,31.881793,County Centroid,0,,2,,110051155682,,30000,COCHISE,-109.75412
,,,Y,AZ,,$0,1,Non-Transient non-community system,,,,BLU WATER COMPANY,,09,,N,0,1,,,,,AZ0408169,__VVVVVVVVVVU,,,35.717705,County Centroid,0,,11,,110048015553,,30000,MOHAVE,-113.749689
,,,Y,AZ,,$0,1,Transient non-community system,,,,BLUE SKY RV PARK,,09,,Y,0,1,,,,,AZ0414074,VVVVV___VVVVU,,,32.773942,County Centroid,1,,4,,110051164805,,30000,YUMA,-113.910905
,,,Y,AZ,,$0,1,Non-Transient non-community system,,,,BONITA PUBLIC SCHOOL,,09,,N,0,1,,,,,AZ0405006,VV_VVVVVVVVVU,,,32.931828,County Centroid,0,,9,,110051057903,,30000,GRAHAM,-109.87831
,,,Y,AZ,,$0,1,Transient non-community system,,04007,,BONITA WATER COMPANY - PAYSON,85541,09,,N,0,1,,PAYSON,,,AZ0404024,____VVVVV___U,,,34.258793,Zip Code Centroid,0,GILA COUNTY,3,,110013095113,* NOT GIVEN,10000,GILA,-111.307582
,,,Y,AZ,,$0,1,Community water system,,,,BOULDER INN,,09,,Y,0,1,,,,,AZ0408307,SVVVVVVVVVVVU,,,35.717705,County Centroid,1,,24,,110047930860,,30000,MOHAVE,-113.749689
,,,Y,AZ,,$0,1,Community water system,,04013,,BOURDON RANCH ESTATES,85007,09,,N,0,0,,PHOENIX,,,AZ0409049,V___________U,,,33.451082,Zip Code Centroid,0,MARICOPA COUNTY,8,,110013100562,* NOT GIVEN,10000,MARICOPA,-112.091204
04012,,,Y,AZ,15030105,$0,1,Transient non-community system,,04012,,BOUSE COMMUNITY COUNTY PARK,85325,09,,N,0,0,,BOUSE,,,AZ0415099,____________U,9.039,150301050504,33.928861,UNKNOWN,0,LA PAZ COUNTY,3,85325,110039384136,NO ADDRESS ON RECORD,17505,LA PAZ,-114.01666
04012,,,Y,AZ,15030105,$0,1,Non-Transient non-community system,,04012,,BOUSE ELEMENTARY SCHOOL,85325,09,,Y,0,1,ENTRANCE POINT OF A FACILITY OR STATION,BOUSE,,,AZ0415115,VVVVVVVVVV_VU,9.06,150301050504,33.93151,ADDRESS MATCHING-NEAREST INTERSECTION,1,LA PAZ COUNTY,13,85325,110011461293,PLOMOSA AND FRAME STREET,100,LA PAZ,-114.00799
04012,,,Y,AZ,15030105,$0,1,Transient non-community system,,04012,,BOUSE RV PARK,85325,09,,Y,0,1,,BOUSE,,,AZ0415387,______VVVVVVU,8.876,150301050504,33.935111,UNKNOWN,1,LA PAZ COUNTY,4,85325,110039384163,NO ADDRESS ON RECORD,17505,LA PAZ,-114.00475
04012,2,,Y,AZ,15030105,$0,1,Community water system,,04012,,BOUSE WORLEY WATER SYSTEM,85325,09,,Y,2,1,CENTER OF A FACILITY OR STATION,BOUSE,,,AZ0415038,SSSVVVVVVVVVU,9.07,150301050504,33.93052,ADDRESS MATCHING-HOUSE NUMBER,1,LA PAZ COUNTY,45,85325,110039384172,44250 E WORLEY,30,LA PAZ,-114.00686
,,,Y,AZ,,$0,1,Community water system,,04003,,BOWIE WID,85605,09,,Y,0,1,,BOWIE,,,AZ0402006,__VVV_VVVVVVU,,,32.294454,Zip Code Centroid,1,COCHISE COUNTY,7,,110013022638,BOWIE WID,10000,COCHISE,-109.418523
,,,Y,AZ,,$0,1,Community water system,,04013,,BRADSHAW MT VIEW WATER CO,85007,09,,N,0,1,,PHOENIX,,,AZ0413062,____VVV_____U,,,33.451082,Zip Code Centroid,0,MARICOPA COUNTY,3,,110013107958,* NOT GIVEN,10000,MARICOPA,-112.091204
,,,Y,AZ,,$0,1,Community water system,,04025,,"BRADSHAW WC, INC - PRESCOTT",86301,09,,N,0,1,,PRESCOTT,,,AZ0413141,VVV_VV____V_U,,,34.788492,Zip Code Centroid,0,YAVAPAI COUNTY,3,,110013112130,* NOT GIVEN,10000,YAVAPAI,-112.929014
,,,Y,AZ,,$0,1,Transient non-community system,,,,BRANSONS RV RESORT,,09,,N,0,1,,,,,AZ0415323,__VVVVVVVV__U,,,33.727625,County Centroid,0,,8,,110051078052,,30000,LA PAZ,-114.038793
,,,Y,AZ,,$0,1,Community water system,,04021,,BREEZEWAY TRAILER PARK,85137,09,,Y,0,1,,KEARNY,,,AZ0411315,SSSSSVVSSVVVU,,,33.107819,Zip Code Centroid,1,PINAL COUNTY,47,,110010678141,PO BOX 553,10000,PINAL,-110.973166
,,,Y,AZ,,$0,1,Transient non-community system,,,,BREEZY PINES WC LOWER,,09,,N,0,0,,,,,AZ0413111,____________U,,,34.630044,County Centroid,0,,1,,110051112112,,30000,YAVAPAI,-112.573745
,,,Y,AZ,,$0,1,Transient non-community system,,,,BREEZY PINES WC UPPER,,09,,N,0,0,,,,,AZ0413013,____________U,,,34.630044,County Centroid,0,,,,110051185882,,30000,YAVAPAI,-112.573745
,,,Y,AZ,,$0,1,Transient non-community system,,,,BRENDA R V RESORT,,09,,N,0,0,,,,,AZ0415072,____________U,,,33.727625,County Centroid,0,,,,110051064619,,30000,LA PAZ,-114.038793
,,,Y,AZ,,$0,1,Transient non-community system,,,,BRENTWOOD CAMP,,09,,N,0,0,,,,,AZ0401330,____________U,,,35.385845,County Centroid,0,,1,,110051172672,,30000,APACHE,-109.493747
,,,Y,AZ,,$0,1,Transient non-community system,,,,BRIAR PATCH RESORT,,09,,N,0,1,,,,,AZ0403339,_V__VVVVV___U,,,35.829692,County Centroid,0,,5,,110051147282,,30000,COCONINO,-111.773728
,,,Y,AZ,,$0,1,Community water system,,04012,,BROOKE WATER LLC - PARKER DAM,,09,,Y,0,1,,,,,AZ0415027,VVVVVVVVSSSSU,,,33.727625,County Centroid,1,LA PAZ COUNTY,26,,110013114021,,30000,LA PAZ,-114.038793
,,,Y,AZ,,$0,1,Non-Transient non-community system,,,,BROPHY COLLEGE PREPARATORY,,09,,N,0,1,,,,,AZ0407182,V_VVVVVVVVV_U,,,33.346541,County Centroid,0,,3,,110051116564,,30000,MARICOPA,-112.495534
,,,Y,AZ,,$0,1,Transient non-community system,,,,BUCKAROO'S COUNTRY STORE,,09,,N,0,0,,,,,AZ0415112,____________U,,,33.727625,County Centroid,0,,1,,110051036687,,30000,LA PAZ,-114.038793
,,,Y,AZ,,$0,1,Non-Transient non-community system,,,,BUCKEYE ARMED FORCES RESERVE CENTER,,09,,N,0,1,,,,,AZ0407790,VVVVVVVVVVV_U,,,33.346541,County Centroid,0,,14,,110051133395,,30000,MARICOPA,-112.495534
,,,Y,AZ,,$0,1,Transient non-community system,,,,BUCKEYE CONGREGATION OF JEHOVAHS WITNESS,,09,,N,0,0,,,,,AZ0407783,____________U,,,33.346541,County Centroid,0,,2,,110051133359,,30000,MARICOPA,-112.495534
,,,Y,AZ,,$0,1,Transient non-community system,,,,BUCKEYE FIRST ASSEMBLY OF GOD,,09,,N,0,0,,,,,AZ0407184,____________U,,,33.346541,County Centroid,0,,1,,110051116608,,30000,MARICOPA,-112.495534
,,,Y,AZ,,$0,1,Transient non-community system,,,,BUCKEYE HILLS RECREATION,,09,,N,0,1,,,,,AZ0407739,____VVVVV___U,,,33.346541,County Centroid,0,,,,110051133199,,30000,MARICOPA,-112.495534
,,,Y,AZ,,$0,1,Transient non-community system,,,,BUCKEYE MUNICIPAL AIRPORT,,09,,N,0,1,,,,,AZ0407462,_________V__U,,,33.346541,County Centroid,0,,1,,110051116957,,30000,MARICOPA,-112.495534
,,,Y,AZ,,$0,1,Community water system,,04013,,"BUCKEYE, MUNIC WATER DEPT",85326,09,,N,0,1,,BUCKEYE,,,AZ0407089,____VVVVVVVVU,,,33.375213,Zip Code Centroid,0,MARICOPA COUNTY,5,,110013257000,* NOT GIVEN,10000,MARICOPA,-112.565226
,,,Y,AZ,,$0,1,Community water system,,04017,,BUCKSKIN ARTISTS COMMUNI - HEBER,85928,09,,Y,0,1,,HEBER,,,AZ0409305,VVVVVVVVVVVVU,,,34.435166,Zip Code Centroid,1,NAVAJO COUNTY,4,,110016619453,* NOT GIVEN,10000,NAVAJO,-110.649905
,1,,Y,AZ,,$0,1,Community water system,,04025,,BUFFALO RUN MHP - CAMP VERDE,86322,09,,Y,1,1,,CAMP VERDE,,,AZ0413348,VVVV__VV__VVU,,,34.547713,Zip Code Centroid,1,YAVAPAI COUNTY,23,,110013109037,* NOT GIVEN,10000,YAVAPAI,-111.852682
,,,Y,AZ,,$0,1,Community water system,,04013,,BULFER WATER CO - BUCKEYE,85326,09,,N,0,1,,BUCKEYE,,,AZ0407114,____VV___V__U,,,33.375213,Zip Code Centroid,0,MARICOPA COUNTY,2,,110013257126,* NOT GIVEN,10000,MARICOPA,-112.565226
04007,,,Y,AZ,15040007,$0,1,Non-Transient non-community system,,04007,,BUREAU OF INDIAN AFFAIRS-SAN CARLOS AGENCY,85550,09,,N,0,1,ENTRANCE POINT OF A FACILITY OR STATION,SAN CARLOS,,,090400060,VVVVVVVVV____,98.607,150400070411,33.3545,ADDRESS MATCHING-HOUSE NUMBER,0,GILA COUNTY,,85550,110058232504,1 SAN CARLOS AVENUE,50,GILA,-110.4525
,,,Y,AZ,,$0,1,Transient non-community system,,,,BURRO INN,,09,,N,0,1,,,,,AZ0413316,__VVV_______U,,,34.630044,County Centroid,0,,3,,110051153808,,30000,YAVAPAI,-112.573745
04012,,,Y,AZ,15030106,$0,1,Transient non-community system,,04012,,BURRWOOD RV PARK #2,85346,09,,N,0,0,,QUARTZSITE,,,AZ0415103,____________U,9.05,150301060109,33.580072,,0,LA PAZ COUNTY,2,85348,110039317325,29620 N 53 ST,36005,LA PAZ,-114.24375
,,,Y,AZ,,$0,1,Transient non-community system,,,,BURRWOOD RV PARK 1,,09,,N,0,0,,,,,AZ0415092,____________U,,,33.727625,County Centroid,0,,1,,110051216411,,30000,LA PAZ,-114.038793
,,,Y,AZ,,$0,1,Transient non-community system,,,,BUTCHERS HOOK RESTAURANT,,09,,N,0,1,,,,,AZ0404380,VV__V_V_____U,,,33.789618,County Centroid,0,,11,,110051100189,,30000,GILA,-110.81187
,,,Y,AZ,,$0,1,Transient non-community system,,,,BUTTERFIELD STATION WASTE MANAGEMENT,,09,,N,0,0,,,,,AZ0407173,____________U,,,33.346541,County Centroid,0,,,,110051108332,,30000,MARICOPA,-112.495534
,,,Y,AZ,,$0,1,Transient non-community system,,,,BUTTERFIELD VILLAGE,,09,,N,0,1,,,,,AZ0413143,_VV_________U,,,34.630044,County Centroid,0,,2,,110051082430,,30000,YAVAPAI,-112.573745
,,,Y,AZ,,$0,1,Community water system,,,,Baby Rocks NTUA,,09,,Y,0,1,,,,,NN0400824,VVVVVVVVVVVVV,,,34.209964,State Centroid,1,,4,,NN0400824,,100000,,-111.602401
,,,Y,AZ,,$0,1,Transient non-community system,,,,C BAR DIAMOND RV PARK,,09,,N,0,0,,,,,AZ0404095,____________U,,,33.789618,County Centroid,0,,,,110051193098,,30000,GILA,-110.81187
,,,Y,AZ,,$0,1,Community water system,,04025,,C-OASIS PARK - COTTONWOOD,86326,09,,N,0,0,,COTTONWOOD,,,AZ0413423,____________U,,,34.717951,Zip Code Centroid,0,YAVAPAI COUNTY,,,110013262959,* NOT GIVEN,10000,YAVAPAI,-112.009015
,,,Y,AZ,,$0,1,Community water system,,04013,,CABALLEROS WATER CO - WICKENBURG,85390,09,,N,0,1,,WICKENBURG,,,AZ0407012,VVVVVV__VVV_U,,,33.969312,Zip Code Centroid,0,MARICOPA COUNTY,12,,110013095097,* NOT GIVEN,10000,MARICOPA,-112.754163
,,,Y,AZ,,$0,1,Transient non-community system,,,,CABALLO LOCO RANCH,,09,,N,0,1,,,,,AZ0420601,V__V___V____U,,,32.128237,County Centroid,0,,6,,110051217660,,30000,PIMA,-111.783018
,,,Y,AZ,,$0,1,Community water system,,04019,,CACTUS COUNTRY TRAILER HAVEN - TUCSON,85701,09,,N,0,1,,TUCSON,,,AZ0420197,__VVVVV_____U,,,32.216191,Zip Code Centroid,0,PIMA COUNTY,6,,110013115093,* NOT GIVEN,10000,PIMA,-110.9703
,,,Y,AZ,,$0,1,Community water system,,04021,,CACTUS FOREST - FLORENCE,85132,09,,N,0,1,,FLORENCE,,,AZ0411052,V_V_________U,,,33.11774,Zip Code Centroid,0,PINAL COUNTY,2,,110013106584,* NOT GIVEN,10000,PINAL,-111.456575
,,,Y,AZ,,$0,1,Community water system,,04013,,CACTUS PETES MEX RESTURANT - BEAVER CREEK,85007,09,,N,0,1,,PHOENIX,,,AZ0413351,VVVVVVVVVVV_U,,,33.451082,Zip Code Centroid,0,MARICOPA COUNTY,9,,110013109055,* NOT GIVEN,10000,MARICOPA,-112.091204
,,,Y,AZ,,$0,1,Transient non-community system,,04013,,CACTUS RANCH TRAILER COURT - MORRISTOWN,85342,09,,N,0,0,,MORRISTOWN,,,AZ0407372,____________U,,,33.856965,Zip Code Centroid,0,MARICOPA COUNTY,,,110013256957,* NOT GIVEN,10000,MARICOPA,-112.616134
,,,Y,AZ,,$0,1,Community water system,,,,CACTUS-STELLAR LIMITED,,09,,N,0,1,,,,,AZ0420801,___VVV_V____U,,,34.209964,State Centroid,0,,6,,110048018649,,100000,,-111.602401
04015,,,Y,AZ,15030101,$0,1,Community water system,,04015,,CALIFORNIA VILLAGE,86446,09,,N,0,0,CENTER OF A FACILITY OR STATION,MOHAVE VALLEY,,,090600237,_____________,26.02,150301010405,34.90471,ADDRESS MATCHING-HOUSE NUMBER,0,MOHAVE COUNTY,,86440,110012942343,8678 HIGHWAY 95 - PO BOX 5559,30,MOHAVE,-114.5979
04019,,01/11/2011,Y,AZ,15050303,$0,1,Non-Transient non-community system,,04019,"$350,000",CALPORTLAND - RILLITO CEMENT PLANT,85654,09,Y,N,0,0,CENTER OF A FACILITY OR STATION,RILLITO,,,AZ0420011 AZ0420581,V___________U,23.138,150503010908,32.41056,,0,PIMA COUNTY,6,85653,110038167550,11115 N. CASA GRANDE HIGHWAY,36100,PIMA,-111.151632
04005,1,04/10/2012,Y,AZ,15020018,$0,1,Community water system,,04005,$420,CAMERON TRADING POST WWTP,86020,09,,Y,1,1,ENTRANCE POINT OF A FACILITY OR STATION,CAMERON,,,AZ0403006,VSVVSSSVVVVVU,99.6,150200180902,36.30301,ADDRESS MATCHING-HOUSE NUMBER,1,COCONINO COUNTY,23,86020,110010062546,HWY 89 AT THE LITTLE COLORADO,30,COCONINO,-111.45966
,,,Y,AZ,,$0,1,Transient non-community system,,,,CAMP ALOMA - AMERICAN LUTHERAN CHURCH,,09,,N,0,0,,,,,AZ0413405,____________U,,,34.630044,County Centroid,0,,,,110051114058,,30000,YAVAPAI,-112.573745
,,,Y,AZ,,$0,1,Transient non-community system,,,,CAMP CHARLES PEARLSTEIN,,09,,N,0,0,,,,,AZ0413331,____________U,,,34.630044,County Centroid,0,,,,110051160685,,30000,YAVAPAI,-112.573745
,,,Y,AZ,,$0,1,Transient non-community system,,,,CAMP COLLEY,,09,,Y,0,1,,,,,AZ0403096,________VVVVU,,,35.829692,County Centroid,1,,1,,110051125279,,30000,COCONINO,-111.773728
,,,Y,AZ,,$0,1,Transient non-community system,,,,CAMP COLTON FLAGSTAFF SCHOOL,,09,,N,0,1,,,,,AZ0403357,SVVVVV______U,,,35.829692,County Centroid,0,,13,,110051106977,,30000,COCONINO,-111.773728
,,,Y,AZ,,$0,1,Transient non-community system,,,,CAMP CREEK ASSOCIATION,,09,,N,0,1,,,,,AZ0407854,VVVVV_______U,,,33.346541,County Centroid,0,,3,,110051133527,,30000,MARICOPA,-112.495534
,,,Y,AZ,,$0,1,Transient non-community system,,,,CAMP GERONIMO,,09,,N,0,1,,,,,AZ0404319,_VV__VVV__V_U,,,33.789618,County Centroid,0,,10,,110051026590,,30000,GILA,-110.81187
,,,Y,AZ,,$0,1,Transient non-community system,,,,CAMP LAWTON,,09,,N,0,0,,,,,AZ0420457,____________U,,,32.128237,County Centroid,0,,3,,110051123459,,30000,PIMA,-111.783018
,,,Y,AZ,,$0,1,Transient non-community system,,,,CAMP LEVI LEVI,,09,,Y,0,1,,,,,AZ0408359,VVVVV___VVVVU,,,35.717705,County Centroid,1,,3,,110051078383,,30000,MOHAVE,-113.749689
,,,Y,AZ,,$0,1,Transient non-community system,,,,CAMP LO MIA LDS CHURCH,,09,,N,0,1,,,,,AZ0404317,VVVVV_______U,,,33.789618,County Centroid,0,,1,,110051026572,,30000,GILA,-110.81187
,,,Y,AZ,,$0,1,Transient non-community system,,,,CAMP MARIPAI GIRL SCOUTS,,09,,N,0,0,,,,,AZ0413321,____________U,,,34.630044,County Centroid,0,,,,110051153899,,30000,YAVAPAI,-112.573745
,,,Y,AZ,,$0,1,Community water system,,04015,,CAMP MOHAVE - BULLHEAD CITY,86429,09,,N,0,0,,BULLHEAD CITY,,,AZ0408037,____________U,,,35.16426,Zip Code Centroid,0,MOHAVE COUNTY,,,110013098977,* NOT GIVEN,10000,MOHAVE,-114.552035
,,,Y,AZ,,$0,1,Transient non-community system,,,,CAMP SOARING EAGLE,,09,,Y,0,1,,,,,AZ0413195,VVVVVVV_VVVVU,,,34.630044,County Centroid,1,,5,,110051134946,,30000,YAVAPAI,-112.573745
,,,Y,AZ,,$0,1,Non-Transient non-community system,,,,CAMP VERDE SCHOOL DIST 28,,09,,Y,0,1,,,,,AZ0413081,VVVVVVVVVVVVU,,,34.630044,County Centroid,1,,12,,110051144098,,30000,YAVAPAI,-112.573745
,,,Y,AZ,,$0,1,Community water system,,04025,,CAMP VERDE WATER SYS-VER,86322,09,,N,0,1,,CAMP VERDE,,,AZ0413072,VVVVV_VV____U,,,34.547713,Zip Code Centroid,0,YAVAPAI COUNTY,7,,110013108010,CAMP VERDE WATER SYSTEM,10000,YAVAPAI,-111.852682
,,,Y,AZ,,$0,1,Community water system,,04025,,CAMP VERDE WTR SYSTEM,86322,09,,N,0,1,,CAMP VERDE,,,AZ0413015,VVVVV_VV____U,,,34.547713,Zip Code Centroid,0,YAVAPAI COUNTY,5,,110013110383,CAMP VERDE WATER SYSTEM,10000,YAVAPAI,-111.852682
,,,Y,AZ,,$0,1,Transient non-community system,,,,CAMP WAMATOCHICK - TEEN ROUND UP,,09,,N,0,0,,,,,AZ0413446,____________U,,,34.630044,County Centroid,0,,2,,110051066813,,30000,YAVAPAI,-112.573745
,,,Y,AZ,,$0,1,Transient non-community system,,,,CAMP WHISPERING PINES GI,,09,,Y,0,1,,,,,AZ0420400,SSSSSSSVVVVVU,,,32.128237,County Centroid,1,,13,,110051152989,,30000,PIMA,-111.783018
,,,Y,AZ,,$0,1,Non-Transient non-community system,,,,CAMPBELL AVENUE FARMS,,09,,N,0,1,,,,,AZ0420490,V_________VVU,,,32.128237,County Centroid,0,,1,,110051083091,,30000,PIMA,-111.783018
,,,Y,AZ,,$0,1,Community water system,,04019,,CAMPBELL ESTATES MHP - TUCSON,85701,09,,Y,0,1,,TUCSON,,,AZ0420019,V___VVVVVVVVU,,,32.216191,Zip Code Centroid,1,PIMA COUNTY,7,,110013111006,* NOT GIVEN,10000,PIMA,-110.9703
,,,Y,AZ,,$0,1,Non-Transient non-community system,,,,CANAM STEEL CORPORATION,,09,,N,0,1,,,,,AZ0407745,___VVVV_____U,,,33.346541,County Centroid,0,,7,,110051133233,,30000,MARICOPA,-112.495534
,,,Y,AZ,,$0,1,Non-Transient non-community system,,,,CANCER TREATMENT CENTERS OF AMERICA,,09,,N,0,1,,,,,AZ0407795,______V___VVU,,,33.346541,County Centroid,0,,1,,AZ0407795,,30000,Maricopa,-112.495534
,,,Y,AZ,,$0,1,Transient non-community system,,,,CANYON LAKE MARINA,,09,,N,0,1,,,,,AZ0407654,V__________VU,,,33.346541,County Centroid,0,,6,,110051183866,,30000,MARICOPA,-112.495534
,,,Y,AZ,,$0,1,Community water system,,,,CANYON WATER IMPROVEMENT DISTRICT,,09,,N,0,1,,,,,AZ0404112,VVVVVVVVVVVVU,,,33.789618,County Centroid,0,,12,,110064359108,,30000,GILA,-110.81187
,,,Y,AZ,,$0,1,Transient non-community system,,,,CANYON WEST RV PARK LLC,,09,,N,0,1,,,,,AZ0408310,VV__________U,,,35.717705,County Centroid,0,,5,,110051020630,,30000,MOHAVE,-113.749689
,,,Y,AZ,,$0,1,Community water system,,04013,,CAREFREE WC,85377,09,,N,0,1,,CAREFREE,,,AZ0407015,VVVVVVVVVVV_U,,,33.824695,Zip Code Centroid,0,MARICOPA COUNTY,,,110013097139,* NOT GIVEN,10000,MARICOPA,-111.921915
,,,Y,AZ,,$0,1,Transient non-community system,,,,CARIOCA COMPANY SHELL 22,,09,,N,0,0,,,,,AZ0407711,____________U,,,33.346541,County Centroid,0,,,,110051125992,,30000,MARICOPA,-112.495534
,,,Y,AZ,,$0,1,Transient non-community system,,,,CARIOCA TC # 11 - WICKIEUP,,09,,N,0,0,,,,,AZ0408135,____________U,,,35.717705,County Centroid,0,,2,,110051205227,,30000,MOHAVE,-113.749689
,,,Y,AZ,,$0,1,Community water system,,04019,,CAROLANNE DRIVE HOA - TUCSON,85701,09,,N,0,1,,TUCSON,,,AZ0420529,____V_______U,,,32.216191,Zip Code Centroid,0,PIMA COUNTY,2,,110013115574,* NOT GIVEN,10000,PIMA,-110.9703
,,,Y,AZ,,$0,1,Community water system,,04019,,CASA ARROYO ASSN INC - SONOITA,85637,09,,N,0,1,,SONOITA,,,AZ0412020,__VVVV______U,,,31.778464,Zip Code Centroid,0,PIMA COUNTY,5,,110013109894,* NOT GIVEN,10000,SANTA CRUZ,-110.702534
,,,Y,AZ,,$0,1,Transient non-community system,,,,CASA GRANDE MEXICAN RESTAURANT,,09,,N,0,1,,,,,AZ0413142,_VV_________U,,,34.630044,County Centroid,0,,1,,110051082412,,30000,YAVAPAI,-112.573745
,,,Y,AZ,,$0,1,Community water system,,04021,,CASA GRANDE WEST WATER CO,85222,09,,N,0,1,,CASA GRANDE,,,AZ0411024,VVVVVVVVVVVVU,,,32.89677,Zip Code Centroid,0,PINAL COUNTY,18,,110013107100,* NOT GIVEN,10000,PINAL,-111.75726
,,,Y,AZ,,$0,1,Transient non-community system,,,,CASA MALPAIS CAMPGROUND,,09,,N,0,0,,,,,AZ0401313,____________U,,,35.385845,County Centroid,0,,3,,110051172413,,30000,APACHE,-109.493747
,,,Y,AZ,,$0,1,Community water system,,04019,,CASITAS DE CASTILIAN - TUCSON,85701,09,,N,0,1,,TUCSON,,,AZ0420531,______V___V_U,,,32.216191,Zip Code Centroid,0,PIMA COUNTY,1,,110013271244,* NOT GIVEN,10000,PIMA,-110.9703
,,,Y,AZ,,$0,1,Transient non-community system,,,,CASTLE CREST MONTEZUMA,,09,,N,0,0,,,,,AZ0413245,____________U,,,34.630044,County Centroid,0,,1,,110051087541,,30000,YAVAPAI,-112.573745
,,,Y,AZ,,$0,1,Transient non-community system,,,,CASTLE ROCK SHORES TRAILER PARK,,09,,N,0,1,,,,,AZ0415328,VVVVVVVVV___U,,,33.727625,County Centroid,0,,6,,110051078070,,30000,LA PAZ,-114.038793
,,,Y,AZ,,$0,1,Community water system,,04019,,CATALINA COUNTRY MOBILE - TUCSON,85701,09,,N,0,0,,TUCSON,,,AZ0420500,____________U,,,32.216191,Zip Code Centroid,0,PIMA COUNTY,12,,110013115510,* NOT GIVEN,10000,PIMA,-110.9703
,,,Y,AZ,,$0,1,Community water system,,04019,,CATALINA VILLAGE - TUCSON,85701,09,,Y,0,1,,TUCSON,,,AZ0410219,SVVVVVVVVVVVU,,,32.216191,Zip Code Centroid,1,PIMA COUNTY,70,,110013104354,* NOT GIVEN,10000,PIMA,-110.9703
,,,Y,AZ,,$0,1,Non-Transient non-community system,,,,CATERPILLAR INC,,09,,N,0,0,,,,,AZ0410258,____________U,,,32.128237,County Centroid,0,,1,,110048363515,,30000,PIMA,-111.783018
,,,Y,AZ,,$0,1,Community water system,,,,CATHEDRAL ROCK ESTATES WATER COOP,,09,,Y,0,1,,,,,AZ0413119,V_VVV_____VVU,,,34.630044,County Centroid,1,,3,,110051112210,,30000,YAVAPAI,-112.573745
,,,Y,AZ,,$0,1,Community water system,,04025,,CATHEDRAL VISTA WC - SEDONA,86339,09,,N,0,1,,SEDONA,,,AZ0413016,__VV_V______U,,,34.83968,Zip Code Centroid,0,YAVAPAI COUNTY,2,,110013110481,* NOT GIVEN,10000,COCONINO,-111.7811
,,,Y,AZ,,$0,1,Community water system,,04013,,CAVE CREEK WATER CO,85331,09,,Y,0,1,,CAVE CREEK,,,AZ0407016,VVVVVVSVVVVSU,,,33.780184,Zip Code Centroid,1,MARICOPA COUNTY,11,,110013097200,* NOT GIVEN,10000,MARICOPA,-111.971507
,,,Y,AZ,,$0,1,Transient non-community system,,,,CDS CATTLE COMPANY,,09,,Y,0,1,,,,,AZ0413212,________VVVVU,,,34.630044,County Centroid,1,,,,110051143687,,30000,YAVAPAI,-112.573745
,,,Y,AZ,,$0,1,Community water system,,04001,,CEDAR GROVE WATER CO - VERNON,85940,09,,Y,0,1,,VERNON,,,AZ0401049,V__________VU,,,34.257452,Zip Code Centroid,1,APACHE COUNTY,4,,110013022399,* NOT GIVEN,10000,APACHE,-109.69154
,,,Y,AZ,,$0,1,Community water system,,04013,,CENTENNIAL PARK DWID,85007,09,,Y,0,1,,PHOENIX,,,AZ0408090,VVVVVVVVVVSSU,,,33.451082,Zip Code Centroid,1,MARICOPA COUNTY,22,,110013099707,* NOT GIVEN,10000,MARICOPA,-112.091204
,,,Y,AZ,,$0,1,Non-Transient non-community system,,,,CENTRAL AZ COLLEGE ARAVAI,,09,,Y,0,1,,,,,AZ0411077,VVVVVVVVVVVVU,,,32.91891,County Centroid,1,,9,,110051078285,,30000,PINAL,-111.367257
,,,Y,AZ,,$0,1,Community water system,,04015,,CERBAT WATER CO INC - KINGMAN,86401,09,,N,0,1,,KINGMAN,,,AZ0408341,VV_V__V____VU,,,35.191482,Zip Code Centroid,0,MOHAVE COUNTY,6,,110013101044,* NOT GIVEN,10000,MOHAVE,-113.989826
,,,Y,AZ,,$0,1,Community water system,,04013,,CHANDLER HTS CITRUS - IRR,85224,09,,N,0,1,,CHANDLER,,,AZ0407409,__VVV_______U,,,33.324332,Zip Code Centroid,0,MARICOPA COUNTY,1,,110013097497,* NOT GIVEN,10000,MARICOPA,-111.87647
,,,Y,AZ,,$0,1,Community water system,1,04013,,"CHANDLER, MUNIC WTR DEPT",85224,09,,Y,0,1,,CHANDLER,,,AZ0407090,____VVVVVVVVU,,,33.324332,Zip Code Centroid,1,MARICOPA COUNTY,23,,110013096586,* NOT GIVEN,10000,MARICOPA,-111.87647
,,,Y,AZ,,$0,1,Transient non-community system,,,,CHAPACHE HOA,,09,,N,0,1,,,,,AZ0401002,VVVVVVVV__VVU,,,35.385845,County Centroid,0,,5,,110051048228,,30000,APACHE,-109.493747
,,,Y,AZ,,$0,1,Community water system,,04013,,CHAPARRAL CITY WATER CO - FOUNTAIN HILLS,85268,09,,N,0,1,,FOUNTAIN HILLS,,,AZ0407017,VVVVV____V__U,,,33.604181,Zip Code Centroid,0,MARICOPA COUNTY,1,,110013257199,* NOT GIVEN,10000,MARICOPA,-111.740652
,,,Y,AZ,,$0,1,Community water system,,04013,,CHAPARRAL PINES - LINDEN,85007,09,,N,0,1,,PHOENIX,,,AZ0409039,__V_________U,,,33.451082,Zip Code Centroid,0,MARICOPA COUNTY,1,,110013101641,* NOT GIVEN,10000,MARICOPA,-112.091204
,,,Y,AZ,,$0,1,Community water system,,04013,,CHAPARRAL WTR CO - WITTMANN,85361,09,,N,0,1,,WITTMANN,,,AZ0407064,__________VVU,,,33.76265,Zip Code Centroid,0,MARICOPA COUNTY,1,,110013095970,* NOT GIVEN,10000,MARICOPA,-112.543665
,,,Y,AZ,,$0,1,Community water system,,,,CHARCO 27,,09,,N,0,1,,,,,090400008,______VV_____,,,34.209964,State Centroid,0,,,,110012928083,,100000,,-111.602401
,,,Y,AZ,,$0,1,Community water system,,04015,,CHIEF SLEEP EASY - BEAVER DAM,86432,09,,N,0,0,,BEAVER DAM,,,AZ0408089,____________U,,,36.907427,Zip Code Centroid,0,MOHAVE COUNTY,1,,110013099645,* NOT GIVEN,10000,MOHAVE,-113.934168
,,,Y,AZ,,$0,1,Transient non-community system,,,,CHIEFTAIN INN,,09,,Y,0,1,,,,,AZ0401062,VVVVVVVVVVVVU,,,35.385845,County Centroid,1,,8,,110051089148,,30000,APACHE,-109.493747
04017,,,Y,AZ,14080204,$0,1,Community water system,,04017,,CHILCHINBETO - NTUA,86033,09,,Y,0,1,CENTER OF FACILITY,CHILCHINBITO,,,NN0400290,VVVVVVVVVVVVV,99.426,140802041204,36.530556,ZIP CODE-CENTROID,1,NAVAJO COUNTY,6,86033,110016807972,UNKNOWN,17400,NAVAJO,-110.063889
,,,Y,AZ,,$0,1,Community water system,,04025,,CHINO MEADOWS II - CHINO VALLEY,86323,09,,N,0,1,,CHINO VALLEY,,,AZ0413079,__VVVVV__VV_U,,,34.773515,Zip Code Centroid,0,YAVAPAI COUNTY,4,,110013111499,* NOT GIVEN,10000,YAVAPAI,-112.39027
,,,Y,AZ,,$0,1,Transient non-community system,,04025,,CHINO MOBILE HOME RANCH - PRESCOTT,86301,09,,N,0,1,,PRESCOTT,,,AZ0413414,VV__________U,,,34.788492,Zip Code Centroid,0,YAVAPAI COUNTY,1,,110013109162,* NOT GIVEN,10000,YAVAPAI,-112.929014
,,,Y,AZ,,$0,1,Transient non-community system,,,,CHINO VALLEY CHURCH,,09,,N,0,0,,,,,AZ0413178,____________U,,,34.630044,County Centroid,0,,,,110051134704,,30000,YAVAPAI,-112.573745
,,,Y,AZ,,$0,1,Transient non-community system,,,,CHINO VALLEY COMMUNITY CHURCH,,09,,N,0,0,,,,,AZ0413237,____________U,,,34.630044,County Centroid,0,,,,110051087417,,30000,YAVAPAI,-112.573745
,,,Y,AZ,,$0,1,Community water system,,,,CHINO VALLEY HIGH SCHOOL,,09,,N,0,0,,,,,AZ0413087,____________U,,,34.630044,County Centroid,0,,,,110051144221,,30000,YAVAPAI,-112.573745
,,,Y,AZ,,$0,1,Non-Transient non-community system,,,,CHINO VALLEY SCHOOL - DEL RIO,,09,,Y,0,1,,,,,AZ0413187,VVVVVVVVVVVVU,,,34.630044,County Centroid,1,,1,,110051134848,,30000,YAVAPAI,-112.573745
,,,Y,AZ,,$0,1,Transient non-community system,,,,CHINO VALLEY STATION,,09,,N,0,1,,,,,AZ0413222,VVVVV_______U,,,34.630044,County Centroid,0,,1,,110051143810,,30000,YAVAPAI,-112.573745
,,,Y,AZ,,$0,1,Non-Transient non-community system,,,,CHINO VALLEY TOWN COMPLEX,,09,,Y,0,1,,,,,AZ0413218,V_____VVVVVVU,,,34.630044,County Centroid,1,,6,,110051143776,,30000,YAVAPAI,-112.573745
,,,Y,AZ,,$0,1,Community water system,,04025,,CHINO VALLEY TOWN OF,86323,09,,Y,0,1,,CHINO VALLEY,,,AZ0413137,V_VVVVVVVVVVU,,,34.773515,Zip Code Centroid,1,YAVAPAI COUNTY,8,,110013112050,* NOT GIVEN,10000,YAVAPAI,-112.39027
,,,Y,AZ,,$0,1,Transient non-community system,,,,CHIRICAHUA NATL MONUMENT BONITA CG,,09,,N,0,0,,,,,AZ0402701,____________U,,,31.881793,County Centroid,0,,,,110051115547,,30000,COCHISE,-109.75412
,,,Y,AZ,,$0,1,Community water system,,04015,,CHLORIDE DWID,86431,09,,N,0,1,,CHLORIDE,,,AZ0408005,VVVVVVVVVVV_U,,,35.41442,Zip Code Centroid,0,MOHAVE COUNTY,15,,110013256467,* NOT GIVEN,10000,MOHAVE,-114.19988
04017,,09/27/2004,Y,AZ,15020008,$0,1,Non-Transient non-community system,,04017,$1,CHOLLA GENERATING STATION,86032,09,Y,N,0,0,CENTER OF A FACILITY OR STATION,JOSEPH CITY,,,AZ0409308,____________U,21.04,150200080603,34.940267,INTERPOLATION-SATELLITE,0,NAVAJO COUNTY,,86032,110017206192,4801 FRONTAGE RD,400,NAVAJO,-110.299867
,,,Y,AZ,,$0,1,Community water system,,04013,,CHRISTOPHER CREEK HAVEN,85007,09,,Y,0,1,,PHOENIX,,,AZ0404005,VVVVVVVVVVVVU,,,33.451082,Zip Code Centroid,1,MARICOPA COUNTY,29,,110013027624,* NOT GIVEN,10000,MARICOPA,-112.091204
,,,Y,AZ,,$0,1,Transient non-community system,,,,CHRISTOPHER CREEK LODGE,,09,,N,0,0,,,,,AZ0404323,____________U,,,33.789618,County Centroid,0,,1,,110051043161,,30000,GILA,-110.81187
,,,Y,AZ,,$0,1,Transient non-community system,,04013,,CHRISTOPHER CREEK MHP,85007,09,,N,0,0,,PHOENIX,,,AZ0404343,____________U,,,33.451082,Zip Code Centroid,0,MARICOPA COUNTY,3,,110013094338,* NOT GIVEN,10000,MARICOPA,-112.091204
,,,Y,AZ,,$0,1,Community water system,,,,CHUI CHU,,09,,N,0,0,,,,,090400003,_____________,,,34.209964,State Centroid,0,,,,110012927921,,100000,,-111.602401
04012,1,,Y,AZ,15030104,$0,1,Community water system,,04012,,CIBOLA MUTUAL WATER CO. WATER SYSTEM IMP.,85328,09,,Y,1,1,,CIBOLA,,,AZ0415123,SSSVVVVVVVVSU,25.346,150301041107,33.411944,UNKNOWN,1,LA PAZ COUNTY,36,85328,110039382030,NO ADDRESS ON RECORD,17505,LA PAZ,-114.65888
,,,Y,AZ,,$0,1,Transient non-community system,,,,CIENEGA SPRINGS,,09,,N,0,1,,,,,AZ0415126,V___VVVVVV__U,,,33.727625,County Centroid,0,,15,,110063366780,,30000,LA PAZ,-114.038793
,,,Y,AZ,,$0,1,Community water system,,04012,,CIENEGA SPRINGS WATER CO - PARKER,85344,09,,Y,0,1,,PARKER,,,AZ0415002,SSSSVVVVVVVVU,,,34.140359,Zip Code Centroid,1,LA PAZ COUNTY,43,,110013113861,* NOT GIVEN,10000,LA PAZ,-114.297748
,,,Y,AZ,,$0,1,Community water system,,04013,,CIRCLE CITY,85342,09,,Y,0,1,,CIRCLE CITY,,,AZ0407112,V_______VVVVU,,,33.856965,Zip Code Centroid,1,MARICOPA COUNTY,11,,110013096924,* NOT GIVEN,10000,MARICOPA,-112.616134
,1,,Y,AZ,,$0,1,Community water system,,,,CITRUS PARK WATER COMPANY,,09,,Y,1,1,,,,,AZ0414107,SVVVSSSVVVVVU,,,32.773942,County Centroid,1,,40,,110063341398,,30000,YUMA,-113.910905
04013,,,Y,AZ,15070102,$0,1,Community water system,,04013,,CITY OF AVONDALE ENGINEERING MAINTENANCE YARD,85323,09,,N,0,1,ENTRANCE POINT OF A FACILITY OR STATION,AVONDALE,,,AZ0407088,___V________U,72.163,150701020909,33.422458,ADDRESS MATCHING-HOUSE NUMBER,0,MARICOPA COUNTY,1,85323,110039505657,1211 S 4TH ST,50,MARICOPA,-112.344905
,,,Y,AZ,,$0,1,Community water system,,04025,,CITY OF COTTONWOOD / CORDES LK-VERDE I,86322,09,,Y,0,1,,CAMP VERDE,,,AZ0413060,V__VV__VVV_VU,,,34.547713,Zip Code Centroid,1,YAVAPAI COUNTY,4,,110013263299,N MAIN ST,10000,YAVAPAI,-111.852682
04013,,,Y,AZ,15060106,$0,1,Community water system,,04013,,CITY OF MESA - PLANNING DIVISION,85201,09,,N,0,1,ENTRANCE POINT OF A FACILITY OR STATION,MESA,,,AZ0407095,VVVVVVVVVVV_U,56.689,150501001101,33.416446,ADDRESS MATCHING-HOUSE NUMBER,0,MARICOPA COUNTY,4,85201,110011781955,55 N CENTER ST,50,MARICOPA,-111.831466
,,,Y,AZ,,$0,1,Community water system,,04013,,CITY OF PEORIA,85345,09,,Y,0,1,,PEORIA,,,AZ0407096,VVVVVVVVVVVVU,,,33.573227,Zip Code Centroid,1,MARICOPA COUNTY,6,,110013257046,* NOT GIVEN,10000,MARICOPA,-112.238612
,,,Y,AZ,,$0,1,Transient non-community system,,,,CITY OF PRESCOTT - GOLDWATER LAKE PARK,,09,,N,0,1,,,,,AZ0413296,VVVVV_______U,,,34.630044,County Centroid,0,,1,,110063342137,,30000,YAVAPAI,-112.573745
,,,Y,AZ,,$0,1,Community water system,,04027,,CITY OF SAN LUIS,85349,09,,N,0,1,,SAN LUIS,,,AZ0414005,VVVVVVVV____U,,,32.487505,Zip Code Centroid,0,YUMA COUNTY,6,,110013111266,* NOT GIVEN,10000,YUMA,-114.78123
,,,Y,AZ,,$0,1,Community water system,,04017,,CITY OF SHOW LOW,85901,09,,Y,0,1,,SHOW LOW,,,AZ0409026,SSVVVVVVVVVVU,,,34.257799,Zip Code Centroid,1,NAVAJO COUNTY,115,,110013258651,* NOT GIVEN,10000,NAVAJO,-110.047014
,,,Y,AZ,,$0,1,Community water system,,04001,,CITY OF ST JOHNS,85936,09,,N,0,1,,ST JOHNS,,,AZ0401012,VVVVV_VV_VV_U,,,34.507682,Zip Code Centroid,0,APACHE COUNTY,18,,110013020177,* NOT GIVEN,10000,APACHE,-109.386854
,,,Y,AZ,,$0,1,Community water system,,04003,,CITY OF WILLCOX,85643,09,,Y,0,1,,WILLCOX,,,AZ0402035,VV____VVVVVVU,,,32.272324,Zip Code Centroid,1,COCHISE COUNTY,3,,110013025751,* NOT GIVEN,10000,COCHISE,-109.865675
,,,Y,AZ,,$0,1,Community water system,,04017,,CLAY SPRINGS DWID,85923,09,,Y,0,1,,CLAY SPRINGS,,,AZ0409009,VVVVVVVVVVVVU,,,34.363544,Zip Code Centroid,1,NAVAJO COUNTY,22,,110013101268,* NOT GIVEN,10000,NAVAJO,-110.29646
,,,Y,AZ,,$0,1,Community water system,,04025,,CLEAR CREEK MOBILE HOME - CAMP VERDE,86322,09,,N,0,1,,CAMP VERDE,,,AZ0413415,VV________V_U,,,34.547713,Zip Code Centroid,0,YAVAPAI COUNTY,10,,110013109180,* NOT GIVEN,10000,YAVAPAI,-111.852682
,,,Y,AZ,,$0,1,Transient non-community system,,,,CLEAR CREEK PINES UNIT 2,,09,,Y,0,1,,,,,AZ0403064,________VVVVU,,,35.829692,County Centroid,1,,3,,110051115716,,30000,COCONINO,-111.773728
,,,Y,AZ,,$0,1,Community water system,,04013,,CLEAR SPRINGS - SUNSITE VISTA,85007,09,,Y,0,1,,PHOENIX,,,AZ0402008,VVVVVVVVVVVSU,,,33.451082,Zip Code Centroid,1,MARICOPA COUNTY,,,110013022674,* NOT GIVEN,10000,MARICOPA,-112.091204
,,,Y,AZ,,$0,1,Community water system,,04003,,CLEAR SPRINGS UTILITY - PEARCE,85625,09,,Y,0,1,,PEARCE,,,AZ0402049,VVVVVVVVVVVVU,,,31.867525,Zip Code Centroid,1,COCHISE COUNTY,2,,110013255477,* NOT GIVEN,10000,COCHISE,-109.567692
,,,Y,AZ,,$0,1,Community water system,,04013,,CLEARWATER UTILITY CO INC - BUCKEYE,85326,09,,N,0,1,,BUCKEYE,,,AZ0407019,______VVVV__U,,,33.375213,Zip Code Centroid,0,MARICOPA COUNTY,2,,110013097255,* NOT GIVEN,10000,MARICOPA,-112.565226
,,,Y,AZ,,$0,1,Transient non-community system,,,,CLIFF DWELLERS LODGE,,09,,N,0,1,,,,,AZ0403364,_VV_________U,,,35.829692,County Centroid,0,,1,,110051107100,,30000,COCONINO,-111.773728
,,,Y,AZ,,$0,1,Non-Transient non-community system,,,,CLIMAX MOLYBDENUM TECHNOLOGY CENTER,,09,,N,0,1,,,,,AZ0420802,__V_____V___U,,,32.128237,County Centroid,0,,3,,110051054577,,30000,PIMA,-111.783018
04003,,,Y,AZ,15050202,$0,1,Community water system,,04003,,CLOUD 9 MOBILE HOME PARK,85635,09,,N,0,1,CENTER OF A FACILITY OR STATION,SIERRA VISTA,,,AZ0402009,V_______VV__U,35.991,150502020603,31.55366,ADDRESS MATCHING-HOUSE NUMBER,0,COCHISE COUNTY,3,85635,110010678686,90 RAINBOW WAY,30,COCHISE,-110.24462
,,,Y,AZ,,$0,1,Transient non-community system,,,,CO-OP GRILL,,09,,N,0,0,,,,,AZ0407393,____________U,,,33.346541,County Centroid,0,,,,110051180351,,30000,MARICOPA,-112.495534
,,,Y,AZ,,$0,1,Non-Transient non-community system,,,,COCHISE ELEMENTARY SCHOOL,,09,,Y,0,1,,,,,AZ0402072,VVVVV____VVVU,,,31.881793,County Centroid,1,,42,,110051178907,,30000,COCHISE,-109.75412
,,,Y,AZ,,$0,1,Non-Transient non-community system,,,,COCHISE JR COLLEGE,,09,,N,0,1,,,,,AZ0402063,________VVV_U,,,31.881793,County Centroid,0,,,,110051168437,,30000,COCHISE,-109.75412
,,,Y,AZ,,$0,1,Community water system,,04003,,COCHISE WATER - COCHISE HOMES COMMUNITY,85636,09,,N,0,1,,SIERRA VISTA,,,AZ0402011,___________VU,,,31.554581,Zip Code Centroid,0,COCHISE COUNTY,3,,110010678506,PO BOX 2903,10000,COCHISE,-110.274299
,,,Y,AZ,,$0,1,Community water system,,,,COCKLEBURR,,09,,Y,0,1,,,,,090400034,VVVSSSSVVVVVV,,,34.209964,State Centroid,1,,,,110013237372,,100000,,-111.602401
,,,Y,AZ,,$0,1,Community water system,,04027,,COCOPAH BEND RV & GOLF RESORT,85350,09,,Y,0,1,,SOMERTON,,,090400676,_________VVVV,,,32.589851,Zip Code Centroid,1,YUMA COUNTY,,,110013239058,COUNTY 15TH & AVENUE G,10000,YUMA,-114.720227
,,,Y,AZ,,$0,1,Non-Transient non-community system,,04027,,COCOPAH CASINO,85350,09,,Y,0,1,,SOMERTON,,,090400673,VVSSSSVVVVVVV,,,32.589851,Zip Code Centroid,1,YUMA COUNTY,,,110050945206,15318 S AVENUE B,10000,-,-114.720227
,,,Y,AZ,,$0,1,Community water system,,04027,,COCOPAH EAST,85350,09,,N,0,0,,SOMERTON,,,090400073,_____________,,,32.589851,Zip Code Centroid,0,YUMA COUNTY,,,110012934441,COUNTY 15TH & AVENUE G,10000,YUMA,-114.720227
,,,Y,AZ,,$0,1,Community water system,,04027,,COCOPAH WEST,85350,09,,N,0,0,,SOMERTON,,,090400071,_____________,,,32.589851,Zip Code Centroid,0,YUMA COUNTY,,,110012934352,COUNTY 15TH & AVENUE G,10000,YUMA,-114.720227
,,,Y,AZ,,$0,1,Community water system,,04025,,COLDWATER CANYON #2,85324,09,,Y,0,1,,BLACK CANYON CITY,,,AZ0413192,VVVVV_VV__VVU,,,34.074728,Zip Code Centroid,1,YAVAPAI COUNTY,6,,110010627447,EAST OF AGUA FRIA CREEK PO BOX 637,10000,YAVAPAI,-112.138004
,,,Y,AZ,,$0,1,Community water system,,,,COLDWATER CANYON 3,,09,,Y,0,1,,,,,AZ0413202,VVVVV__V__VVU,,,34.630044,County Centroid,1,,8,,110048259013,,30000,YAVAPAI,-112.573745
,,,Y,AZ,,$0,1,Community water system,,04025,,COLDWATER CANYON WC - BLACK CANYON CITY,85324,09,,Y,0,1,,BLACK CANYON CITY,,,AZ0413020,VVVVVVVVVVVVU,,,34.074728,Zip Code Centroid,1,YAVAPAI COUNTY,11,,110013263039,* NOT GIVEN,10000,YAVAPAI,-112.138004
,,,Y,AZ,,$0,1,Transient non-community system,,,,COLLINS RANCH WATER USERS,,09,,N,0,0,,,,,AZ0404099,____________U,,,33.789618,County Centroid,0,,,,110051193169,,30000,GILA,-110.81187
,,,Y,AZ,,$0,1,Community water system,,04019,,COLONIAL MOBILE & TRAILER - TUCSON,85701,09,,N,0,1,,TUCSON,,,AZ0420512,VVVVV_VVVVVVU,,,32.216191,Zip Code Centroid,0,PIMA COUNTY,27,,110013115547,* NOT GIVEN,10000,PIMA,-110.9703
,,,Y,AZ,,$0,1,Community water system,,04019,,COMMUNITY WATER - GREEN VALLEY,85614,09,,Y,0,1,,GREEN VALLEY,,,AZ0410004,VVVVVVVVVVVVU,,,31.866348,Zip Code Centroid,1,PIMA COUNTY,19,,110013102445,* NOT GIVEN,10000,PIMA,-110.985421
,,,Y,AZ,,$0,1,Community water system,,,,COMOBABI INTERTIE,,09,,Y,0,1,,,,,090400220,V_______VVVVV,,,34.209964,State Centroid,1,,,,110012930926,,100000,,-111.602401
,,,Y,AZ,,$0,1,Transient non-community system,,,,CONCERN INC CAMP SHADOW,,09,,N,0,0,,,,,AZ0409067,____________U,,,35.390934,County Centroid,0,,2,,110051024431,,30000,NAVAJO,-110.320908
,,,Y,AZ,,$0,1,Transient non-community system,,,,CONCHO DOLLAR GENERAL WATER SYSTEM,,09,,N,0,0,,,,,AZ0401075,____________U,,,35.385845,County Centroid,0,,,,AZ0401075,,30000,Apache,-109.493747
,,,Y,AZ,,$0,1,Transient non-community system,,,,CONDE ENTERPRISES INC,,09,,Y,0,1,,,,,AZ0407292,________VVVVU,,,33.346541,County Centroid,1,,1,,110051193301,,30000,MARICOPA,-112.495534
,,,Y,AZ,,$0,1,Community water system,,04025,,CONGRESS DWID,85332,09,,N,0,1,,CONGRESS,,,AZ0413021,____VVV_____U,,,34.169089,Zip Code Centroid,0,YAVAPAI COUNTY,4,,110013110711,* NOT GIVEN,10000,YAVAPAI,-112.8584
,,,Y,AZ,,$0,1,Non-Transient non-community system,,,,COOLIDGE CITY OF MUNICIPAL AIRPORT,,09,,N,0,1,,,,,AZ0411707,VVVSV_______U,,,32.91891,County Centroid,0,,6,,110051103916,,30000,PINAL,-111.367257
,,,Y,AZ,,$0,1,Transient non-community system,,,,COOLIDGE FLORENCE ELKS LODGE 2350,,09,,Y,0,1,,,,,AZ0411451,VVVVVVVVVVVVU,,,32.91891,County Centroid,1,,21,,110051053417,,30000,PINAL,-111.367257
,,,Y,AZ,,$0,1,Transient non-community system,,,,COPPER BASIN BIBLE CAMP,,09,,N,0,1,,,,,AZ0413134,VV__________U,,,34.630044,County Centroid,0,,3,,110051122548,,30000,YAVAPAI,-112.573745
,,,Y,AZ,,$0,1,Transient non-community system,,,,CORDES JUNCTION MOTEL RV PARK,,09,,Y,0,1,,,,,AZ0413067,VV____VVVVVVU,,,34.630044,County Centroid,1,,12,,110051025555,,30000,YAVAPAI,-112.573745
,,,Y,AZ,,$0,1,Community water system,,04013,,CORDES LAKE WATER COMPANY,85007,09,,Y,0,1,,PHOENIX,,,AZ0413023,_VVVV_VV__VVU,,,33.451082,Zip Code Centroid,1,MARICOPA COUNTY,9,,110013108608,* NOT GIVEN,10000,MARICOPA,-112.091204
,,,Y,AZ,,$0,1,Non-Transient non-community system,,,,CORONADO ELEMENTARY,,09,,N,0,0,,,,,AZ0402102,____________U,,,31.881793,County Centroid,0,,1,,110051121362,,30000,COCHISE,-109.75412
,,,Y,AZ,,$0,1,Community water system,,04003,,CORONADO ESTATES WATER COMPANY,85638,09,,N,0,0,,TOMBSTONE,,,AZ0402013,____________U,,,31.721767,Zip Code Centroid,0,COCHISE COUNTY,1,,110013024896,* NOT GIVEN,10000,COCHISE,-110.055278
,,,Y,AZ,,$0,1,Community water system,,04019,,CORONADO FOREST DRIVE WATER CO-OP,85738,09,,N,0,1,,CATALINA,,,AZ0420475,VVV__VVVV___U,,,32.49889,Zip Code Centroid,0,PIMA COUNTY,13,,110013271146,* NOT GIVEN,10000,PIMA,-110.92622
04001,,12/19/2008,Y,AZ,15020003,$0,1,Non-Transient non-community system,,04001,"$950,000",CORONADO GENERATING STATION,85936,09,Y,N,0,1,CENTER OF FACILITY,SAINT JOHNS,,,AZ0401354,V_VVVVVVVVV_U,0,150200030911,34.578127,INTERPOLATION - DIGITAL MAP SRCE (TIGER),0,APACHE COUNTY,3,85936,110017431242,"7 MI NE OF ST JOHNS, AZ OFF HWY 191/PO BOX 1018",24,APACHE,-109.270892
04003,,,Y,AZ,15050202,$0,1,Transient non-community system,,04003,,CORONADO NATIONAL MEMORIAL,85615,09,,N,0,1,CENTER OF A FACILITY OR STATION,HEREFORD,,,AZ0402702,V_____VV____U,11.638,150502020302,31.3461,ADDRESS MATCHING-HOUSE NUMBER,0,COCHISE COUNTY,3,85615,110060257181,4101 E MONTEZUMA CANYON RD,99999999,COCHISE,-110.25308
,,,Y,AZ,,$0,1,Community water system,,04025,,COTTONWOOD MUNICIPAL WATER VV2,,09,,Y,0,1,,,,,AZ0413104 AZ0413105 AZ0413106,V_VVVVVVVVVSU,,,34.630044,County Centroid,1,YAVAPAI COUNTY,27,,110013111612,,30000,YAVAPAI,-112.573745
,,,Y,AZ,,$0,1,Community water system,,04025,,COTTONWOOD WATER WKS - CLARKDALE,86324,09,,N,0,1,,CLARKDALE,,,AZ0413024,VVVVVV____VVU,,,34.91846,Zip Code Centroid,0,YAVAPAI COUNTY,10,,110013107208,* NOT GIVEN,10000,YAVAPAI,-112.142665
,,,Y,AZ,,$0,1,Community water system,,04025,,COTTONWOOD WATER WKS - COT,86326,09,,N,0,1,,COTTONWOOD,,,AZ0413025,VVVVVVVVVV__U,,,34.717951,Zip Code Centroid,0,YAVAPAI COUNTY,6,,110013263075,* NOT GIVEN,10000,YAVAPAI,-112.009015
,,,Y,AZ,,$0,1,Community water system,,04025,,COUNTRY CLUB ACRES WATER INCORPORATED,85358,09,,N,0,1,,WICKENBURG,,,AZ0407021,V___VV__VVV_U,,,33.96858,Zip Code Centroid,0,YAVAPAI COUNTY,14,,110013097273,* NOT GIVEN,10000,MARICOPA,-112.76732
,,,Y,AZ,,$0,1,Community water system,,04013,,COUNTRY HOME MOBILE - BUCKEYE,85326,09,,N,0,0,,BUCKEYE,,,AZ0407343,____________U,,,33.375213,Zip Code Centroid,0,MARICOPA COUNTY,1,,110013256920,* NOT GIVEN,10000,MARICOPA,-112.565226
,,,Y,AZ,,$0,1,Community water system,,04017,,COUNTRY LANE TRAILER PARK - SHOW LOW,85901,09,,Y,0,1,,SHOW LOW,,,AZ0409311,VVVVVVVVVVVVU,,,34.257799,Zip Code Centroid,1,NAVAJO COUNTY,12,,110013100848,* NOT GIVEN,10000,NAVAJO,-110.047014
,,,Y,AZ,,$0,1,Community water system,,,,COVERED WELLS REGIONAL,,09,,N,0,0,,,,,090400006,_____________,,,34.209964,State Centroid,0,,,,110012928038,,100000,,-111.602401
,,,Y,AZ,,$0,1,Transient non-community system,,,,COWAN RANCH HOA,,09,,Y,0,1,,,,,AZ0404096,________VVVVU,,,33.789618,County Centroid,1,,1,,110051193114,,30000,GILA,-110.81187
,,,Y,AZ,,$0,1,Community water system,,,,COWLIC,,09,,N,0,0,,,,,090400029,_____________,,,34.209964,State Centroid,0,,,,110013237345,,100000,,-111.602401
,,,Y,AZ,,$0,1,Transient non-community system,,,,CREEK SIDE MOBILE VILLAGE,,09,,N,0,0,,,,,AZ0403371,____________U,,,35.829692,County Centroid,0,,1,,110051174616,,30000,COCONINO,-111.773728
,,,Y,AZ,,$0,1,Transient non-community system,,,,CREEKSIDE PRESERVE,,09,,N,0,0,,,,,AZ0413156,____________U,,,34.630044,County Centroid,0,,,,110051090243,,30000,YAVAPAI,-112.573745
,,,Y,AZ,,$0,1,Transient non-community system,,,,CREEKSIDE TRAILER PARK,,09,,Y,0,1,,,,,AZ0404312,VVVVVVVVVVVSU,,,33.789618,County Centroid,1,,21,,110051208732,,30000,GILA,-110.81187
,,,Y,AZ,,$0,1,Community water system,,04019,,CRESCENT MANOR TRAILER - TUCSON,85701,09,,N,0,1,,TUCSON,,,AZ0420026,VVVVV__VVVV_U,,,32.216191,Zip Code Centroid,0,PIMA COUNTY,4,,110013111024,* NOT GIVEN,10000,PIMA,-110.9703
,,,Y,AZ,,$0,1,Non-Transient non-community system,,,,CRISANTES GREENHOUSE WATER SYSTEM,,09,,Y,0,1,,,,,AZ0412045,VVSSVVVSSVVVU,,,31.525904,County Centroid,1,,27,,110063332898,,30000,SANTA CRUZ,-110.84519
,,,Y,AZ,,$0,1,Transient non-community system,,04001,,CROSBY SPRING AT GREER,85927,09,,N,0,1,,GREER,,,AZ0401007,VVVVV_______U,,,34.05339,Zip Code Centroid,0,APACHE COUNTY,6,,110013255878,* NOT GIVEN,10000,APACHE,-109.465186
,,,Y,AZ,,$0,1,Community water system,,,,CROSS CREEK RANCH,,09,,N,0,1,,,,,AZ0413256,VV__________U,,,34.630044,County Centroid,0,,4,,110048119576,,30000,YAVAPAI,-112.573745
,,,Y,AZ,,$0,1,Non-Transient non-community system,,,,CROSS OF GLORY LUTHERN CHURCH,,09,,N,0,0,,,,,AZ0407529,____________U,,,33.346541,County Centroid,0,,,,110051206949,,30000,MARICOPA,-112.495534
,,,Y,AZ,,$0,1,Community water system,,04019,,"CROSS ROADS PARK, LLC - TUCSON",85701,09,,N,0,1,,TUCSON,,,AZ0420096,__________VVU,,,32.216191,Zip Code Centroid,0,PIMA COUNTY,,,110013114735,* NOT GIVEN,10000,PIMA,-110.9703
,,,Y,AZ,,$0,1,Transient non-community system,,,,CROSSROADS CHRISTIAN FELLOWSHIP,,09,,N,0,0,,,,,AZ0407283,____________U,,,33.346541,County Centroid,0,,,,110051076884,,30000,MARICOPA,-112.495534
,,,Y,AZ,,$0,1,Transient non-community system,,,,CROSSROADS RV PARK,,09,,N,0,1,,,,,AZ0408083,VV__________U,,,35.717705,County Centroid,0,,7,,110051191599,,30000,MOHAVE,-113.749689
,2,,Y,AZ,,$0,1,Community water system,,04025,,CROWN KING WATER CO,86343,09,,Y,2,1,,CROWN KING,,,AZ0413027,SSSVVVVVVVSSU,,,34.205745,Zip Code Centroid,1,YAVAPAI COUNTY,25,,110013107244,* NOT GIVEN,10000,YAVAPAI,-112.338546
,,,Y,AZ,,$0,1,Transient non-community system,,,,CRRYS SHELTER,,09,,N,0,1,,,,,AZ0408130,VVV_________U,,,35.717705,County Centroid,0,,3,,110051205183,,30000,MOHAVE,-113.749689
,,,Y,AZ,,$0,1,Community water system,,04025,,CUP OF GOLD WATER CO - SEDONA,86339,09,,N,0,1,,SEDONA,,,AZ0413028,______V___V_U,,,34.83968,Zip Code Centroid,0,YAVAPAI COUNTY,3,,110013263093,* NOT GIVEN,10000,COCONINO,-111.7811
,5,,Y,AZ,,$0,1,Community water system,,,,Cameron NTUA,,09,,N,5,1,,,,,NN0403010,VVVVV________,,,34.209964,State Centroid,0,,,,NN0403010,,100000,,-111.602401
,,,Y,AZ,,$0,1,Non-Transient non-community system,,,,Casino Arizona,,09,,N,0,0,,,,,090400708,_____________,,,34.209964,State Centroid,0,,,,090400708,,100000,,-111.602401
,,,Y,AZ,,$0,1,Community water system,,,,Coal Mine Mesa NTUA,,09,,N,0,0,,,,,NN0400207,_____________,,,34.209964,State Centroid,0,,,,NN0400207,,100000,,-111.602401
,,,Y,AZ,,$0,1,Transient non-community system,,,,DAIRY QUEEN,,09,,N,0,1,,,,,AZ0402396,__________V_U,,,31.881793,County Centroid,0,,4,,110051155414,,30000,COCHISE,-109.75412
,,,Y,AZ,,$0,1,Transient non-community system,,,,DAIRY SPRINGS WATER ASSOC,,09,,N,0,1,,,,,AZ0403007,VVVVVV____V_U,,,35.829692,County Centroid,0,,3,,110051183232,,30000,COCONINO,-111.773728
,,,Y,AZ,,$0,1,Transient non-community system,,,,DANNY B'S FISH AND CHIPS RESTAURANT,,09,,Y,0,1,,,,,AZ0413379,________VVVVU,,,34.630044,County Centroid,1,,,,AZ0413379,,30000,Yavapai,-112.573745
,,,Y,AZ,,$0,1,Transient non-community system,,,,DASH IN HITCHING POST,,09,,N,0,1,,,,,AZ0411126,VVV_________U,,,32.91891,County Centroid,0,,8,,110051129738,,30000,PINAL,-111.367257
,,,Y,AZ,,$0,1,Non-Transient non-community system,,,,DATELAND ELEMENTARY SCHOOL,,09,,N,0,1,,,,,AZ0414050,__________V_U,,,32.773942,County Centroid,0,,1,,110051083867,,30000,YUMA,-113.910905
04027,,,Y,AZ,15070201,$0,1,Community water system,,04027,,DATELAND PUBLIC SERVICE CO,,09,,N,0,1,,,,,AZ0414003,__VVV____VV_U,61.153,150702030703,32.828874,ADDRESS MATCHING-HOUSE NUMBER,0,YUMA COUNTY,8,85333,110013111248,,180,YUMA,-113.513393
,,,Y,AZ,,$0,1,Transient non-community system,,,,DATELAND TRAVEL CENTER,,09,,Y,0,1,,,,,AZ0414036,VVVVV__VVVVVU,,,32.773942,County Centroid,1,,10,,110051147898,,30000,YUMA,-113.910905
,,,Y,AZ,,$0,1,Community water system,,,,DAVIS RANCH LAND OWNERS,,09,,N,0,0,,RED ROCK,,,AZ0411090,____________U,,,32.572159,Post Office Name Centroid,0,,1,,110013105781,,20000,,-111.33696
,,,Y,AZ,,$0,1,Transient non-community system,,,,DAZZOS COUNTRY STORE AND RV,,09,,N,0,0,,,,,AZ0408146,____________U,,,35.717705,County Centroid,0,,2,,110051205281,,30000,MOHAVE,-113.749689
,,,Y,AZ,,$0,1,Transient non-community system,,,,DE ANZA TRAIL RV,,09,,N,0,0,,,,,AZ0412118,____________U,,,31.525904,County Centroid,0,,,,110051082332,,30000,SANTA CRUZ,-110.84519
,,,Y,AZ,,$0,1,Community water system,,,,DEEP WELL COOPERATIVE,,09,,Y,0,1,,TUCSON,,,AZ0420598,SSVVV__VVVVVU,,,32.154289,Place Name Centroid,1,,14,,110021059067,,20000,,-110.871062
,,,Y,AZ,,$0,1,Transient non-community system,,,,DEL PUEBLO RV PARK TENNIS RESORT,,09,,Y,0,1,,,,,AZ0414106,SVVVVVV_VVVVU,,,32.773942,County Centroid,1,,14,,110051118125,,30000,YUMA,-113.910905
,,,Y,AZ,,$0,1,Community water system,,,,"DELLS WATER COMPANY, INC",,09,,N,0,1,,PRESCOTT,,,AZ0413029,______V_____U,,,34.579376,Place Name Centroid,0,,2,,110013107271,,20000,,-112.448176
,,,Y,AZ,,$0,1,Transient non-community system,,,,DEPOT 89,,09,,N,0,1,,,,,AZ0413196,VV__________U,,,34.630044,County Centroid,0,,1,,110051134964,,30000,YAVAPAI,-112.573745
,,,Y,AZ,,$0,1,Community water system,,,,DEROSE TRAILER PARK,,09,,N,0,1,,GLOBE,,,AZ0404356,VVVVV__VV___U,,,33.390922,Place Name Centroid,0,,10,,110022968680,,20000,GILA,-110.748331
,,,Y,AZ,,$0,1,Non-Transient non-community system,,,,DESERT DIAMOND SAHUARITA,,09,,N,0,0,,,,,090400233,_____________,,,34.209964,State Centroid,0,,,,110050895402,,100000,,-111.602401
,,,Y,AZ,,$0,1,Transient non-community system,,,,DESERT EDGE RV PARK,,09,,N,0,0,,,,,AZ0415481,____________U,,,33.727625,County Centroid,0,,,,110051096755,,30000,LA PAZ,-114.038793
,,,Y,AZ,,$0,1,Community water system,,,,DESERT FOOTHILLS,,09,,N,0,0,,BULLHEAD CITY,,,AZ0408137,____________U,,,35.129773,Place Name Centroid,0,,,,110013100973,,20000,,-114.561149
,,,Y,AZ,,$0,1,Non-Transient non-community system,,,,DESERT GARDENS RV PARK,,09,,N,0,0,,,,,AZ0411129,____________U,,,32.91891,County Centroid,0,,,,110051129765,,30000,PINAL,-111.367257
,,,Y,AZ,,$0,1,Transient non-community system,,,,DESERT GARDENS SHOWGROUNDS,,09,,N,0,0,,,,,AZ0415129,____________U,,,33.727625,County Centroid,0,,,,AZ0415129,,30000,La Paz,-114.038793
,,,Y,AZ,,$0,1,Transient non-community system,,,,DESERT GEM TRAILER PARK,,09,,N,0,1,,,,,AZ0415022,VVVVV_______U,,,33.727625,County Centroid,0,,7,,110051117796,,30000,LA PAZ,-114.038793
,,,Y,AZ,,$0,1,Transient non-community system,,,,DESERT GOLD RV RESORT,,09,,N,0,0,,,,,AZ0415097,____________U,,,33.727625,County Centroid,0,,,,110051216439,,30000,LA PAZ,-114.038793
,,,Y,AZ,,$0,1,Transient non-community system,,,,DESERT HILLS ESTATES,,09,,Y,0,1,,,,,AZ0408302,VVVVVV__VVVVU,,,35.717705,County Centroid,1,,17,,110051053612,,30000,MOHAVE,-113.749689
04013,,,Y,AZ,15060106,$0,1,Community water system,,04013,,DESERT HILLS WATER,85086,09,,Y,0,1,CENTER OF A FACILITY OR STATION,PHOENIX,,,AZ0407026,VVVVVVVVVVVVU,13.299,150701020603,33.80068,ADDRESS MATCHING-HOUSE NUMBER,1,MARICOPA COUNTY,9,85086,110013093678,34647 N 10TH ST,30,MARICOPA,-112.061
,1,,Y,AZ,,$0,1,Transient non-community system,,,,DESERT MARKET AT ELISA'S CORNER,,09,,N,1,1,,,,,AZ0413324,VVVVVV______U,,,34.630044,County Centroid,0,,8,,110051153960,,30000,YAVAPAI,-112.573745
,,,Y,AZ,,$0,1,Community water system,,,,DESERT OASIS,,09,,N,0,1,,,,,AZ0407523,______VV____U,,,33.346541,County Centroid,0,,2,,110048465969,,30000,MARICOPA,-112.495534
,,,Y,AZ,,$0,1,Transient non-community system,,,,DESERT OASIS CAMPGROUND,,09,,Y,0,1,,,,,AZ0402405,________VVVVU,,,31.881793,County Centroid,1,,,,110051155566,,30000,COCHISE,-109.75412
,,,Y,AZ,,$0,1,Community water system,,04023,,DESERT PARADISE MHP LLC,,09,,N,0,1,,,,,AZ0420546,VVVVVVV___V_U,,,31.525904,County Centroid,0,SANTA CRUZ COUNTY,10,,110013271262,,30000,PIMA,-110.84519
04012,,,Y,AZ,15030105,$0,1,Transient non-community system,,04012,,DESERT PUEBLO RV RESORT,85325,09,,N,0,1,,BOUSE,,,AZ0415482,____VVVVV___U,8.289,150301050504,33.917472,,0,LA PAZ COUNTY,2,85325,110039424708,28726 HIGHWAY 72,36005,LA PAZ,-113.9972
,,,Y,AZ,,$0,1,Transient non-community system,,,,DESERT SHADOWS DWID,,09,,N,0,0,,,,,AZ0415094,____________U,,,33.727625,County Centroid,0,,2,,110051216420,,30000,LA PAZ,-114.038793
,,,Y,AZ,,$0,1,Community water system,,,,DESERT SHORES MHP,,09,,N,0,1,,TUCSON,,,AZ0420033,__________V_U,,,32.154289,Place Name Centroid,0,,,,110013111051,,20000,,-110.871062
,,,Y,AZ,,$0,1,Community water system,,,,DESERT SKY DWID,,09,,Y,0,1,,,,,AZ0415122,VVVVVVVVVVVVU,,,33.727625,County Centroid,1,,2,,110063341842,,30000,LA PAZ,-114.038793
04021,,,Y,AZ,15050100,$0,1,Community water system,,04021,,DESERT SPRINGS WATER COMPANY,85232,09,,Y,0,1,ENTRANCE POINT OF A FACILITY OR STATION,FLORENCE,,,AZ0408072,VVVVVVVVVSSSU,59.001,150501000707,33.026355,ADDRESS MATCHING-HOUSE NUMBER,1,PINAL COUNTY,13,85132,110013099565,610 SOUTH MAIN STREET,50,PINAL,-111.387552
,,,Y,AZ,,$0,1,Non-Transient non-community system,,,,DESERT STAR COMMUNITY SCHOOL,,09,,N,0,1,,,,,AZ0413277,__VVVVV_____U,,,34.630044,County Centroid,0,,1,,110051095685,,30000,YAVAPAI,-112.573745
,,,Y,AZ,,$0,1,Transient non-community system,,,,DESERT VISTA RV RESORT,,09,,N,0,0,,,,,AZ0415501,____________U,,,33.727625,County Centroid,0,,,,110051096899,,30000,LA PAZ,-114.038793
,,,Y,AZ,,$0,1,Community water system,,,,DESERT WATER CO-OP,,09,,N,0,1,,TUCSON,,,AZ0410188,_______VVV__U,,,32.154289,Place Name Centroid,0,,5,,110013104103,,20000,,-110.871062
04019,,,Y,AZ,15050304,$0,1,Community water system,,04019,,DESERT WATER WELL,85736,09,,Y,0,1,CENTER OF A FACILITY OR STATION,TUCSON,,,AZ0410269,VVVVVVVVVVVVU,42.155,150503040504,32.04533,ADDRESS MATCHING-HOUSE NUMBER,1,PIMA COUNTY,5,85736,110010731146,11200 SOUTH SIERRITA MOUNTAIN ROAD,30,PIMA,-111.26513
,,,Y,AZ,,$0,1,Community water system,,,,DESERT WINDS MOBILE PARK,,09,,Y,0,1,,HUACHUCA CITY,,,AZ0402353,VVVVVVVVVVVVU,,,31.63079,Place Name Centroid,1,,2,,110013024164,,20000,,-110.342272
,,,Y,AZ,,$0,1,Community water system,,04019,,DIABLO VILLAGE WATER CO,85732,09,,N,0,1,,TUCSON,,,AZ0410357,VV_VV_______U,,,32.22464,Zip Code Centroid,0,PIMA COUNTY,3,,110013258036,PO BOX 13145,10000,PIMA,-110.883874
04019,,,Y,AZ,15050302,$0,1,Community water system,,04019,,DIAMOND GROVE MOBILE HOME ESTATES,85705,09,,N,0,1,CENTER OF A FACILITY OR STATION,TUCSON,,,AZ0420542,__VVVVVVVVV_U,39.395,150503020308,32.30129,ADDRESS MATCHING-HOUSE NUMBER,0,PIMA COUNTY,2,85705,110039453285,5151 N KAIN AVE,30,PIMA,-111.02051
,,,Y,AZ,,$0,1,Transient non-community system,,,,DIAMOND POINT SHADOWS,,09,,N,0,1,,,,,AZ0404383,____VVVVVV__U,,,33.789618,County Centroid,0,,2,,110051100223,,30000,GILA,-110.81187
,,,Y,AZ,,$0,1,Transient non-community system,,,,DIAMOND POINT SUMMER HOMES ASSOC,,09,,N,0,0,,,,,AZ0404853,____________U,,,33.789618,County Centroid,0,,,,110051112309,,30000,GILA,-110.81187
04025,,,Y,AZ,15070103,$0,1,Community water system,,04025,,DIAMOND VALLEY WATER USERS,86301,09,,N,0,1,CENTER OF A FACILITY OR STATION,PRESCOTT,,,AZ0413017,VVV_VV_V____U,8.408,150701030101,34.47243,ADDRESS MATCHING-HOUSE NUMBER,0,YAVAPAI COUNTY,6,86303,110039432824,1634 W PINE CONE WAY,30,YAVAPAI,-112.49333
,,,Y,AZ,,$0,1,Transient non-community system,,,,DISTANT DRUMS RV RESORT,,09,,N,0,0,,,,,AZ0413112,____________U,,,34.630044,County Centroid,0,,,,110051112130,,30000,YAVAPAI,-112.573745
04013,,,Y,AZ,15060106,$0,1,Community water system,,04013,,DIVERSIFIED WATER UTILITE,85016,09,,N,0,0,CENTER OF A FACILITY OR STATION,PHOENIX,,,AZ0411043,____________U,45.987,150601060305,33.5098,ADDRESS MATCHING-HOUSE NUMBER,0,MARICOPA COUNTY,,85016,110013108564,2850 E CAMELBACK RD,30,MARICOPA,-112.02114
,,,Y,AZ,,$0,1,Community water system,,,,DIXIE WATER COMPANY,,09,,N,0,1,,TONOPAH,,,AZ0407030,__V_________U,,,33.487986,Place Name Centroid,0,,,,110013093721,,20000,,-112.930811
,,,Y,AZ,,$0,1,Community water system,,04019,,DOME WELL ASSOCIATION,85747,09,,N,0,1,,TUCSON,,,AZ0410260,_______VV___U,,,32.095961,Zip Code Centroid,0,PIMA COUNTY,3,,110022969199,10400 E. OBSERVATORY,10000,PIMA,-110.763022
04005,,,Y,AZ,15020015,$0,1,Community water system,,04005,,DONEY PARK WATER,86004,09,,Y,0,1,CENTER OF A FACILITY OR STATION,FLAGSTAFF,,,AZ0403005,VVVVVVVVVVVVU,40.731,150200150104,35.25404,ADDRESS MATCHING-HOUSE NUMBER,1,COCONINO COUNTY,7,86004,110013024333,5290 EAST NORTHGATE LOOP,30,COCONINO,-111.55487
,,,Y,AZ,,$0,1,Transient non-community system,,,,DOS AMIGOS RESTAURANT & CANTINA,,09,,N,0,1,,,,,AZ0415124,___VV_______U,,,33.727625,County Centroid,0,,3,,110051036892,,30000,LA PAZ,-114.038793
,,,Y,AZ,,$0,1,Transient non-community system,,,,DOUBLE ADOBE RV PARK,,09,,N,0,0,,,,,AZ0402320,____________U,,,31.881793,County Centroid,0,,,,110051128481,,30000,COCHISE,-109.75412
,,,Y,AZ,,$0,1,Non-Transient non-community system,,,,DOUBLE ADOBE SCHOOL,,09,,N,0,1,,,,,AZ0402076,___________VU,,,31.881793,County Centroid,0,,1,,110051178934,,30000,COCHISE,-109.75412
,,,Y,AZ,,$0,1,Community water system,,,,DOUBLE G TP,,09,,N,0,1,,CHINO VALLEY,,,AZ0413431,V__VVVVVV___U,,,34.739884,Place Name Centroid,0,,7,,110013262986,,20000,,-112.406064
,,,Y,AZ,,$0,1,Non-Transient non-community system,,,,DOUBLETREE PAPER MILL,,09,,Y,0,1,,,,,AZ0407789,__________VVU,,,33.346541,County Centroid,1,,3,,110051133377,,30000,MARICOPA,-112.495534
,1,,Y,AZ,,$0,1,Non-Transient non-community system,,,,DOUGLAS BORDER PATROL STATION,,09,,Y,1,1,,,,,AZ0402123,__VVVVSSSVVVU,,,31.881793,County Centroid,1,,22,,110051121585,,30000,COCHISE,-109.75412
,,,Y,AZ,,$0,1,Community water system,,04003,,DOUGLAS WATER DEPT,85607,09,,Y,0,1,,DOUGLAS,,,AZ0402014,VVVVVVVVVVVVU,,,31.380651,Zip Code Centroid,1,COCHISE COUNTY,5,,110013024903,DOUGLAS WATER DEPT,10000,COCHISE,-109.527355
,,,Y,AZ,,$0,1,Non-Transient non-community system,,,,DR DANIEL BRIGHT ELEMENTARY SCHOOL,,09,,N,0,1,,,,,AZ0413175,VVVVV__V____U,,,34.630044,County Centroid,0,,2,,110051062988,,30000,YAVAPAI,-112.573745
,,,Y,AZ,,$0,1,Community water system,,04003,,DRAGOON WATER CO,85609,09,,N,0,1,,DRAGOON,,,AZ0402015,V_VV___VVV__U,,,32.027847,Zip Code Centroid,0,COCHISE COUNTY,2,,110013024921,3 MI E OF I-10 IN DRAGOON RD,10000,COCHISE,-110.037667
,,,Y,AZ,,$0,1,Transient non-community system,,,,DRY GULCH WATER COMPANY,,09,,N,0,0,,,,,AZ0413160,____________U,,,34.630044,County Centroid,0,,,,110051148012,,30000,YAVAPAI,-112.573745
,,,Y,AZ,,$0,1,Non-Transient non-community system,,,,DUNCAN ELEMENTARY SCHOOL,,09,,N,0,1,,,,,AZ0406006,VVVVVVVVV___U,,,33.238872,County Centroid,0,,12,,110051090591,,30000,GREENLEE,-109.242323
,6,,Y,AZ,,$0,1,Non-Transient non-community system,,,,Dzil Libei (Cameron) Elementary School,,09,,Y,6,1,,,,,NN0403011,VVVVVVVVVSSVV,,,34.209964,State Centroid,1,,,,NN0403011,,100000,,-111.602401
,,,Y,AZ,,$0,1,Community water system,,,,"EAGAR, TOWN OF",,09,,N,0,1,,EAGAR,,,AZ0401004,_VVVVVVVV_V_U,,,34.104946,Place Name Centroid,0,,4,,110013020088,,20000,,-109.294863
04013,,,Y,AZ,15070101,$0,1,Community water system,,04013,,"EAGLETAIL WATER CO, LLC",85326,09,,N,0,0,CENTER OF A FACILITY OR STATION,BUCKEYE,,,AZ0407032,____________U,58.552,150701010204,33.36757,ADDRESS MATCHING-HOUSE NUMBER,0,MARICOPA COUNTY,,85326,110013093776,306 SOUTH 7TH STREET,30,MARICOPA,-112.5821
,,,Y,AZ,,$0,1,Community water system,,04003,,EAST SLOPE WATER COMPANY,85636,09,,N,0,0,,SIERRA VISTA,,,AZ0402028,V___________U,,,31.554581,Zip Code Centroid,0,COCHISE COUNTY,1,,110013025546,PO BOX 5185,10000,COCHISE,-110.274299
04007,,,Y,AZ,15060105,$0,1,Community water system,,04007,,EAST VERDE WATER,85541,09,,N,0,1,ENTRANCE POINT OF A FACILITY OR STATION,PAYSON,,,AZ0404026,V_V_________U,14.201,150602030204,34.24058,ADDRESS MATCHING-HOUSE NUMBER,0,GILA COUNTY,2,85541,110013257439,244 EAST STATE HIGHWAY 260,50,GILA,-111.32059
,,,Y,AZ,,$0,1,Transient non-community system,,,,EDEN RV PARK,,09,,N,0,0,,,,,AZ0415117,____________U,,,33.727625,County Centroid,0,,,,110051036785,,30000,LA PAZ,-114.038793
,,,Y,AZ,,$0,1,Community water system,,04009,,EDEN WATER COMPANY INC,85535,09,,Y,0,1,,EDEN,,,AZ0405003,VVVVVVVVVVVVU,,,32.975166,Zip Code Centroid,1,GRAHAM COUNTY,30,,110013094515,3333 HOT SPRINGS ROAD,10000,GRAHAM,-109.897537
