FacDerivedStctyFIPS,SDWAFormalActionCount,FacDateLastPenalty,SDWISFlag,FacState,FacDerivedHuc,FacTotalPenalties,Score,SDWASystemTypes,SDWAInspections5yr,FacFIPSCode,FacLastPenaltyAmt,FacName,FacZip,FacEPARegion,FacMajorFlag,NC,FacFormalActionCount,ViolFlag,FacReferencePoint,FacCity,FacImpWaterFlg,FacPenaltyCount,SDWAIDs,SDWA3yrComplQtrsHistory,FacPercentMinority,FacDerivedWBD,FacLat,FacCollectionMethod,CurrVioFlag,FacStdCountyName,SDWAInformalCount,FacDerivedZip,RegistryID,FacStreet,FacAccuracyMeters,FacCounty,FacLong
,,,Y,MI,,$0,1,Transient non-community system,,,,#5 HILLS TEE BOYNE HIGHLANDS,49740,05,,N,0,1,,HARBOR SPRINGS,,,MI2420373,VV__________U,,,45.464346,Zip Code Centroid,0,,,,110049263578,,10000,EMMET,-84.991462
,,,Y,MI,,$0,1,Transient non-community system,,,,#5 ROSS TEE BOYNE HIGHLANDS,49740,05,,N,0,1,,HARBOR SPRINGS,,,MI2420374,_VV_________U,,,45.464346,Zip Code Centroid,0,,2,,110049263596,,10000,EMMET,-84.991462
,,,Y,MI,,$0,1,Transient non-community system,,,,10TH TEE ROSS COURSE SNACKBAR,49740,05,,N,0,1,,HARBOR SPRINGS,,,MI2420242,_VV_________U,,,45.464346,Zip Code Centroid,0,,2,,110049299512,,10000,EMMET,-84.991462
,,,Y,MI,,$0,1,Non-Transient non-community system,,,,115 TRUCK STOP,49068,05,,N,0,0,,MARSHALL,,,MI1320305,____________U,,,42.297422,Zip Code Centroid,0,,,,110051928991,,10000,CALHOUN,-84.944033
,,,Y,MI,,$0,1,Transient non-community system,,,,12 CORNERS VINEYARDS,49022,05,,N,0,0,,BENTON HARBOR,,,MI1120720,____________U,,,42.129129,Zip Code Centroid,0,,,,110063330925,,10000,BERRIEN,-86.402862
,,,Y,MI,,$0,1,Non-Transient non-community system,,,,12TH STREET MARTIN BUILDING,49070,05,,N,0,1,,MARTIN,,,MI0320572,VVVVV_______U,,,42.537674,Zip Code Centroid,0,,2,,110052716129,,10000,ALLEGAN,-85.62016
,,,Y,MI,,$0,1,Transient non-community system,,,,1449 S MILFORD ROAD PLAZA LLC,48357,05,,N,0,0,,HIGHLAND,,,MI6321807,____________U,,,42.653259,Zip Code Centroid,0,,,,110052229940,,10000,OAKLAND,-83.649471
,,,Y,MI,,$0,1,Non-Transient non-community system,,,,15 OAK SQUARE MALL,48462,05,,N,0,0,,ORTONVILLE,,,MI6321986,____________U,,,42.888844,Zip Code Centroid,0,,,,110049417715,,10000,OAKLAND,-83.371704
,,,Y,MI,,$0,1,Transient non-community system,,,,1ST & MAIN PARTY STORE,48720,05,,N,0,0,,BAY PORT,,,MI3220262,____________U,,,43.840322,Zip Code Centroid,0,,,,110049236126,,10000,HURON,-83.370584
,,,Y,MI,,$0,1,Non-Transient non-community system,,,,1ST BAPTIST CHURCH,48811,05,,N,0,0,,CARSON CITY,,,MI5920357,____________U,,,43.147515,Zip Code Centroid,0,,8,,110049430022,,10000,MONTCALM,-84.806947
,,,Y,MI,,$0,1,Non-Transient non-community system,,,,20TH CENTURY BUILDING COMPANY,48189,05,,N,0,0,,WHITMORE LAKE,,,MI4720440,____________U,,,42.45217,Zip Code Centroid,0,,,,110049270258,,10000,LIVINGSTON,-83.799432
,,,Y,MI,,$0,1,Non-Transient non-community system,,,,20TH CENTURY BUILDING COMPANY,48189,05,,N,0,0,,WHITMORE LAKE,,,MI4720781,____________U,,,42.45217,Zip Code Centroid,0,,,,110049435045,,10000,LIVINGSTON,-83.799432
,,,Y,MI,,$0,1,Non-Transient non-community system,,,,20TH CENTURY BUILDING COMPANY,48189,05,,N,0,0,,WHITMORE LAKE,,,MI4720575,____________U,,,42.45217,Zip Code Centroid,0,,,,110049341468,,10000,LIVINGSTON,-83.799432
,,,Y,MI,,$0,1,Non-Transient non-community system,,,,20TH CENTURY BUILDING COMPANY,48189,05,,N,0,0,,WHITMORE LAKE,,,MI4720465,____________U,,,42.45217,Zip Code Centroid,0,,,,110052717627,,10000,LIVINGSTON,-83.799432
,,,Y,MI,,$0,1,Transient non-community system,,,,211 BAR AND GRILL,49765,05,,N,0,1,,ONAWAY,,,MI7120027,_______VV___U,,,45.352734,Zip Code Centroid,0,,8,,110049399101,,10000,PRESQUE ISLE,-84.229588
,,,Y,MI,,$0,1,Transient non-community system,,,,211 OUTPOST COUNTRY STORE,49765,05,,Y,0,1,,ONAWAY,,,MI7120182,_______VVVVVU,,,45.352734,Zip Code Centroid,1,,7,,110049482608,,10000,PRESQUE ISLE,-84.229588
,,,Y,MI,,$0,1,Transient non-community system,,,,3-D PIZZA,48891,05,,N,0,0,,VESTABURG,,,MI5920546,____________U,,,43.452832,Zip Code Centroid,0,,,,110052202273,,10000,MONTCALM,-84.92581
,,,Y,MI,,$0,1,Transient non-community system,,,,3224 BUILDING ASSOCIATION,48723,05,,N,0,0,,,,,MI7920440,____________U,,,43.488053,Zip Code Centroid,0,,,,110049401599,,10000,TUSCOLA,-83.369477
,,,Y,MI,,$0,1,Transient non-community system,,,,"3522 S. LAPEER RD., LLC",48455,05,,N,0,1,,,,,MI4421806,_________VV_U,,,42.947955,Zip Code Centroid,0,,2,,110049517554,,10000,LAPEER,-83.349206
,,,Y,MI,,$0,1,Transient non-community system,,,,3rd Base Party Store,49080,05,,N,0,0,,,,,MI0320691,____________U,,,42.405566,Zip Code Centroid,0,,,,MI0320691,,10000,Allegan,-85.615033
,,,Y,MI,,$0,1,Transient non-community system,,,,4 B'S CAMPGROUND,49421,05,,N,0,0,,HESPERIA,,,MI6420291,____________U,,,43.556769,Zip Code Centroid,0,,,,110052064172,,10000,OCEANA,-86.079342
,,,Y,MI,,$0,1,Transient non-community system,,,,4 CORNER'S GRILL,49665,05,,Y,0,1,,,,,MI6720149,__VV_VVVVVVVU,,,44.176628,Zip Code Centroid,1,,7,,110052248386,,10000,OSCEOLA,-85.082443
,,,Y,MI,,$0,1,Transient non-community system,,,,4 N ORTONVILLE RD,48462,05,,N,0,0,,,,,MI6322936,____________U,,,42.888844,Zip Code Centroid,0,,,,MI6322936,,10000,Oakland,-83.371704
,,,Y,MI,,$0,1,Transient non-community system,,,,4 SQUARE SPORTSMAN CLUB,48032,05,,N,0,0,,JEDDO,,,MI7420271,____________U,,,43.174971,Zip Code Centroid,0,,,,110049403686,,10000,ST. CLAIR,-82.604551
,,,Y,MI,,$0,1,Transient non-community system,,,,4-H CAMPGROUND,48858,05,,N,0,1,,MOUNT PLEASANT,,,MI3720176,______VVVV__U,,,43.619325,Zip Code Centroid,0,,6,,110049408280,,10000,ISABELLA,-84.787666
,,,Y,MI,,$0,1,Transient non-community system,,,,4-H FAIRGROUND,48838,05,,Y,0,1,,GREENVILLE,,,MI5920657,____VVVVVVVVU,,,43.177998,Zip Code Centroid,1,,2,,110052098966,,10000,MONTCALM,-85.254904
,,,Y,MI,,$0,1,Transient non-community system,,,,40 MILE POINT LIGHTHOUSE,49779,05,,N,0,1,,ROGERS CITY,,,MI7120180,_VVVVVV_____U,,,45.418715,Zip Code Centroid,0,,8,,110049482564,,10000,PRESQUE ISLE,-83.826576
,,,Y,MI,,$0,1,Transient non-community system,,,,405 N.DIVISION ROAD CONDO ASSOC.,49770,05,,N,0,0,,PETOSKEY,,,MI2420347,____________U,,,45.347505,Zip Code Centroid,0,,,,110052724003,,10000,EMMET,-84.985655
,,,Y,MI,,$0,1,Transient non-community system,,,,41 STEAK HOUSE,49814,05,,N,0,0,,CHAMPION,,,MI5220089,____________U,,,46.496638,Zip Code Centroid,0,,,,110049482966,,10000,MARQUETTE,-87.938281
,,,Y,MI,,$0,1,Transient non-community system,,,,42 NORTH APPLES LLC,48838,05,,N,0,0,,,,,MI4120726,____________U,,,43.177998,Zip Code Centroid,0,,,,110049227813,,10000,KENT,-85.254904
,,,Y,MI,,$0,1,Transient non-community system,,,,42ND DISTRICT COURT BLDG,48065,05,,N,0,0,,ROMEO,,,MI5020231,____________U,,,42.847452,Zip Code Centroid,0,,,,110052077499,,10000,MACOMB,-83.00961
,,,Y,MI,,$0,1,Non-Transient non-community system,,,,42ND STREET PLAZA,49684,05,,Y,0,1,,TRAVERSE CITY,,,MI2820211,VVVVVVVVVVVVU,,,44.772207,Zip Code Centroid,1,,106,,110052732129,,10000,GRAND TRAVERSE,-85.861351
,,,Y,MI,,$0,1,Transient non-community system,,,,45 Botello's,49460,05,,N,0,0,,,,,MI7020667,____________U,,,42.936016,Zip Code Centroid,0,,,,MI7020667,,10000,Ottawa,-86.080617
,2,,Y,MI,,$0,1,Transient non-community system,,,,47 TAVERN,49896,05,,N,2,1,,WILSON,,,MI5520003,V___VVVV_VVVU,,,45.698962,Zip Code Centroid,0,,15,,110049363666,,10000,MENOMINEE,-87.431925
,,,Y,MI,,$0,1,Transient non-community system,,,,5 CORNERS PARTY STORE,48850,05,,N,0,1,,LAKEVIEW,,,MI5920415,V__VV_______U,,,43.444212,Zip Code Centroid,0,,4,,110052156992,,10000,MONTCALM,-85.280803
,,,Y,MI,,$0,1,Community water system,,,,553 MOBILE ESTATES,,05,,N,0,1,,,,,MI0040520,___VV______VU,,,46.656597,County Centroid,0,,4,,110013088915,,30000,MARQUETTE,-87.584028
,,,Y,MI,,$0,1,Transient non-community system,,,,7-ELEVEN,48386,05,,N,0,0,,WHITE LAKE,,,MI6321830,____________U,,,42.644052,Zip Code Centroid,0,,,,110052201675,,10000,OAKLAND,-83.473469
,,,Y,MI,,$0,1,Transient non-community system,,,,7-ELEVEN CONVENIENCE STORE,48116,05,,N,0,0,,BRIGHTON,,,MI4720796,____________U,,,42.500105,Zip Code Centroid,0,,,,110049448004,,10000,LIVINGSTON,-83.790412
,,,Y,MI,,$0,1,Transient non-community system,,,,7TH DAY ADVENTIST CHURCH,49642,05,,N,0,1,,IDLEWILD,,,MI4320112,VVVVVV______U,,,43.884615,Zip Code Centroid,0,,6,,110049366949,,10000,LAKE,-85.77744
,,,Y,MI,,$0,1,Non-Transient non-community system,,,,8000 KENSINGTON COURT,48114,05,,N,0,0,,BRIGHTON,,,MI4720791,____________U,,,42.575505,Zip Code Centroid,0,,,,110049435241,,10000,LIVINGSTON,-83.759625
,,,Y,MI,,$0,1,Transient non-community system,,,,"826 M-24, LLC.",48371,05,,N,0,0,,OXFORD,,,MI6322750,____________U,,,42.897606,Zip Code Centroid,0,,,,110052199866,,10000,OAKLAND,-83.326031
,,,Y,MI,,$0,1,Non-Transient non-community system,,,,"A & L ENTERPRISES, LLC.",48105,05,,N,0,0,,ANN ARBOR,,,MI8120327,____________U,,,42.319989,Zip Code Centroid,0,,4,,110052178095,,10000,WASHTENAW,-83.726994
,,,Y,MI,,$0,1,Transient non-community system,,,,A & L FARMS - FARM MARKET,49417,05,,N,0,0,,GRAND HAVEN,,,MI7020646,____________U,,,43.021278,Zip Code Centroid,0,,,,110052162690,,10000,OTTAWA,-86.121708
,,,Y,MI,,$0,1,Transient non-community system,,,,A & W,48462,05,,N,0,0,,ORTONVILLE,,,MI6320714,____________U,,,42.888844,Zip Code Centroid,0,,,,110052182525,,10000,OAKLAND,-83.371704
,,,Y,MI,,$0,1,Transient non-community system,,,,A + L GROCERY & PIZZA,49806,05,,Y,0,1,,AU TRAIN,,,MI0220154,V_______VVVVU,,,46.419879,Zip Code Centroid,1,,,,110049282423,,10000,ALGER,-86.837205
,,,Y,MI,,$0,1,Transient non-community system,,,,A B MALEY PARK,49640,05,,N,0,1,,HONOR,,,MI1020050,________VV__U,,,44.674928,Zip Code Centroid,0,,3,,110052727876,,10000,BENZIE,-86.01277
,,,Y,MI,,$0,1,Non-Transient non-community system,,,,A FOREVER RECOVERY,49017,05,,N,0,0,,BATTLE CREEK,,,MI1320072,____________U,,,42.445095,Zip Code Centroid,0,,,,110052487590,,10000,CALHOUN,-85.275866
,,,Y,MI,,$0,1,Transient non-community system,,,,A GA MING GOLF CLUB (DUFFERS),49648,05,,N,0,1,,KEWADIN,,,MI0520085,VVVVV_______U,,,44.964311,Zip Code Centroid,0,,3,,110049303035,,10000,ANTRIM,-85.353094
,,,Y,MI,,$0,1,Transient non-community system,,,,A WIN-SANDS MOTEL,49709,05,,N,0,1,,ATLANTA,,,MI6020129,_VVV________U,,,44.993844,Zip Code Centroid,0,,4,,110049381502,,10000,MONTMORENCY,-84.153156
,,,Y,MI,,$0,1,Transient non-community system,,,,A&L TRADING POST,49651,05,,N,0,0,,LAKE CITY,,,MI5720095,____________U,,,44.302701,Zip Code Centroid,0,,3,,110052084935,,10000,MISSAUKEE,-85.231046
,,,Y,MI,,$0,1,Transient non-community system,,,,A&W ROOT BEER DRIVE-IN,48130,05,,N,0,0,,DEXTER,,,MI8120434,____________U,,,42.316243,Zip Code Centroid,0,,,,110052329011,,10000,WASHTENAW,-83.899265
,,,Y,MI,,$0,1,Non-Transient non-community system,,,,A.B. HELLER,48381,05,,N,0,0,,MILFORD,,,MI6322470,____________U,,,42.565969,Zip Code Centroid,0,,,,110049510864,,10000,OAKLAND,-83.592226
,,,Y,MI,,$0,1,Transient non-community system,,,,A.J'S DOOLITTLES,48144,05,,N,0,0,,LAMBERTVILLE,,,MI5820430,____________U,,,41.753787,Zip Code Centroid,0,,,,110052147556,,10000,MONROE,-83.625811
,,,Y,MI,,$0,1,Non-Transient non-community system,,,,A.L.P. LIGHTING COMPONENTS,49720,05,,N,0,1,,CHARLEVOIX,,,MI1520011,VVVVVVV_____U,,,45.24964,Zip Code Centroid,0,,40,,110049462737,,10000,CHARLEVOIX,-85.239121
,,,Y,MI,,$0,1,Transient non-community system,,,,AARON'S WOODED ACRES RESORT,48730,05,,N,0,0,,EAST TAWAS,,,MI3520051,____________U,,,44.305342,Zip Code Centroid,0,,,,110049304356,,10000,IOSCO,-83.424435
,,,Y,MI,,$0,1,Non-Transient non-community system,,,,ABBOTT NUTRITION,49091,05,,N,0,0,,STURGIS,,,MI7520158,____________U,,,41.816077,Zip Code Centroid,0,,,,110052226747,,10000,ST. JOSEPH,-85.42365
,,,Y,MI,,$0,1,Non-Transient non-community system,,,,ABC ACADEMY # 1,49202,05,,N,0,0,,JACKSON,,,MI3820610,____________U,,,42.273665,Zip Code Centroid,0,,,,110049356184,,10000,JACKSON,-84.423065
,,,Y,MI,,$0,1,Non-Transient non-community system,,,,ABC ACADEMY #2,49201,05,,N,0,0,,,,,MI3820616,____________U,,,42.253548,Zip Code Centroid,0,,,,110049338668,,10000,JACKSON,-84.502495
,,,Y,MI,,$0,1,Transient non-community system,,,,ABED PROFESSIONAL BUILDING,48353,05,,N,0,0,,HARTLAND,,,MI4720914,____________U,,,42.648563,Zip Code Centroid,0,,,,110049213588,,10000,LIVINGSTON,-83.717655
,,,Y,MI,,$0,1,Transient non-community system,,,,ABNER'S RESTAURANT,49312,05,,Y,0,1,,BROHMAN,,,MI6220142,_VVV_VVVVVVVU,,,43.688435,Zip Code Centroid,1,,7,,110049393740,,10000,NEWAYGO,-85.812967
,,,Y,MI,,$0,1,Transient non-community system,,,,ABRAMSON FAMILY DENTISTRY,49617,05,,N,0,0,,BEULAH,,,MI1020145,____________U,,,44.645144,Zip Code Centroid,0,,,,110049334948,,10000,BENZIE,-85.956946
,,,Y,MI,,$0,1,Non-Transient non-community system,,,,ABSOPURE #1,49230,05,,N,0,0,,BROOKLYN,,,MI3820508,____________U,,,42.117116,Zip Code Centroid,0,,,,110049475705,,10000,JACKSON,-84.277562
,,,Y,MI,,$0,1,Non-Transient non-community system,,,,ABSOPURE #2-WM YOUNG,49234,05,,N,0,0,,CLARKLAKE,,,MI3820758,____________U,,,42.115818,Zip Code Centroid,0,,,,110049314746,,10000,JACKSON,-84.356787
,,,Y,MI,,$0,1,Non-Transient non-community system,,,,ABSOPURE #3 - WM YOUNG,49234,05,,N,0,0,,CLARKLAKE,,,MI3820812,____________U,,,42.115818,Zip Code Centroid,0,,,,110052728697,,10000,JACKSON,-84.356787
,,,Y,MI,,$0,1,Non-Transient non-community system,,,,ABSOPURE WATER COMPANY,48034,05,,N,0,0,,SOUTHFIELD,,,MI6321414,____________U,,,42.496629,Zip Code Centroid,0,,,,110049431156,,10000,OAKLAND,-83.289867
,,,Y,MI,,$0,1,Transient non-community system,,,,ABUNDANT LIFE CHURCH,48658,05,,N,0,0,,STANDISH,,,MI0620210,____________U,,,43.968057,Zip Code Centroid,0,,,,110052712374,,10000,ARENAC,-83.94555
,,,Y,MI,,$0,1,Non-Transient non-community system,,,,ACAT GLOBAL / OLIVER,,05,,N,0,1,,,,,MI1520068,____VVVVV___U,,,44.841084,State Centroid,0,,8,,110052727386,,100000,,-85.65932
,,,Y,MI,,$0,1,Transient non-community system,,,,ACE HARDWARE- ROGERS CITY,49779,05,,N,0,1,,,,,MI7120170,____VV______U,,,45.418715,Zip Code Centroid,0,,2,,110049425207,,10000,PRESQUE ISLE,-83.826576
,,,Y,MI,,$0,1,Transient non-community system,,,,ACE OF CLUBS,49881,05,,N,0,0,,SAGOLA,,,MI2220077,____________U,,,46.08361,Zip Code Centroid,0,,,,110049196721,,10000,DICKINSON,-88.075187
,,,Y,MI,,$0,1,Transient non-community system,,,,ACHATZ CATERING,48064,05,,N,0,1,,CASCO,,,MI7420037,__VV___VV___U,,,42.768462,Zip Code Centroid,0,,1,,110052241221,,10000,ST. CLAIR,-82.672659
,,,Y,MI,,$0,1,Transient non-community system,,,,ACHATZ PIE COMPANY,48005,05,,N,0,0,,ARMADA,,,MI5020321,____________U,,,42.849819,Zip Code Centroid,0,,,,110049472717,,10000,MACOMB,-82.92086
,,,Y,MI,,$0,1,Transient non-community system,,,,ACKERS POINT RESORT,49046,05,,N,0,1,,DELTON,,,MI0820050,__VVVVVVVV__U,,,42.521751,Zip Code Centroid,0,,6,,110049232013,,10000,BARRY,-85.377162
,,,Y,MI,,$0,1,Non-Transient non-community system,,,,ACKERSON LAKE EDUCATION CTR,49201,05,,N,0,0,,JACKSON,,,MI3820104,____________U,,,42.253548,Zip Code Centroid,0,,,,110049303838,,10000,JACKSON,-84.502495
,,,Y,MI,,$0,1,Transient non-community system,,,,ACME SHELL MINI MART,49610,05,,Y,0,1,,WILLIAMSBURG,,,MI2820202,____VVVVVVVVU,,,44.80676,Zip Code Centroid,1,,16,,110049305195,,10000,GRAND TRAVERSE,-85.5713
,,,Y,MI,,$0,1,Community water system,,,,ACME TOWNSHIP - HOPE VILLAGE,,05,,N,0,0,,,,,MI0000011,____________U,,,44.718688,County Centroid,0,,,,110013131887,,30000,GRAND TRAVERSE,-85.553848
,,,Y,MI,,$0,1,Transient non-community system,,,,ACME TOWNSHIP HALL,49610,05,,N,0,1,,WILLIAMSBURG,,,MI2820403,VVVVVVVSVVVVU,,,44.80676,Zip Code Centroid,0,,18,,110049328376,,10000,GRAND TRAVERSE,-85.5713
,,,Y,MI,,$0,1,Non-Transient non-community system,,,,ACRDC,49080,05,,Y,0,1,,PLAINWELL,,,MI0320617,________VVVVU,,,42.405566,Zip Code Centroid,1,,,,110049223675,,10000,ALLEGAN,-85.615033
,,,Y,MI,,$0,1,Transient non-community system,,,,ACTION WATER SPORTS,48430,05,,N,0,0,,FENTON,,,MI4720906,____________U,,,42.725284,Zip Code Centroid,0,,,,110049316913,,10000,LIVINGSTON,-83.757378
,,,Y,MI,,$0,1,Non-Transient non-community system,,,,ADA BIBLE CHURCH,49301,05,,N,0,0,,ADA,,,MI4120847,____________U,,,42.965599,Zip Code Centroid,0,,,,110049284500,,10000,KENT,-85.480171
,,,Y,MI,,$0,1,Transient non-community system,,,,ADA PARK - LEARNING CENTER,49301,05,,N,0,0,,,,,MI4120884,____________U,,,42.965599,Zip Code Centroid,0,,,,110052740254,,10000,KENT,-85.480171
,,,Y,MI,,$0,1,Transient non-community system,,,,ADA PARK - SHELTER,49301,05,,N,0,0,,ADA,,,MI4120883,____________U,,,42.965599,Zip Code Centroid,0,,,,110052740227,,10000,KENT,-85.480171
,,,Y,MI,,$0,1,Community water system,,,,ADA TOWNSHIP,,05,,N,0,0,,ADA,,,MI0000012,____________U,,,42.965599,Post Office Name Centroid,0,,,,110013131912,,20000,KENT,-85.480171
,,,Y,MI,,$0,1,Transient non-community system,,,,ADAIR BAR,48064,05,,N,0,0,,CASCO,,,MI7420034,____________U,,,42.768462,Zip Code Centroid,0,,,,110052241178,,10000,ST. CLAIR,-82.672659
,,,Y,MI,,$0,1,Non-Transient non-community system,,,,ADAM'S CORNER,48065,05,,N,0,1,,ROMEO,,,MI5020108,VVVVV_______U,,,42.847452,Zip Code Centroid,0,,32,,110049349255,,10000,MACOMB,-83.00961
,,,Y,MI,,$0,1,Community water system,,,,ADAMS TOWNSHIP,,05,,N,0,0,,AHMEEK,,,MI0000020,____________U,,,47.298458,Place Name Centroid,0,,,,110013131949,,20000,HOUGHTON,-88.397106
,,,Y,MI,,$0,1,Community water system,,,,ADDISON,,05,,Y,0,1,,ADDISON,,,MI0000030,___________VU,,,41.985887,Place Name Centroid,1,,3,,110013131985,,20000,LENAWEE,-84.349076
,,,Y,MI,,$0,1,Transient non-community system,,,,ADDISON GUN CLUB,49220,05,,N,0,1,,ADDISON,,,MI3020150,_VV_VVVVVVVVU,,,41.993567,Zip Code Centroid,0,,4,,110049201118,,10000,HILLSDALE,-84.326575
,,,Y,MI,,$0,1,Transient non-community system,,,,ADDISON OAKS - MAINTENANCE,48367,05,,N,0,0,,LEONARD,,,MI6322455,____________U,,,42.843677,Zip Code Centroid,0,,4,,110049509705,,10000,OAKLAND,-83.141345
,,,Y,MI,,$0,1,Transient non-community system,,,,ADDISON OAKS CAMP AREA B,48367,05,,N,0,0,,LEONARD,,,MI6322881,____________U,,,42.843677,Zip Code Centroid,0,,,,110052196379,,10000,OAKLAND,-83.141345
,,,Y,MI,,$0,1,Transient non-community system,,,,ADDISON OAKS CONCESSION BLDG.,48367,05,,N,0,0,,LEONARD,,,MI6321981,____________U,,,42.843677,Zip Code Centroid,0,,4,,110049404952,,10000,OAKLAND,-83.141345
,,,Y,MI,,$0,1,Transient non-community system,,,,ADDISON OAKS CONFERENCE CENTER,48367,05,,N,0,0,,LEONARD,,,MI6320563,____________U,,,42.843677,Zip Code Centroid,0,,4,,110052075302,,10000,OAKLAND,-83.141345
,,,Y,MI,,$0,1,Transient non-community system,,,,ADDISON OAKS CPGD.SHOWER BLDG.,48367,05,,N,0,0,,LEONARD,,,MI6321982,____________U,,,42.843677,Zip Code Centroid,0,,,,110049404970,,10000,OAKLAND,-83.141345
,,,Y,MI,,$0,1,Transient non-community system,,,,ADDISON OAKS LOOP D,48367,05,,N,0,0,,LEONARD,,,MI6322808,____________U,,,42.843677,Zip Code Centroid,0,,,,110052180812,,10000,OAKLAND,-83.141345
,,,Y,MI,,$0,1,Transient non-community system,,,,ADDISON OAKS- CAMP AREA A,48367,05,,N,0,0,,LEONARD,,,MI6322718,____________U,,,42.843677,Zip Code Centroid,0,,,,110049384288,,10000,OAKLAND,-83.141345
,,,Y,MI,,$0,1,Transient non-community system,,,,ADDISON TWP. HALL,48367,05,,N,0,0,,LEONARD,,,MI6321797,____________U,,,42.843677,Zip Code Centroid,0,,4,,110052219899,,10000,OAKLAND,-83.141345
,,,Y,MI,,$0,1,Non-Transient non-community system,,,,ADEPT PLASTIC,48393,05,,N,0,0,,WIXOM,,,MI6322896,____________U,,,42.535036,Zip Code Centroid,0,,,,110052196538,,10000,OAKLAND,-83.543376
,,,Y,MI,,$0,1,Non-Transient non-community system,,,,ADESA AUTO AUCTION,48821,05,,N,0,1,,DIMONDALE,,,MI2320189,__VV_____VV_U,,,42.646305,Zip Code Centroid,0,,4,,110049312463,,10000,EATON,-84.661846
,,,Y,MI,,$0,1,Transient non-community system,,,,ADMIRAL FUEL STATION #169,48801,05,,N,0,1,,ALMA,,,MI2920629,_______VVVV_U,,,43.382217,Zip Code Centroid,0,,2,,110052068711,,10000,GRATIOT,-84.656985
,,,Y,MI,,$0,1,Transient non-community system,,,,ADMIRAL PETROLEUM,49417,05,,N,0,0,,GRAND HAVEN,,,MI7020326,____________U,,,43.021278,Zip Code Centroid,0,,,,110049375234,,10000,OTTAWA,-86.121708
,,,Y,MI,,$0,1,Transient non-community system,,,,ADMIRAL PETROLEUM,48437,05,,N,0,1,,GENESEE,,,MI2521188,____VVVVV___U,,,43.11305,Zip Code Centroid,0,,2,,110049270766,,10000,GENESEE,-83.620197
,1,,Y,MI,,$0,1,Transient non-community system,,,,ADMIRAL PETROLEUM #282,48846,05,,N,1,1,,IONIA,,,MI3420180,VVV_________U,,,42.984206,Zip Code Centroid,0,,8,,110049446097,,10000,IONIA,-85.087094
,,,Y,MI,,$0,1,Transient non-community system,,,,ADMIRAL PETROLEUM #78,48629,05,,N,0,1,,HOUGHTON LAKE,,,MI7220354,VVVVVVVSVVVVU,,,44.288946,Zip Code Centroid,0,,3,,110052095237,,10000,ROSCOMMON,-84.758547
,,,Y,MI,,$0,1,Transient non-community system,,,,ADMIRAL PETROLEUM CO.,48867,05,,N,0,0,,OWOSSO,,,MI7820367,____________U,,,42.987308,Zip Code Centroid,0,,,,110049471219,,10000,SHIAWASSEE,-84.158545
,,,Y,MI,,$0,1,Community water system,,,,ADRIAN,,05,,N,0,1,,ADRIAN,,,MI0000040,_V__________U,,,41.89878,Place Name Centroid,0,,5,,110013132010,,20000,LENAWEE,-84.044829
,,,Y,MI,,$0,1,Transient non-community system,,,,ADRIAN CINEMAS,48237,05,,N,0,0,,OAK PARK,,,MI4620374,____________U,,,42.467711,Zip Code Centroid,0,,2,,110049195045,,10000,LENAWEE,-83.177869
,,,Y,MI,,$0,1,Transient non-community system,,,,"ADRIAN SKATERY II, INC.",49221,05,,N,0,0,,ADRIAN,,,MI4620314,____________U,,,41.895649,Zip Code Centroid,0,,,,110049424253,,10000,LENAWEE,-84.061928
,,,Y,MI,,$0,1,Transient non-community system,,,,ADVANCED AUTO,48801,05,,N,0,0,,ALMA,,,MI2920148,____________U,,,43.382217,Zip Code Centroid,0,,,,110049432976,,10000,GRATIOT,-84.656985
,,,Y,MI,,$0,1,Non-Transient non-community system,,,,ADVANCED AUTO TRENDS,48371,05,,N,0,1,,OXFORD,,,MI6322183,V_VVV_______U,,,42.897606,Zip Code Centroid,0,,3,,110052138673,,10000,OAKLAND,-83.326031
,,,Y,MI,,$0,1,Non-Transient non-community system,,,,"ADVANCED AUTO TRENDS, INC.",48371,05,,N,0,1,,OXFORD,,,MI6321596,__VV________U,,,42.897606,Zip Code Centroid,0,,3,,110049453523,,10000,OAKLAND,-83.326031
,,,Y,MI,,$0,1,Non-Transient non-community system,,,,ADVANCED BLENDING SOLUTIONS,49893,05,,N,0,1,,WALLACE,,,MI5520096,_____VV_____U,,,45.325884,Zip Code Centroid,0,,2,,110052095987,,10000,MENOMINEE,-87.604114
,,,Y,MI,,$0,1,Non-Transient non-community system,,,,ADVANCED DISPOSAL - LEARNING CENTER,48167,05,,N,0,0,,NORTHVILLE,,,MI8120466,____________U,,,42.427821,Zip Code Centroid,0,,,,110052167141,,10000,WASHTENAW,-83.607512
,,,Y,MI,,$0,1,Transient non-community system,,,,ADVANCED DISPOSAL - WHITMORE LAKE,48189,05,,N,0,0,,,,,MI8120640,____________U,,,42.45217,Zip Code Centroid,0,,,,MI8120640,,10000,Washtenaw,-83.799432
,,,Y,MI,,$0,1,Non-Transient non-community system,,,,ADVANCED FIBER MOLDING,49655,05,,N,0,0,,LEROY,,,MI6720159,____________U,,,44.031028,Zip Code Centroid,0,,,,110052080804,,10000,OSCEOLA,-85.486772
,,,Y,MI,,$0,1,Non-Transient non-community system,,,,ADVANCED ORTHOPEDIC & PAIN INSTITUTE,49058,05,,Y,0,1,,HASTINGS,,,MI0820359,VVVVVVVVVVVVU,,,42.670925,Zip Code Centroid,1,,48,,110049266600,,10000,BARRY,-85.29902
,,,Y,MI,,$0,1,Transient non-community system,,,,ADVENT LUTHERAN CHURCH,49650,05,,N,0,0,,LAKE ANN,,,MI1020170,____________U,,,44.732919,Zip Code Centroid,0,,,,110063366236,,10000,BENZIE,-85.870434
,,,Y,MI,,$0,1,Transient non-community system,,,,ADVENTURE MOTEL & CAFE,49948,05,,N,0,0,,MASS CITY,,,MI6620002,____________U,,,46.726058,Zip Code Centroid,0,,4,,110052141589,,10000,ONTONAGON,-89.019989
,,,Y,MI,,$0,1,Transient non-community system,,,,ADVENTURE ZONE,49036,05,,N,0,1,,COLDWATER,,,MI1220200,VVVVV_______U,,,41.96712,Zip Code Centroid,0,,2,,110052678679,,10000,BRANCH,-85.027728
,,,Y,MI,,$0,1,Transient non-community system,,,,AETNA CALVARY CHURCH,49349,05,,N,0,0,,WHITE CLOUD,,,MI6220196,____________U,,,43.604819,Zip Code Centroid,0,,1,,110049355327,,10000,NEWAYGO,-85.75906
,,,Y,MI,,$0,1,Non-Transient non-community system,,,,AFFINITY CUSTON MOLDING,49072,05,,N,0,1,,MENDON,,,MI7520242,VVVVV_______U,,,42.009634,Zip Code Centroid,0,,20,,110052193675,,10000,ST. JOSEPH,-85.45324
,,,Y,MI,,$0,1,Transient non-community system,,,,AFTERLOON DELIGHTS,49612,05,,N,0,1,,ALDEN,,,MI0520080,VVVVV_______U,,,44.831278,Zip Code Centroid,0,,2,,110049236796,,10000,ANTRIM,-85.203787
,,,Y,MI,,$0,1,Non-Transient non-community system,,,,"AG RELIENT GENETICS, LLC",48866,05,,N,0,0,,OVID,,,MI7820242,____________U,,,43.015585,Zip Code Centroid,0,,,,110049360320,,10000,SHIAWASSEE,-84.409197
,,,Y,MI,,$0,1,Transient non-community system,,,,AGATE BEACH CAMPGROUND,49965,05,,N,0,1,,TOIVOLA,,,MI3120097,____VVVVVVV_U,,,46.883191,Zip Code Centroid,0,,2,,110049249292,,10000,HOUGHTON,-88.858223
,,,Y,MI,,$0,1,Transient non-community system,,,,AGATE FALLS WAYSIDE  P153 (MDOT),49967,05,,N,0,0,,TROUT CREEK,,,MI6620030,____________U,,,46.46301,Zip Code Centroid,0,,,,110052203389,,10000,ONTONAGON,-88.888576
,,,Y,MI,,$0,1,Transient non-community system,,,,AGILITY PHYSICAL THERAPY,48739,05,,N,0,0,,HALE,,,MI3520244,____________U,,,44.349817,Zip Code Centroid,0,,,,110063338320,,10000,IOSCO,-83.93169
,,,Y,MI,,$0,1,Transient non-community system,,,,AGILITY PHYSICAL THERAPY,48654,05,,N,0,0,,ROSE CITY,,,MI6520310,____________U,,,44.519369,Zip Code Centroid,0,,,,110064360061,,10000,OGEMAW,-84.129572
,,,Y,MI,,$0,1,Transient non-community system,,,,AGO #43 GOWEN,49326,05,,N,0,0,,,,,MI4120808,____________U,,,43.239681,Zip Code Centroid,0,,,,110049203777,,10000,KENT,-85.342124
,1,,Y,MI,,$0,1,Transient non-community system,,,,AGO CITGO,49505,05,,N,1,0,,,,,MI4120599,V___________U,,,42.996476,Zip Code Centroid,0,,9,,110049264853,,10000,KENT,-85.64359
,,,Y,MI,,$0,1,Transient non-community system,,,,AGUDATH ISRAEL,49090,05,,N,0,1,,SOUTH HAVEN,,,MI8020116,__VVVVV_____U,,,42.498414,Zip Code Centroid,0,,4,,110052112316,,10000,VAN BUREN,-86.2162
,,,Y,MI,,$0,1,Transient non-community system,,,,AHF RENTALS,48462,05,,N,0,0,,ORTONVILLE,,,MI6322463,____________U,,,42.888844,Zip Code Centroid,0,,,,110049510070,,10000,OAKLAND,-83.371704
,,,Y,MI,,$0,1,Community water system,,,,AHMEEK,,05,,N,0,0,,,,,MI0000050,____________U,,,47.681981,County Centroid,0,,,,110012984681,,30000,KEWEENAW,-88.148802
,,,Y,MI,,$0,1,Transient non-community system,,,,AINGER BIBLE CHURCH,49076,05,,Y,0,1,,OLIVET,,,MI2320118,__VV_______VU,,,42.392524,Zip Code Centroid,1,,2,,110049392359,,10000,EATON,-84.836831
,,,Y,MI,,$0,1,Transient non-community system,,,,AIRPORT BOWLING LANES,49348,05,,N,0,1,,WAYLAND,,,MI0320474,VVVVVVVVV___U,,,42.639752,Zip Code Centroid,0,,10,,110052723567,,10000,ALLEGAN,-85.529076
,,,Y,MI,,$0,1,Transient non-community system,,,,AIRPORT LANES,49202,05,,N,0,0,,JACKSON,,,MI3820059,____________U,,,42.273665,Zip Code Centroid,0,,,,110049328152,,10000,JACKSON,-84.423065
,,,Y,MI,,$0,1,Transient non-community system,,,,AIRPORT RESTAURANT,48625,05,,N,0,1,,HARRISON,,,MI1820037,V__VVVV_VVVVU,,,44.041136,Zip Code Centroid,0,,18,,110049285518,,10000,CLARE,-84.768184
,,,Y,MI,,$0,1,Transient non-community system,,,,AIRPORT RESTAURANT & SPIRITS,49202,05,,N,0,0,,JACKSON,,,MI3820630,____________U,,,42.273665,Zip Code Centroid,0,,,,110049338873,,10000,JACKSON,-84.423065
,,,Y,MI,,$0,1,Transient non-community system,,,,AIS CONTINENTAL EQUIPMT,48050,05,,N,0,0,,NEW HAVEN,,,MI5020280,____________U,,,42.785645,Zip Code Centroid,0,,,,110052061013,,10000,MACOMB,-82.807769
,,,Y,MI,,$0,1,Transient non-community system,,,,AJ'S GRILL & COCKTAIL BAR,49323,05,,N,0,1,,DORR,,,MI0320101,___VV_______U,,,42.725168,Zip Code Centroid,0,,2,,110049395908,,10000,ALLEGAN,-85.762382
,,,Y,MI,,$0,1,Transient non-community system,,,,AJAX MATERIAL CORP,48116,05,,N,0,0,,,,,MI4720680,____________U,,,42.500105,Zip Code Centroid,0,,,,MI4720680,,10000,Livingston,-83.790412
,,,Y,MI,,$0,1,Non-Transient non-community system,,,,AJD FOREST PRODUCTS,49738,05,,N,0,1,,GRAYLING,,,MI2020015,_______VV_VVU,,,44.650184,Zip Code Centroid,0,,,,110049202732,,10000,CRAWFORD,-84.585927
,,,Y,MI,,$0,1,Community water system,,,,AKRON,,05,,Y,0,1,,,,,MI0000070,VVVVVVVVVVVVU,,,43.487902,County Centroid,1,,9,,110013132083,,30000,TUSCOLA,-83.436618
,,,Y,MI,,$0,1,Non-Transient non-community system,,,,AKRON - FAIRGROVE HIGH SCHOOL,48733,05,,N,0,0,,FAIRGROVE,,,MI7920326,____________U,,,43.523556,Zip Code Centroid,0,,2,,110052135756,,10000,TUSCOLA,-83.551108
,,,Y,MI,,$0,1,Community water system,,,,AKRON TOWNSHIP,,05,,N,0,0,,,,,MI0000072,____________U,,,43.487902,County Centroid,0,,,,110064360971,,30000,TUSCOLA,-83.436618
,,,Y,MI,,$0,1,Non-Transient non-community system,,,,AL DEEBY DODGE INC,48348,05,,N,0,0,,CLARKSTON,,,MI6322241,____________U,,,42.761126,Zip Code Centroid,0,,,,110052171118,,10000,OAKLAND,-83.439499
,,,Y,MI,,$0,1,Transient non-community system,,,,AL'S MARKET,48458,05,,N,0,1,,MOUNT MORRIS,,,MI2521502,VVVVV_______U,,,43.110996,Zip Code Centroid,0,,2,,110049459518,,10000,GENESEE,-83.714253
,,,Y,MI,,$0,1,Transient non-community system,,,,AL-MAR ORCHARDS,48433,05,,Y,0,1,,FLUSHING,,,MI2520463,________VVVVU,,,43.075977,Zip Code Centroid,1,,,,110052070325,,10000,GENESEE,-83.860305
,,,Y,MI,,$0,1,Transient non-community system,,,,ALABASTER BIBLE CHURCH,48763,05,,N,0,0,,TAWAS CITY,,,MI3520226,____________U,,,44.293915,Zip Code Centroid,0,,,,110049459153,,10000,IOSCO,-83.5793
,,,Y,MI,,$0,1,Community water system,,,,ALABASTER TOWNSHIP,,05,,N,0,0,,,,,MI0000082,____________U,,,44.329482,County Centroid,0,,,,110013132118,,30000,IOSCO,-82.849447
,,,Y,MI,,$0,1,Non-Transient non-community system,,,,ALAIEDON ELEMENTARY SCHOOL,48854,05,,Y,0,1,,MASON,,,MI3320028,V___VVVVVVVVU,,,42.58212,Zip Code Centroid,1,,4,,110052711302,,10000,INGHAM,-84.558886
,,,Y,MI,,$0,1,Transient non-community system,,,,ALAMO COMMUNITY CHURCH,49009,05,,N,0,0,,KALAMAZOO,,,MI3920050,____________U,,,42.30714,Zip Code Centroid,0,,,,110049278857,,10000,KALAMAZOO,-85.773166
,,,Y,MI,,$0,1,Non-Transient non-community system,,,,ALAMO ELEMENTARY SCHOOL,49009,05,,N,0,0,,KALAMAZOO,,,MI3920335,____________U,,,42.30714,Zip Code Centroid,0,,,,110049314130,,10000,KALAMAZOO,-85.773166
,,,Y,MI,,$0,1,Transient non-community system,,,,ALAMO LITTLE LEAGUE,49009,05,,N,0,0,,KALAMAZOO,,,MI3920049,____________U,,,42.30714,Zip Code Centroid,0,,,,110049278839,,10000,KALAMAZOO,-85.773166
26077,,,Y,MI,04050003,$0,1,Community water system,,26077,,ALAMO NURSING HOME,49009,05,,N,0,0,CENTER OF A FACILITY OR STATION,KALAMAZOO,,,MI0060085,____________U,4.178,040500030903,42.38958,ADDRESS MATCHING-HOUSE NUMBER,0,KALAMAZOO COUNTY,,49009,110012973283,8290 W C AVE,30,KALAMAZOO,-85.71318
26155,,,Y,MI,04080203,$0,1,Community water system,,26155,,ALANS MHP-DURAND,48429,05,,Y,0,1,ENTRANCE POINT OF A FACILITY OR STATION,DURAND,,,MI0040319 MI0040458 MI0040460,_____V____V_U,6.05,040802030204,42.947045,ADDRESS MATCHING-HOUSE NUMBER,1,SHIAWASSEE COUNTY,9,48429,110013091162,11785 E LANSING ROAD,50,SHIAWASSEE,-83.932846
,,,Y,MI,,$0,1,Transient non-community system,,,,ALANSON CHURCH OF NAZARENE,49706,05,,N,0,0,,ALANSON,,,MI2420232,____________U,,,45.426236,Zip Code Centroid,0,,,,110049287124,,10000,EMMET,-84.69612
,,,Y,MI,,$0,1,Transient non-community system,,,,ALANSON COMMONS,49706,05,,N,0,0,,ALANSON,,,MI2420357,V___________U,,,45.426236,Zip Code Centroid,0,,4,,110049182914,,10000,EMMET,-84.69612
,,,Y,MI,,$0,1,Transient non-community system,,,,ALANSON DAIRY QUEEN,49706,05,,N,0,1,,ALANSON,,,MI2420131,VV__VVVVVVV_U,,,45.426236,Zip Code Centroid,0,,,,110049422692,,10000,EMMET,-84.69612
,,,Y,MI,,$0,1,Transient non-community system,,,,ALANSON EZ MART,49706,05,,N,0,0,,ALANSON,,,MI2420246,____________U,,,45.426236,Zip Code Centroid,0,,,,110049299601,,10000,EMMET,-84.69612
,,,Y,MI,,$0,1,Transient non-community system,,,,ALANSON FLOWING WELL,49706,05,,N,0,0,,,,,MI2420330,____________U,,,45.426236,Zip Code Centroid,0,,6,,110049239025,,10000,EMMET,-84.69612
26047,,,Y,MI,04070004,$0,1,Community water system,,26047,,ALANSON MOBILE HOME PARK,49706,05,,N,0,0,ENTRANCE POINT OF A FACILITY OR STATION,ALANSON,,,MI0040129,____________U,7.748,040700040208,45.454764,ADDRESS MATCHING-HOUSE NUMBER,0,EMMET COUNTY,,49706,110013098780,6760 US 31 NORTH,50,EMMET,-84.783885
,,,Y,MI,,$0,1,Non-Transient non-community system,,,,ALANSON PUBLIC SCHOOL,49706,05,,Y,0,1,,ALANSON,,,MI2420288,___VVVVVVVVVU,,,45.426236,Zip Code Centroid,1,,2,,110049342485,,10000,EMMET,-84.69612
,,,Y,MI,,$0,1,Transient non-community system,,,,ALANSON RIVERSIDE BAR  INC,49706,05,,N,0,1,,ALANSON,,,MI2420021,VVVVVVVVV___U,,,45.426236,Zip Code Centroid,0,,11,,110052069426,,10000,EMMET,-84.69612
,,,Y,MI,,$0,1,Transient non-community system,,,,ALANSON UNITED METHODIST CHURCH,49706,05,,N,0,0,,ALANSON,,,MI2420299,____________U,,,45.426236,Zip Code Centroid,0,,,,110049342733,,10000,EMMET,-84.69612
,,,Y,MI,,$0,1,Transient non-community system,,,,ALASKA BAPTIST CHURCH,49316,05,,N,0,0,,CALEDONIA,,,MI4120126,____________U,,,42.746686,Zip Code Centroid,0,,,,110049325681,,10000,KENT,-85.589123
,,,Y,MI,,$0,1,Transient non-community system,,,,ALASKA COMMUNITY OF CHRIST,49302,05,,N,0,0,,ALTO,,,MI4120125,____________U,,,42.824712,Zip Code Centroid,0,,,,110049325663,,10000,KENT,-85.408947
,,,Y,MI,,$0,1,Non-Transient non-community system,,,,ALBA ELEMENTARY SCHOOL,49611,05,,N,0,1,,ALBA,,,MI0520048,VVVVVV______U,,,44.99659,Zip Code Centroid,0,,44,,110049223906,,10000,ANTRIM,-84.993095
,,,Y,MI,,$0,1,Transient non-community system,,,,ALBA EZ MART,49611,05,,N,0,0,,ALBA,,,MI0520110,V___________U,,,44.99659,Zip Code Centroid,0,,2,,110049303525,,10000,ANTRIM,-84.993095
,,,Y,MI,,$0,1,Transient non-community system,,,,ALBA SPORTSMAN CLUB,49611,05,,Y,0,1,,ALBA,,,MI0520084,VVVVV______VU,,,44.99659,Zip Code Centroid,1,,2,,110049303017,,10000,ANTRIM,-84.993095
,,,Y,MI,,$0,1,Community water system,,,,ALBEE TOWNSHIP,,05,,N,0,0,,,,,MI0000088,____________U,,,43.328267,County Centroid,0,,,,110049080409,,30000,SAGINAW,-84.05541
,,,Y,MI,,$0,1,Non-Transient non-community system,,,,ALBERT TWP SYSTEM 1,49756,05,,N,0,1,,LEWISTON,,,MI6020093,_______VV___U,,,44.839144,Zip Code Centroid,0,,2,,110052074394,,10000,MONTMORENCY,-84.259485
,,,Y,MI,,$0,1,Community water system,,,,ALBION,,05,,Y,0,1,,ALBION,,,MI0000100,VVVVVVVVVVVVU,,,42.247854,Place Name Centroid,1,,4,,110012984716,,20000,CALHOUN,-84.75912
,,,Y,MI,,$0,1,Transient non-community system,,,,ALBION BEER WELL GAS STATION,49222,05,,N,0,0,,,,,MI1320507,____________U,,,42.24299,County Centroid,0,,3,,110051915898,,30000,CALHOUN,-85.012385
,,,Y,MI,,$0,1,Transient non-community system,,,,ALBRIGHT SHORE EAGLES 3655,48612,05,,N,0,0,,BEAVERTON,,,MI2620075,____________U,,,43.902036,Zip Code Centroid,0,,,,110049182709,,10000,GLADWIN,-84.62827
,,,Y,MI,,$0,1,Transient non-community system,,,,ALCATRAZ INDUSTRY INC,48133,05,,N,0,0,,ERIE,,,MI5820016,____________U,,,41.799488,Zip Code Centroid,0,,,,110049369955,,10000,MONROE,-83.493838
,,,Y,MI,,$0,1,Transient non-community system,,,,ALCONA CO COMMISSION ON AGING,48742,05,,N,0,0,,LINCOLN,,,MI0120101,____________U,,,44.742547,Zip Code Centroid,0,,,,110051944054,,10000,ALCONA,-83.414584
,,,Y,MI,,$0,1,Non-Transient non-community system,,,,ALCONA COMMUNITY HIGH SCHOOL,48742,05,,N,0,1,,LINCOLN,,,MI0120109,___VVVV_____U,,,44.742547,Zip Code Centroid,0,,3,,110051944116,,10000,ALCONA,-83.414584
,,,Y,MI,,$0,1,Non-Transient non-community system,,,,ALCONA ELEMENTARY SCHOOL,48742,05,,N,0,1,,LINCOLN,,,MI0120032,VVVVVV______U,,,44.742547,Zip Code Centroid,0,,3,,110052608291,,10000,ALCONA,-83.414584
,,,Y,MI,,$0,1,Transient non-community system,,,,ALCONA HEAD START,48742,05,,N,0,0,,LINCOLN,,,MI0120196,____________U,,,44.742547,Zip Code Centroid,0,,,,110052094915,,10000,ALCONA,-83.414584
,,,Y,MI,,$0,1,Transient non-community system,,,,ALCONA HEALTH CENTER,49774,05,,N,0,0,,,,,MI1720567,____________U,,,46.175589,Zip Code Centroid,0,,,,MI1720567,,10000,Chippewa,-84.321593
,,,Y,MI,,$0,1,Non-Transient non-community system,,,,ALCONA HEALTH CENTER - LINCOLN,48742,05,,N,0,0,,LINCOLN,,,MI0120217,____________U,,,44.742547,Zip Code Centroid,0,,,,110049433724,,10000,ALCONA,-83.414584
,,,Y,MI,,$0,1,Transient non-community system,,,,ALCONA HEALTH CENTER-OSSINEKE SERVICES,49766,05,,Y,0,1,,OSSINEKE,,,MI0420146,_____VV____VU,,,44.902374,Zip Code Centroid,1,,2,,110052716263,,10000,ALPENA,-83.435859
,,,Y,MI,,$0,1,Non-Transient non-community system,,,,ALCONA MOTORS,48742,05,,N,0,0,,LINCOLN,,,MI0120198,____________U,,,44.742547,Zip Code Centroid,0,,,,110049420649,,10000,ALCONA,-83.414584
,,,Y,MI,,$0,1,Transient non-community system,,,,ALCONA PARK 2E,48737,05,,N,0,0,,GLENNIE,,,MI0120172,____________U,,,44.548797,Zip Code Centroid,0,,,,110052621294,,10000,ALCONA,-83.721292
,,,Y,MI,,$0,1,Transient non-community system,,,,ALCONA PARK 4E,48737,05,,N,0,0,,GLENNIE,,,MI0120159,____________U,,,44.548797,Zip Code Centroid,0,,,,110051915362,,10000,ALCONA,-83.721292
,,,Y,MI,,$0,1,Transient non-community system,,,,ALCONA PARK 4W,48737,05,,N,0,0,,GLENNIE,,,MI0120164,____________U,,,44.548797,Zip Code Centroid,0,,,,110051915415,,10000,ALCONA,-83.721292
,,,Y,MI,,$0,1,Transient non-community system,,,,ALCONA PARK 5E,48737,05,,N,0,0,,GLENNIE,,,MI0120158,____________U,,,44.548797,Zip Code Centroid,0,,,,110051915353,,10000,ALCONA,-83.721292
,,,Y,MI,,$0,1,Transient non-community system,,,,ALCONA PARK 6E,48737,05,,N,0,0,,GLENNIE,,,MI0120157,____________U,,,44.548797,Zip Code Centroid,0,,,,110051915344,,10000,ALCONA,-83.721292
,,,Y,MI,,$0,1,Transient non-community system,,,,ALCONA PARK 9E,48737,05,,N,0,0,,GLENNIE,,,MI0120155,____________U,,,44.548797,Zip Code Centroid,0,,,,110051915326,,10000,ALCONA,-83.721292
,,,Y,MI,,$0,1,Transient non-community system,,,,ALCONA PARK OFFICE,48737,05,,N,0,0,,GLENNIE,,,MI0120150,____________U,,,44.548797,Zip Code Centroid,0,,,,110051915273,,10000,ALCONA,-83.721292
,,,Y,MI,,$0,1,Transient non-community system,,,,ALCONA PARK PAVILION-11E,48737,05,,N,0,0,,GLENNIE,,,MI0120179,____________U,,,44.548797,Zip Code Centroid,0,,,,110052621524,,10000,ALCONA,-83.721292
,,,Y,MI,,$0,1,Transient non-community system,,,,ALCONA PARK SER.BUILD-NEW,48737,05,,N,0,0,,GLENNIE,,,MI0120190,____________U,,,44.548797,Zip Code Centroid,0,,,,110052621935,,10000,ALCONA,-83.721292
,,,Y,MI,,$0,1,Transient non-community system,,,,ALCONA PARK SER.BUILD-OLD,48737,05,,N,0,0,,GLENNIE,,,MI0120149,____________U,,,44.548797,Zip Code Centroid,0,,,,110051915264,,10000,ALCONA,-83.721292
,,,Y,MI,,$0,1,Transient non-community system,,,,ALCONA PARK WEST SERVICE BLDG.,48737,05,,N,0,0,,GLENNIE,,,MI0120212,____________U,,,44.548797,Zip Code Centroid,0,,,,110049420890,,10000,ALCONA,-83.721292
,,,Y,MI,,$0,1,Transient non-community system,,,,ALCONA TWP HALL,48721,05,,N,0,0,,BLACK RIVER,,,MI0120121,____________U,,,44.811318,Zip Code Centroid,0,,,,110051944214,,10000,ALCONA,-83.344599
,,,Y,MI,,$0,1,Transient non-community system,,,,ALDEN BAR AND GRILL,49612,05,,N,0,0,,ALDEN,,,MI0520030,____________U,,,44.831278,Zip Code Centroid,0,,,,110049176789,,10000,ANTRIM,-85.203787
,,,Y,MI,,$0,1,Transient non-community system,,,,ALDEN COMMUNITY METHODIST CHURCH,49612,05,,N,0,0,,ALDEN,,,MI0520143,____________U,,,44.831278,Zip Code Centroid,0,,2,,110049186778,,10000,ANTRIM,-85.203787
,,,Y,MI,,$0,1,Transient non-community system,,,,ALDOS BAKERY,48507,05,,Y,0,1,,FLINT,,,MI2520880,V_______VVVVU,,,42.964235,Zip Code Centroid,1,,2,,110049294688,,10000,GENESEE,-83.735047
,,,Y,MI,,$0,1,Transient non-community system,,,,ALEX'S 2 GO,48442,05,,N,0,0,,HOLLY,,,MI6322651,____________U,,,42.734186,Zip Code Centroid,0,,,,110049439997,,10000,OAKLAND,-83.601417
,,,Y,MI,,$0,1,Transient non-community system,,,,ALEX'S MARKET,48442,05,,N,0,0,,HOLLY,,,MI6322858,____________U,,,42.734186,Zip Code Centroid,0,,,,110052224981,,10000,OAKLAND,-83.601417
,,,Y,MI,,$0,1,Community water system,,,,ALEXANDERS MOBILE VILLAGE,,05,,N,0,1,,,,,MI0040216,__V_________U,,,43.645233,County Centroid,0,,2,,110012974781,,30000,ISABELLA,-84.839425
,,,Y,MI,,$0,1,Transient non-community system,,,,ALGER FALLS MOTEL,49862,05,,N,0,1,,MUNISING,,,MI0220058,__________VVU,,,46.412264,Zip Code Centroid,0,,3,,110049286777,,10000,ALGER,-86.61594
,,,Y,MI,,$0,1,Transient non-community system,,,,ALGOMA AVENUE SUBWAY,49341,05,,N,0,0,,ROCKFORD,,,MI4120966,____________U,,,43.125532,Zip Code Centroid,0,,,,110052740717,,10000,KENT,-85.510637
,,,Y,MI,,$0,1,Transient non-community system,,,,ALGOMA BAPTIST CHURCH,49341,05,,N,0,0,,ROCKFORD,,,MI4120213,____________U,,,43.125532,Zip Code Centroid,0,,,,110052709397,,10000,KENT,-85.510637
,,,Y,MI,,$0,1,Transient non-community system,,,,ALGOMA CENTER,49341,05,,N,0,0,,ROCKFORD,,,MI4120525,____________U,,,43.125532,Zip Code Centroid,0,,,,110049230211,,10000,KENT,-85.510637
,,,Y,MI,,$0,1,Non-Transient non-community system,,,,ALGOMA CHRISTIAN SCHOOL,49330,05,,N,0,0,,KENT CITY,,,MI4120478,____________U,,,43.234347,Zip Code Centroid,0,,,,110052709761,,10000,KENT,-85.729829
,,,Y,MI,,$0,1,Community water system,1,,,ALGOMA ESTATES,,05,,N,0,1,,,,,MI0040259,VVVVVVVVVVVVU,,,43.032497,County Centroid,0,,6,,110013094347,,30000,KENT,-85.547446
,,,Y,MI,,$0,1,Transient non-community system,,,,ALGOMA TWP OFFICES,49341,05,,N,0,1,,ROCKFORD,,,MI4120545,__________VVU,,,43.125532,Zip Code Centroid,0,,4,,110052743812,,10000,KENT,-85.510637
,,,Y,MI,,$0,1,Transient non-community system,,,,ALGOMA TWP PARK CONCESSIONS,,05,,N,0,1,,,,,MI4120867,__________VVU,,,44.841084,State Centroid,0,,4,,110052719689,,100000,,-85.65932
26147,,03/08/2006,Y,MI,04090002,$0,1,Community water system,,26147,"$11,034",ALGONAC,48001,05,,N,0,0,CENTER OF A FACILITY OR STATION,ALGONAC,,,MI0000110,____________U,3.976,040900020101,42.61761,ADDRESS MATCHING-HOUSE NUMBER,0,ST. CLAIR COUNTY,,48001,110028094112,622 COLUMBIA,30,SAINT CLAIR,-82.53626
,,,Y,MI,,$0,1,Transient non-community system,,,,ALICE SPRINGS CAMPGROUND,48846,05,,N,0,0,,IONIA,,,MI3420271,____________U,,,42.984206,Zip Code Centroid,0,,,,110052721532,,10000,IONIA,-85.087094
,,,Y,MI,,$0,1,Transient non-community system,,,,ALL AMERICAN N COUNTRY STORE,49345,05,,N,0,0,,SPARTA,,,MI4120501,____________U,,,43.16057,Zip Code Centroid,0,,,,110049333333,,10000,KENT,-85.643871
,,,Y,MI,,$0,1,Transient non-community system,,,,ALL AMERICAN NORTH COUNTRY STORE #1,49330,05,,N,0,0,,,,,MI4121007,____________U,,,43.234347,Zip Code Centroid,0,,,,MI4121007,,10000,Kent,-85.729829
,,,Y,MI,,$0,1,Transient non-community system,,,,ALL AMERICAN PIZZA,49017,05,,N,0,0,,BATTLE CREEK,,,MI1320287,____________U,,,42.445095,Zip Code Centroid,0,,,,110051962685,,10000,CALHOUN,-85.275866
,,,Y,MI,,$0,1,Transient non-community system,,,,ALL DOGS CAN LLC,48446,05,,N,0,1,,,,,MI4421406,__________VVU,,,43.053031,Zip Code Centroid,0,,2,,MI4421406,,10000,Lapeer,-83.344801
,,,Y,MI,,$0,1,Non-Transient non-community system,,,,ALL FOR KIDS,49544,05,,N,0,0,,GRAND RAPIDS,,,MI7020556,____________U,,,43.009541,Zip Code Centroid,0,,2,,110049508092,,10000,OTTAWA,-85.706664
,,,Y,MI,,$0,1,Non-Transient non-community system,,,,ALL SAINTS LUTHERAN CHURCH,48353,05,,N,0,0,,HARTLAND,,,MI4720771,____________U,,,42.648563,Zip Code Centroid,0,,,,110049516225,,10000,LIVINGSTON,-83.717655
,,,Y,MI,,$0,1,Transient non-community system,,,,ALL STAR SPORTS BAR,48529,05,,Y,0,1,,BURTON,,,MI2520487,VVVVV___VVVVU,,,42.974678,Zip Code Centroid,1,,5,,110049195526,,10000,GENESEE,-83.663228
,,,Y,MI,,$0,1,Non-Transient non-community system,,,,ALL STARS PRESCHOOL,48380,05,,N,0,0,,MILFORD,,,MI6322290,____________U,,,42.549487,Zip Code Centroid,0,,4,,110052191506,,10000,OAKLAND,-83.692892
,,,Y,MI,,$0,1,Non-Transient non-community system,,,,ALL-IN-ONE BANQUET HALL,49460,05,,N,0,0,,WEST OLIVE,,,MI7020518,____________U,,,42.936016,Zip Code Centroid,0,,,,110052184514,,10000,OTTAWA,-86.080617
,,,Y,MI,,$0,1,Community water system,,,,ALLEGAN,,05,,N,0,0,,ALLEGAN,,,MI0000120,____________U,,,42.530638,Place Name Centroid,0,,,,110013132234,,20000,ALLEGAN,-85.846348
,,,Y,MI,,$0,1,Transient non-community system,,,,ALLEGAN CO PARK-DUMONT LAKE,49010,05,,N,0,0,,ALLEGAN,,,MI0320051,____________U,,,42.492887,Zip Code Centroid,0,,,,110049340021,,10000,ALLEGAN,-85.850787
,,,Y,MI,,$0,1,Transient non-community system,,,,ALLEGAN CO PARK-LITTLEJOHN,49010,05,,N,0,0,,ALLEGAN,,,MI0320359,____________U,,,42.492887,Zip Code Centroid,0,,,,110049340520,,10000,ALLEGAN,-85.850787
,,,Y,MI,,$0,1,Transient non-community system,,,,ALLEGAN CO PARK-SILVER CREEK,49419,05,,N,0,1,,HAMILTON,,,MI0320133,VVVVV__VVVVVU,,,42.688812,Zip Code Centroid,0,,9,,110052053077,,10000,ALLEGAN,-85.987488
,,,Y,MI,,$0,1,Transient non-community system,,,,ALLEGAN CO PARK-WESTSIDE,49408,05,,N,0,0,,FENNVILLE,,,MI0320180,____________U,,,42.573555,Zip Code Centroid,0,,,,110052704454,,10000,ALLEGAN,-86.114109
,,,Y,MI,,$0,1,Transient non-community system,,,,ALLEGAN COUNTY GUN LAKE PARK,49344,05,,N,0,0,,SHELBYVILLE,,,MI0320611,____________U,,,42.57752,Zip Code Centroid,0,,,,110049223522,,10000,ALLEGAN,-85.509906
,2,,Y,MI,,$0,1,Community water system,,,,ALLEGAN COUNTY SERVICES CENTER,,05,,Y,2,1,,,,,MI0000125,VVVVVVVVVVVVU,,,42.595788,County Centroid,1,,10,,110012984770,,30000,ALLEGAN,-86.634745
,,,Y,MI,,$0,1,Transient non-community system,,,,ALLEGAN JEHOVAHS WITNESS HALL,49010,05,,N,0,0,,ALLEGAN,,,MI0320488,____________U,,,42.492887,Zip Code Centroid,0,,,,110049329080,,10000,ALLEGAN,-85.850787
,,,Y,MI,,$0,1,Community water system,1,,,ALLEGAN MOBILE ESTATES,,05,,N,0,0,,,,,MI0040002,____________U,,,42.595788,County Centroid,0,,,,110013099501,,30000,ALLEGAN,-86.634745
,,,Y,MI,,$0,1,Transient non-community system,,,,ALLEGAN TOWNSHIP HALL,49010,05,,N,0,1,,ALLEGAN,,,MI0320527,V_______VV__U,,,42.492887,Zip Code Centroid,0,,2,,110049201984,,10000,ALLEGAN,-85.850787
,,,Y,MI,,$0,1,Non-Transient non-community system,,,,ALLEGAN TUBULAR PRODUCTS,49010,05,,N,0,1,,ALLEGAN,,,MI0320536,VVVVVV______U,,,42.492887,Zip Code Centroid,0,,2,,110049202162,,10000,ALLEGAN,-85.850787
,,,Y,MI,,$0,1,Transient non-community system,,,,ALLEGAN WELLNESS COMPLEX,49010,05,,N,0,0,,ALLEGAN,,,MI0320615,____________U,,,42.492887,Zip Code Centroid,0,,1,,110049223611,,10000,ALLEGAN,-85.850787
,,,Y,MI,,$0,1,Transient non-community system,,,,ALLEGIANCE HEALTH,48854,05,,Y,0,1,,,,,MI3320200,VV_VV___VVVVU,,,42.58212,Zip Code Centroid,1,,14,,110049199247,,10000,INGHAM,-84.558886
,,,Y,MI,,$0,1,Transient non-community system,,,,ALLEGIANT MEDICAL CENTER - GRASS LAKE,49240,05,,N,0,0,,GRASS LAKE,,,MI3820821,____________U,,,42.271353,Zip Code Centroid,0,,,,110052728973,,10000,JACKSON,-84.187073
,,,Y,MI,,$0,1,Community water system,,,,ALLEN PARK,,05,,Y,0,1,,ALLEN PARK,,,MI0000130,__________VVU,,,42.259474,Place Name Centroid,1,,1,,110013132305,,20000,WAYNE,-83.210391
,,,Y,MI,,$0,1,Transient non-community system,,,,ALLENDALE KOA,49401,05,,N,0,0,,ALLENDALE,,,MI7020171,____________U,,,42.976116,Zip Code Centroid,0,,,,110052142720,,10000,OTTAWA,-85.954105
,,,Y,MI,,$0,1,Community water system,,26139,,ALLENDALE TOWNSHIP MS4-OTTAWA,49401,05,,N,0,1,,ALLENDALE,,,MI0000127,____________U,,,42.976116,Zip Code Centroid,0,OTTAWA COUNTY,,,110040046205,P.O. BOX 539,10000,OTTAWA,-85.954105
,,,Y,MI,,$0,1,Transient non-community system,,,,ALLENTON TAVERN,48002,05,,N,0,1,,ALLENTON,,,MI7420110,___VVVV_____U,,,42.941973,Zip Code Centroid,0,,1,,110049502221,,10000,ST. CLAIR,-82.92613
,,,Y,MI,,$0,1,Transient non-community system,,,,ALLIED ICE,49286,05,,N,0,0,,TECUMSEH,,,MI4620656,____________U,,,42.002695,Zip Code Centroid,0,,,,110049183879,,10000,LENAWEE,-83.953514
,,,Y,MI,,$0,1,Non-Transient non-community system,,,,"ALLOR MANUFACTURING, INC.",48116,05,,N,0,0,,BRIGHTON,,,MI4720570,____________U,,,42.500105,Zip Code Centroid,0,,,,110049341351,,10000,LIVINGSTON,-83.790412
,,,Y,MI,,$0,1,Transient non-community system,,,,ALLURE SALON,48723,05,,N,0,0,,CARO,,,MI7921072,____________U,,,43.488053,Zip Code Centroid,0,,,,110063347267,,10000,TUSCOLA,-83.369477
,,,Y,MI,,$0,1,Transient non-community system,,,,ALMA CINEMAS,48801,05,,N,0,0,,ALMA,,,MI2920142,____________U,,,43.382217,Zip Code Centroid,0,,,,110049432841,,10000,GRATIOT,-84.656985
26057,,,Y,MI,04080202,$0,1,Community water system,,26057,,ALMA CITY OF,48801,05,,N,0,0,CENTER OF A FACILITY OR STATION,ALMA,,,MI0000140,____________U,10.991,040802020312,43.37894,ADDRESS MATCHING-HOUSE NUMBER,0,GRATIOT COUNTY,,48801,110013132323,525 E. SUPERIOR ST.,30,GRATIOT,-84.65458
,,,Y,MI,,$0,1,Transient non-community system,,,,ALMA COMFORTABLE INN,48801,05,,N,0,0,,ALMA,,,MI2920115,____________U,,,43.382217,Zip Code Centroid,0,,,,110049323371,,10000,GRATIOT,-84.656985
,,,Y,MI,,$0,1,Transient non-community system,,,,ALMA COMMUNITY OF CHRIST,48801,05,,N,0,1,,ALMA,,,MI2920073,_______VV___U,,,43.382217,Zip Code Centroid,0,,5,,110049368215,,10000,GRATIOT,-84.656985
,,,Y,MI,,$0,1,Transient non-community system,,,,ALMENA UNITED METHODIST CHURCH,49079,05,,N,0,1,,PAW PAW,,,MI8020084,____VV__VV__U,,,42.257225,Zip Code Centroid,0,,5,,110052254966,,10000,VAN BUREN,-85.888407
,,,Y,MI,,$0,1,Transient non-community system,,,,ALMIRA TOWNSHIP BEACH PARK,49650,05,,N,0,1,,LAKE ANN,,,MI1020168,VVVVV_______U,,,44.732919,Zip Code Centroid,0,,,,110063330293,,10000,BENZIE,-85.870434
,,,Y,MI,,$0,1,Transient non-community system,,,,ALMIRA TOWNSHIP HALL & PARK,49650,05,,N,0,0,,LAKE ANN,,,MI1020162,____________U,,,44.732919,Zip Code Centroid,0,,,,110049174567,,10000,BENZIE,-85.870434
,,,Y,MI,,$0,1,Transient non-community system,,,,ALMIRA TOWNSHIP PARK PAVILION,49650,05,,N,0,0,,LAKE ANN,,,MI1020163,____________U,,,44.732919,Zip Code Centroid,0,,,,110049174594,,10000,BENZIE,-85.870434
,,,Y,MI,,$0,1,Transient non-community system,,,,ALMONT VINEYARD CHURCH,48003,05,,N,0,1,,ALMONT,,,MI4421900,V_______VVVVU,,,42.93554,Zip Code Centroid,0,,10,,110049366306,,10000,LAPEER,-83.043257
,,,Y,MI,,$0,1,Community water system,,,,"ALMONT, VILLAGE OF",,05,,N,0,0,,,,,MI0000150,____________U,,,43.088633,County Centroid,0,,,,110012984814,,30000,LAPEER,-83.224325
,,,Y,MI,,$0,1,Transient non-community system,,,,ALPEN,49911,05,,Y,0,1,,BESSEMER,,,MI2720106,____VV_____VU,,,46.48021,Zip Code Centroid,1,,2,,110052052719,,10000,GOGEBIC,-90.05138
,,,Y,MI,,$0,1,Transient non-community system,,,,ALPEN VILLA,49911,05,,N,0,0,,BESSEMER,,,MI2720083,____________U,,,46.48021,Zip Code Centroid,0,,,,110052705765,,10000,GOGEBIC,-90.05138
,,,Y,MI,,$0,1,Transient non-community system,,,,ALPENA SPORTSMANS CLUB,49707,05,,N,0,0,,ALPENA,,,MI0420133,____________U,,,45.077161,Zip Code Centroid,0,,,,110049202590,,10000,ALPENA,-83.451112
,,,Y,MI,,$0,1,Community water system,,,,ALPENA TOWNSHIP,,05,,N,0,0,,,,,MI0000170,____________U,,,44.894954,County Centroid,0,,3,,110013129854,,30000,ALPENA,-83.426574
26007,,,Y,MI,04070006,$0,1,Community water system,,26007,,"ALPENA, CITY OF",49707,05,,N,0,0,ENTRANCE POINT OF A FACILITY OR STATION,ALPENA,,,MI0000160,____________U,4.052,040700060605,45.079386,ADDRESS MATCHING-HOUSE NUMBER,0,ALPENA COUNTY,,49707,110003630786,1003 LONG LAKE AVE,50,ALPENA,-83.431531
,1,,Y,MI,,$0,1,Community water system,,,,ALPHA,,05,,Y,1,1,,ALPHA,,,MI0000180,VVVVVVVVVVVVU,,,46.044033,Place Name Centroid,1,,6,,110013129890,,20000,IRON,-88.378444
,,,Y,MI,,$0,1,Transient non-community system,,,,ALPINE AUTO AUCTION,49735,05,,N,0,0,,GAYLORD,,,MI6920103,____________U,,,44.978894,Zip Code Centroid,0,,,,110052107386,,10000,OTSEGO,-84.763955
,,,Y,MI,,$0,1,Transient non-community system,,,,ALPINE CAMPGROUND,49911,05,,N,0,1,,BESSEMER,,,MI2720135,VVVVV_______U,,,46.48021,Zip Code Centroid,0,,2,,110049182549,,10000,GOGEBIC,-90.05138
,,,Y,MI,,$0,1,Non-Transient non-community system,,,,ALPINE CROSSINGS MALL,49735,05,,N,0,1,,GAYLORD,,,MI6920220,VVVVSV______U,,,44.978894,Zip Code Centroid,0,,,,110052242774,,10000,OTSEGO,-84.763955
,,,Y,MI,,$0,1,Non-Transient non-community system,,,,ALPINE ELEMENTARY SCHOOL,49321,05,,N,0,0,,COMSTOCK PARK,,,MI4120245,____________U,,,43.082105,Zip Code Centroid,0,,,,110049217361,,10000,KENT,-85.679764
,,,Y,MI,,$0,1,Transient non-community system,,,,ALPINE FAMILY DENTISTRY,49735,05,,N,0,0,,GAYLORD,,,MI6920212,____________U,,,44.978894,Zip Code Centroid,0,,,,110052232534,,10000,OTSEGO,-84.763955
,,,Y,MI,,$0,1,Transient non-community system,,,,ALPINE GOLF CLUB,49321,05,,N,0,0,,COMSTOCK PARK,,,MI4120265,____________U,,,43.082105,Zip Code Centroid,0,,,,110049230097,,10000,KENT,-85.679764
,,,Y,MI,,$0,1,Transient non-community system,,,,ALPINE MOTEL,49402,05,,Y,0,1,,BRANCH,,,MI5320148,VVVVVVVVVVVSU,,,43.945894,Zip Code Centroid,1,,2,,110049483402,,10000,MASON,-86.093235
,,,Y,MI,,$0,1,Transient non-community system,,,,ALPINE SPORTS COMPLEX,49321,05,,N,0,0,,COMSTOCK PARK,,,MI4120573,____________U,,,43.082105,Zip Code Centroid,0,,,,110049251787,,10000,KENT,-85.679764
,,,Y,MI,,$0,1,Transient non-community system,,,,ALPINE VALLEY SKI AREA,48383,05,,N,0,0,,WHITE LAKE,,,MI6320830,____________U,,,42.655242,Zip Code Centroid,0,,,,110049371210,,10000,OAKLAND,-83.537627
,,,Y,MI,,$0,1,Transient non-community system,,,,ALPINE VALLEY SKI PATROL,48383,05,,N,0,0,,WHITE LAKE,,,MI6320831,____________U,,,42.655242,Zip Code Centroid,0,,,,110049371247,,10000,OAKLAND,-83.537627
,,,Y,MI,,$0,1,Transient non-community system,,,,ALPINE VILLAGE BAPTIST CHURCH,49735,05,,N,0,0,,GAYLORD,,,MI6920057,____________U,,,44.978894,Zip Code Centroid,0,,,,110049374789,,10000,OTSEGO,-84.763955
,,,Y,MI,,$0,1,Transient non-community system,,,,"ALT, CARL & SONS - AG LABOR",49321,05,,N,0,0,,COMSTOCK PARK,,,MI4120255,____________U,,,43.082105,Zip Code Centroid,0,,,,110049217539,,10000,KENT,-85.679764
,,,Y,MI,,$0,1,Transient non-community system,,,,ALTEN OAKS BLDG B,49504,05,,N,0,0,,GRAND RAPIDS,,,MI4120829,____________U,,,42.97859,Zip Code Centroid,0,,,,110049204231,,10000,KENT,-85.711186
,,,Y,MI,,$0,1,Transient non-community system,,,,ALTEN OAKS BLDG C,49301,05,,N,0,0,,ADA,,,MI4120830,____________U,,,42.965599,Zip Code Centroid,0,,,,110049204259,,10000,KENT,-85.480171
,,,Y,MI,,$0,1,Non-Transient non-community system,,,,ALTEN OAKS BLDG D,49512,05,,N,0,0,,GRAND RAPIDS,,,MI4120831,____________U,,,42.887757,Zip Code Centroid,0,,,,110049204277,,10000,KENT,-85.568368
,,,Y,MI,,$0,1,Non-Transient non-community system,,,,ALTEN OAKS BLDG. A,49512,05,,N,0,0,,GRAND RAPIDS,,,MI4120828,____________U,,,42.887757,Zip Code Centroid,0,,,,110049204213,,10000,KENT,-85.568368
,,,Y,MI,,$0,1,Transient non-community system,,,,ALTO AMERICAN LEGION HALL,49302,05,,N,0,1,,ALTO,,,MI4120432,_________VV_U,,,42.824712,Zip Code Centroid,0,,6,,110049301144,,10000,KENT,-85.408947
,,,Y,MI,,$0,1,Transient non-community system,,,,ALTO APOSTOLIC CHURCH,49302,05,,N,0,1,,ALTO,,,MI4120916,__________VVU,,,42.824712,Zip Code Centroid,0,,3,,110049518376,,10000,KENT,-85.408947
,,,Y,MI,,$0,1,Non-Transient non-community system,,,,ALTO ELEMENTARY SCHOOL,49302,05,,N,0,0,,ALTO,,,MI4120027,____________U,,,42.824712,Zip Code Centroid,0,,,,110049432360,,10000,KENT,-85.408947
,,,Y,MI,,$0,1,Transient non-community system,,,,ALTO MARATHON,49302,05,,N,0,0,,ALTO,,,MI4120821,____________U,,,42.824712,Zip Code Centroid,0,,,,110049204053,,10000,KENT,-85.408947
,,,Y,MI,,$0,1,Community water system,4,,,ALTO MEADOWS,,05,,Y,0,1,,,,,MI0040681,_________V_VU,,,43.032497,County Centroid,1,,8,,110016810842,,30000,KENT,-85.547446
,,,Y,MI,,$0,1,Non-Transient non-community system,,,,ALWAYS UNIQUE CHILDCARE,48189,05,,N,0,0,,WHITMORE LAKE,,,MI4720642,____________U,,,42.45217,Zip Code Centroid,0,,,,110049294223,,10000,LIVINGSTON,-83.799432
,,,Y,MI,,$0,1,Transient non-community system,,,,AM LEG WALLY BARTLEY POST 162,48636,05,,N,0,0,,LUZERNE,,,MI6820115,____________U,,,44.61586,Zip Code Centroid,0,,,,110049415192,,10000,OSCODA,-84.267811
,,,Y,MI,,$0,1,Transient non-community system,,,,AM PROPERTY MANAGEMENT LLC,48108,05,,N,0,0,,ANN ARBOR,,,MI8120606,____________U,,,42.225886,Zip Code Centroid,0,,3,,110052353289,,10000,WASHTENAW,-83.747133
,,,Y,MI,,$0,1,Transient non-community system,,,,AMAZING GRACE CHURCH,48615,05,,N,0,0,,BRECKENRIDGE,,,MI2920137,____________U,,,43.525117,Zip Code Centroid,0,,,,110049323665,,10000,GRATIOT,-84.454975
,,,Y,MI,,$0,1,Transient non-community system,,,,AMBER SANDS RESORT,49653,05,,Y,0,1,,LAKE LEELANAU,,,MI4520051,___________VU,,,44.983505,Zip Code Centroid,1,,,,110049208344,,10000,LEELANAU,-85.736995
,,,Y,MI,,$0,1,Transient non-community system,,,,AMBLE ROADHOUSE,49329,05,,N,0,0,,HOWARD CITY,,,MI5920057,____________U,,,43.38869,Zip Code Centroid,0,,,,110052123439,,10000,MONTCALM,-85.580647
,,,Y,MI,,$0,1,Transient non-community system,,,,AMER. LEG. GLENN STALEY PT.422,48739,05,,N,0,0,,HALE,,,MI3520117,____________U,,,44.349817,Zip Code Centroid,0,,,,110049518884,,10000,IOSCO,-83.93169
,,,Y,MI,,$0,1,Non-Transient non-community system,,,,AMERI-KART,49031,05,,N,0,0,,CASSOPOLIS,,,MI1420212,____________U,,,41.90853,Zip Code Centroid,0,,,,110049242020,,10000,CASS,-86.00505
,,,Y,MI,,$0,1,Transient non-community system,,,,AMERICA'S BEST VALUE MOTEL,49855,05,,N,0,0,,MARQUETTE,,,MI5220199,____________U,,,46.544838,Zip Code Centroid,0,,,,110052131625,,10000,MARQUETTE,-87.435653
,,,Y,MI,,$0,1,Transient non-community system,,,,AMERICAN CAMPGROUND A-FRAME,49009,05,,N,0,0,,KALAMAZOO,,,MI3920398,____________U,,,42.30714,Zip Code Centroid,0,,6,,110049346631,,10000,KALAMAZOO,-85.773166
,,,Y,MI,,$0,1,Transient non-community system,,,,AMERICAN CAMPGROUND MAIN LODGE,49009,05,,N,0,1,,KALAMAZOO,,,MI3920051,__VV________U,,,42.30714,Zip Code Centroid,0,,8,,110049278875,,10000,KALAMAZOO,-85.773166
,,,Y,MI,,$0,1,Transient non-community system,,,,AMERICAN CAMPGROUND POOL,49009,05,,N,0,1,,KALAMAZOO,,,MI3920350,__VV________U,,,42.30714,Zip Code Centroid,0,,8,,110049265512,,10000,KALAMAZOO,-85.773166
,,,Y,MI,,$0,1,Non-Transient non-community system,,,,"AMERICAN COMPOUNDING SPECIALTIES, LLC",48116,05,,N,0,0,,BRIGHTON,,,MI4720823,____________U,,,42.500105,Zip Code Centroid,0,,,,110049194554,,10000,LIVINGSTON,-83.790412
,,,Y,MI,,$0,1,Transient non-community system,,,,AMERICAN GAS & OIL,49329,05,,Y,0,1,,HOWARD CITY,,,MI5920405,_VVV_____VSSU,,,43.38869,Zip Code Centroid,1,,6,,110052156867,,10000,MONTCALM,-85.580647
,,,Y,MI,,$0,1,Transient non-community system,,,,AMERICAN GAS & OIL,48884,05,,Y,0,1,,SHERIDAN,,,MI5920034,VVVVVVV__VVVU,,,43.20401,Zip Code Centroid,1,,3,,110052202077,,10000,MONTCALM,-85.054302
,,,Y,MI,,$0,1,Transient non-community system,,,,AMERICAN INN,49091,05,,Y,0,1,,STURGIS,,,MI7520223,VVVVV___VV_VU,,,41.816077,Zip Code Centroid,1,,11,,110052149215,,10000,ST. JOSEPH,-85.42365
,,,Y,MI,,$0,1,Transient non-community system,,,,AMERICAN LEGION,48504,05,,N,0,0,,FLINT,,,MI2521130,____________U,,,43.05004,Zip Code Centroid,0,,,,110049257969,,10000,GENESEE,-83.742088
,,,Y,MI,,$0,1,Transient non-community system,,,,AMERICAN LEGION,48169,05,,N,0,0,,PINCKNEY,,,MI4720144,____________U,,,42.422773,Zip Code Centroid,0,,,,110049343929,,10000,LIVINGSTON,-83.904607
,,,Y,MI,,$0,1,Transient non-community system,,,,AMERICAN LEGION,49421,05,,N,0,0,,HESPERIA,,,MI6420288,____________U,,,43.556769,Zip Code Centroid,0,,2,,110052064145,,10000,OCEANA,-86.079342
,,,Y,MI,,$0,1,Transient non-community system,,,,AMERICAN LEGION  #365,49112,05,,N,0,1,,EDWARDSBURG,,,MI1420022,____VVVVVVVVU,,,41.807363,Zip Code Centroid,0,,6,,110049290334,,10000,CASS,-86.016411
,,,Y,MI,,$0,1,Transient non-community system,,,,AMERICAN LEGION  POST 240,49310,05,,N,0,1,,BLANCHARD,,,MI3720032,_______VV___U,,,43.546728,Zip Code Centroid,0,,3,,110049328072,,10000,ISABELLA,-85.087913
,,,Y,MI,,$0,1,Transient non-community system,,,,AMERICAN LEGION #170,49093,05,,N,0,0,,THREE RIVERS,,,MI7520077,____________U,,,41.932417,Zip Code Centroid,0,,,,110052224099,,10000,ST. JOSEPH,-85.659734
,,,Y,MI,,$0,1,Transient non-community system,,,,AMERICAN LEGION #223,49042,05,,N,0,0,,CONSTANTINE,,,MI7520205,____________U,,,41.831095,Zip Code Centroid,0,,2,,110049431879,,10000,ST. JOSEPH,-85.790105
,,,Y,MI,,$0,1,Transient non-community system,,,,AMERICAN LEGION #291,49945,05,,N,0,1,,LAKE LINDEN,,,MI3120086,VVVVV_______U,,,47.17082,Zip Code Centroid,0,,3,,110049249112,,10000,HOUGHTON,-88.380767
,,,Y,MI,,$0,1,Transient non-community system,,,,"AMERICAN LEGION HALL, POST 393",49748,05,,N,0,1,,HULBERT,,,MI1720078,VVVVVVVVVVVVU,,,46.352635,Zip Code Centroid,0,,14,,110049230872,,10000,CHIPPEWA,-85.150357
,,,Y,MI,,$0,1,Transient non-community system,,,,AMERICAN LEGION POST #245 PRUDENVILLE,48651,05,,N,0,0,,PRUDENVILLE,,,MI7220169,____________U,,,44.295077,Zip Code Centroid,0,,,,110052204468,,10000,ROSCOMMON,-84.64697
,,,Y,MI,,$0,1,Transient non-community system,,,,AMERICAN LEGION POST #29,49202,05,,N,0,0,,JACKSON,,,MI3820595,____________U,,,42.273665,Zip Code Centroid,0,,,,110049355988,,10000,JACKSON,-84.423065
,,,Y,MI,,$0,1,Transient non-community system,,,,AMERICAN LEGION POST #290,49827,05,,N,0,0,,ENGADINE,,,MI4920316,____________U,,,46.129973,Zip Code Centroid,0,,,,110049281031,,10000,MACKINAC,-85.577381
,,,Y,MI,,$0,1,Transient non-community system,,,,AMERICAN LEGION POST #344,49113,05,,N,0,0,,GALIEN,,,MI1120041,____________U,,,41.812578,Zip Code Centroid,0,,,,110052085872,,10000,BERRIEN,-86.477635
,,,Y,MI,,$0,1,Transient non-community system,,,,AMERICAN LEGION POST #349,49833,05,,N,0,0,,LITTLE LAKE,,,MI5220171,____________U,,,46.29451,Zip Code Centroid,0,,,,110052169443,,10000,MARQUETTE,-87.318113
,,,Y,MI,,$0,1,Transient non-community system,,,,AMERICAN LEGION POST #370,48756,05,,N,0,0,,PRESCOTT,,,MI6520204,____________U,,,44.198161,Zip Code Centroid,0,,,,110052101177,,10000,OGEMAW,-84.025235
,,,Y,MI,,$0,1,Transient non-community system,,,,AMERICAN LEGION POST #518,49119,05,,N,0,0,,SAWYER,,,MI1120221,____________U,,,41.872481,Zip Code Centroid,0,,,,110049332986,,10000,BERRIEN,-86.532869
,,,Y,MI,,$0,1,Transient non-community system,,,,AMERICAN LEGION POST #558,48622,05,,N,0,0,,FARWELL,,,MI1820241,____________U,,,43.843167,Zip Code Centroid,0,,,,110049392769,,10000,CLARE,-84.857373
,,,Y,MI,,$0,1,Transient non-community system,,,,AMERICAN LEGION POST 123,49330,05,,N,0,0,,KENT CITY,,,MI4120397,____________U,,,43.234347,Zip Code Centroid,0,,,,110052079790,,10000,KENT,-85.729829
,,,Y,MI,,$0,1,Transient non-community system,,,,AMERICAN LEGION POST 182,48845,05,,N,0,0,,HUBBARDSTON,,,MI3420078,____________U,,,43.093917,Zip Code Centroid,0,,,,110049347854,,10000,IONIA,-84.818776
,,,Y,MI,,$0,1,Transient non-community system,,,,AMERICAN LEGION POST 198,49756,05,,N,0,0,,LEWISTON,,,MI6020131,____________U,,,44.839144,Zip Code Centroid,0,,,,110049381548,,10000,MONTMORENCY,-84.259485
,,,Y,MI,,$0,1,Transient non-community system,,,,AMERICAN LEGION POST 248,48848,05,,N,0,1,,LAINGSBURG,,,MI7820220,_____VVV____U,,,42.88104,Zip Code Centroid,0,,2,,110052111166,,10000,SHIAWASSEE,-84.408034
,,,Y,MI,,$0,1,Transient non-community system,,,,AMERICAN LEGION POST 293,48759,05,,N,0,0,,SEBEWAING,,,MI3220146,____________U,,,43.702332,Zip Code Centroid,0,,,,110049339346,,10000,HURON,-83.471059
,,,Y,MI,,$0,1,Transient non-community system,,,,AMERICAN LEGION POST 381,49337,05,,Y,0,1,,NEWAYGO,,,MI6220055,____VVVVVVVVU,,,43.426526,Zip Code Centroid,1,,8,,110052058982,,10000,NEWAYGO,-85.782171
,,,Y,MI,,$0,1,Transient non-community system,,,,AMERICAN LEGION POST 416 ST. HELEN,48656,05,,N,0,0,,SAINT HELEN,,,MI7220072,____________U,,,44.356174,Zip Code Centroid,0,,,,110049439014,,10000,ROSCOMMON,-84.427916
,,,Y,MI,,$0,1,Transient non-community system,,,,AMERICAN LEGION POST 484,49060,05,,N,0,0,,HICKORY CORNERS,,,MI0820072,____________U,,,42.44166,Zip Code Centroid,0,,,,110049175968,,10000,BARRY,-85.392707
,,,Y,MI,,$0,1,Transient non-community system,,,,AMERICAN LEGION POST 514,48140,05,,N,0,0,,IDA,,,MI5820020,____________U,,,41.888902,Zip Code Centroid,0,,,,110049370033,,10000,MONROE,-83.572603
,,,Y,MI,,$0,1,Transient non-community system,,,,AMERICAN LEGION POST 554,49336,05,,Y,0,1,,MORLEY,,,MI5420182,_____VVVV__VU,,,43.49413,Zip Code Centroid,1,,,,110049401884,,10000,MECOSTA,-85.433204
,,,Y,MI,,$0,1,Transient non-community system,,,,AMERICAN LEGION WALTER FRASER POST 108,48371,05,,N,0,0,,OXFORD,,,MI6322220,____________U,,,42.897606,Zip Code Centroid,0,,,,110052105654,,10000,OAKLAND,-83.326031
,,,Y,MI,,$0,1,Transient non-community system,,,,AMERICAN RESORT & CAMPGROUND,49640,05,,N,0,0,,HONOR,,,MI1020102,____________U,,,44.674928,Zip Code Centroid,0,,,,110049267002,,10000,BENZIE,-86.01277
,,,Y,MI,,$0,1,Transient non-community system,,,,AMERICAN VETS,49120,05,,N,0,0,,NILES,,,MI1120398,____________U,,,41.83129,Zip Code Centroid,0,,,,110049355737,,10000,BERRIEN,-86.165982
,,,Y,MI,,$0,1,Non-Transient non-community system,,,,AMERICAN WASTE,49646,05,,N,0,0,,KALKASKA,,,MI4020214,____________U,,,44.710744,Zip Code Centroid,0,,1,,110063336439,,10000,KALKASKA,-85.114129
,,,Y,MI,,$0,1,Transient non-community system,,,,AMERICINN - MUNISING,49895,05,,Y,0,1,,WETMORE,,,MI0220270,__________VVU,,,46.37974,Zip Code Centroid,1,,2,,110052737874,,10000,ALGER,-86.620037
,,,Y,MI,,$0,1,Non-Transient non-community system,,,,AMETEK PATRIOT SENSOR CONTROL,48466,05,,N,0,1,,PECK,,,MI7620150,______VV____U,,,43.258518,Zip Code Centroid,0,,1,,110052063672,,10000,SANILAC,-82.823533
,,,Y,MI,,$0,1,Non-Transient non-community system,,,,AMI - MANCHESTER,48158,05,,N,0,0,,MANCHESTER,,,MI8120324,____________U,,,42.14581,Zip Code Centroid,0,,,,110052178068,,10000,WASHTENAW,-84.073553
,,,Y,MI,,$0,1,Non-Transient non-community system,,,,AMI INDUSTRIES,49756,05,,N,0,0,,LEWISTON,,,MI6820206,____________U,,,44.839144,Zip Code Centroid,0,,,,110049439639,,10000,OSCODA,-84.259485
,,,Y,MI,,$0,1,Transient non-community system,,,,AMI MARATHON,49130,05,,N,0,0,,UNION,,,MI1420355,V___________U,,,41.786012,Zip Code Centroid,0,,6,,110063342075,,10000,CASS,-85.849716
,,,Y,MI,,$0,1,Transient non-community system,,,,AMIGO CENTER,49091,05,,N,0,1,,STURGIS,,,MI7520221,VVVV_VVVV___U,,,41.816077,Zip Code Centroid,0,,22,,110052149180,,10000,ST. JOSEPH,-85.42365
,,,Y,MI,,$0,1,Transient non-community system,,,,AMIGO PARK,49091,05,,N,0,0,,STURGIS,,,MI7520038,____________U,,,41.816077,Zip Code Centroid,0,,2,,110052120584,,10000,ST. JOSEPH,-85.42365
,,,Y,MI,,$0,1,Transient non-community system,,,,AMISH PRACTICAL SCHOOL,49232,05,,Y,0,1,,CAMDEN,,,MI3020308,SSSV_VVVVVVVU,,,41.724269,Zip Code Centroid,1,,51,,110063330630,,10000,HILLSDALE,-84.631169
,,,Y,MI,,$0,1,Transient non-community system,,,,AMVET DEPT OF MICHIGAN,48653,05,,N,0,1,,ROSCOMMON,,,MI7220244,_VVV________U,,,44.529886,Zip Code Centroid,0,,4,,110052240703,,10000,ROSCOMMON,-84.53012
,,,Y,MI,,$0,1,Transient non-community system,,,,AMVET LODGE,48653,05,,N,0,1,,ROSCOMMON,,,MI7220078,_VVV________U,,,44.529886,Zip Code Centroid,0,,4,,110049439112,,10000,ROSCOMMON,-84.53012
,,,Y,MI,,$0,1,Transient non-community system,,,,AMVET POST 13,48653,05,,N,0,0,,ROSCOMMON,,,MI7220258,____________U,,,44.529886,Zip Code Centroid,0,,,,110052131518,,10000,ROSCOMMON,-84.53012
,,,Y,MI,,$0,1,Transient non-community system,,,,AMVETS POST # 1988,49304,05,,N,0,1,,BALDWIN,,,MI4320142,____VVVVVVV_U,,,43.931797,Zip Code Centroid,0,,1,,110063354294,,10000,LAKE,-85.82237
,,,Y,MI,,$0,1,Transient non-community system,,,,ANCHOR IN MARINA OF CHEBOYGAN,49721,05,,N,0,1,,CHEBOYGAN,,,MI1620395,V___VVVVVV__U,,,45.589655,Zip Code Centroid,0,,8,,110052088780,,10000,CHEBOYGAN,-84.481787
,,,Y,MI,,$0,1,Non-Transient non-community system,,,,ANCHOR LAMINA AMERICA,49615,05,,N,0,0,,BELLAIRE,,,MI0520049,____________U,,,44.957067,Zip Code Centroid,0,,,,110049223924,,10000,ANTRIM,-85.165498
,,,Y,MI,,$0,1,Non-Transient non-community system,,,,ANDERSEN MATERIAL HANDLING,48383,05,,N,0,0,,,,,MI6322938,____________U,,,42.655242,Zip Code Centroid,0,,,,MI6322938,,10000,Oakland,-83.537627
,,,Y,MI,,$0,1,Transient non-community system,,,,ANDERSON GIRLS & ORCHARD,48888,05,,Y,0,1,,STANTON,,,MI5920609,____VVVVVVVVU,,,43.296592,Zip Code Centroid,1,,4,,110052182847,,10000,MONTCALM,-85.074312
,,,Y,MI,,$0,1,Transient non-community system,,,,ANDERSON WOODS,49546,05,,N,0,0,,GRAND RAPIDS,,,MI4120950,____________U,,,42.926886,Zip Code Centroid,0,,,,110049296999,,10000,KENT,-85.541428
,,,Y,MI,,$0,1,Transient non-community system,,,,ANDERSONVILLE COMM CHURCH,48350,05,,N,0,0,,DAVISBURG,,,MI6320793,____________U,,,42.749226,Zip Code Centroid,0,,,,110052215848,,10000,OAKLAND,-83.527394
,,,Y,MI,,$0,1,Non-Transient non-community system,,,,ANDERSONVILLE ELEM/CCS,48346,05,,N,0,1,,CLARKSTON,,,MI6320792,VVVVVV______U,,,42.722994,Zip Code Centroid,0,,87,,110052215820,,10000,OAKLAND,-83.417406
,,,Y,MI,,$0,1,Community water system,,,,ANDREWS ESTATES,,05,,N,0,0,,,,,MI0040246,____________U,,,42.246266,County Centroid,0,,,,110012975094,,30000,KALAMAZOO,-85.532854
,,,Y,MI,,$0,1,Community water system,,,,ANDREWS MOBILE HOME PARK,,05,,N,0,0,,,,,MI0040003,____________U,,,42.595788,County Centroid,0,,,,110013099538,,30000,ALLEGAN,-86.634745
26021,,,Y,MI,04050001,$0,1,Community water system,,26021,,ANDREWS UNIVERSITY,49104,05,,N,0,1,ENTRANCE POINT OF A FACILITY OR STATION,BERRIEN SPRINGS,,,MI0000210,VVVVVVV_____U,43.389,040500012604,41.96627,ADDRESS MATCHING-HOUSE NUMBER,0,BERRIEN COUNTY,3,49103,110013910731,DAIRY ROAD,50,BERRIEN,-86.35914
,,,Y,MI,,$0,1,Transient non-community system,,,,ANDY'S PIZZERIA,48653,05,,N,0,1,,ROSCOMMON,,,MI7220069,__VVVV______U,,,44.529886,Zip Code Centroid,0,,3,,110049438934,,10000,ROSCOMMON,-84.53012
,3,,Y,MI,,$0,1,Transient non-community system,,,,ANG-GIO'S RESTAURANT,49719,05,,N,3,1,,CEDARVILLE,,,MI4920277,V__VV_______U,,,45.988543,Zip Code Centroid,0,,8,,110052086522,,10000,MACKINAC,-84.36682
,,,Y,MI,,$0,1,Transient non-community system,,,,ANGEL COVE PARK,49036,05,,N,0,0,,COLDWATER,,,MI1220029,____________U,,,41.96712,Zip Code Centroid,0,,,,110052693206,,10000,BRANCH,-85.027728
,,,Y,MI,,$0,1,Transient non-community system,,,,ANGELICS ATTIC,48763,05,,N,0,0,,TAWAS CITY,,,MI3520231,____________U,,,44.293915,Zip Code Centroid,0,,,,110052059419,,10000,IOSCO,-83.5793
,,,Y,MI,,$0,1,Transient non-community system,,,,ANGELOS PARTY STORE,48843,05,,N,0,0,,HOWELL,,,MI4720589,____________U,,,42.565791,Zip Code Centroid,0,,,,110049237848,,10000,LIVINGSTON,-83.944662
,,,Y,MI,,$0,1,Community water system,,,,ANN ARBOR,,05,,N,0,1,,ANN ARBOR,,,MI0000220,___V________U,,,42.275641,Place Name Centroid,0,,2,,110017724382,,20000,WASHTENAW,-83.731333
,,,Y,MI,,$0,1,Transient non-community system,,,,ANN ARBOR BAPTIST CHURCH,48103,05,,N,0,1,,ANN ARBOR,,,MI8120422,_VV_VVVVVVV_U,,,42.27524,Zip Code Centroid,0,,6,,110052391782,,10000,WASHTENAW,-83.799274
,,,Y,MI,,$0,1,Non-Transient non-community system,,,,ANN ARBOR CHRISTIAN SCHOOL,48108,05,,N,0,0,,ANN ARBOR,,,MI8120531,____________U,,,42.225886,Zip Code Centroid,0,,,,110052286824,,10000,WASHTENAW,-83.747133
,,,Y,MI,,$0,1,Transient non-community system,,,,ANN ARBOR EAGLES,48103,05,,N,0,1,,ANN ARBOR,,,MI8120537,_VV_____VV__U,,,42.27524,Zip Code Centroid,0,,5,,110052286931,,10000,WASHTENAW,-83.799274
,,,Y,MI,,$0,1,Transient non-community system,,,,ANN ARBOR MOOSE LODGE,48130,05,,N,0,0,,DEXTER,,,MI8120568,____________U,,,42.316243,Zip Code Centroid,0,,,,110052372357,,10000,WASHTENAW,-83.899265
26161,,,Y,MI,04090005,$0,1,Community water system,,26161,,ANN ARBOR TOWNSHIP,48105,05,,N,0,1,CENTER OF A FACILITY OR STATION,ANN ARBOR,,,MI0000221,___VVV______U,38.009,040900050402,42.32885,ADDRESS MATCHING-HOUSE NUMBER,0,WASHTENAW COUNTY,2,48105,110013129952,3792 PONTIAC TRAIL,30,WASHTENAW,-83.73305
,,,Y,MI,,$0,1,Transient non-community system,,,,ANNIE MACPHEE'S,48462,05,,N,0,0,,ORTONVILLE,,,MI6320719,____________U,,,42.888844,Zip Code Centroid,0,,,,110052064225,,10000,OAKLAND,-83.371704
,,,Y,MI,,$0,1,Transient non-community system,,,,ANNIE'S KOZY KITCHEN,49689,05,,N,0,0,,WELLSTON,,,MI5120131,____________U,,,44.188245,Zip Code Centroid,0,,2,,110049410482,,10000,MANISTEE,-85.776498
,,,Y,MI,,$0,1,Transient non-community system,,,,ANNIE'S PARTY SHOPPE,48382,05,,N,0,0,,COMMERCE TOWNSHIP,,,MI6320377,____________U,,,42.585576,Zip Code Centroid,0,,,,110052143426,,10000,OAKLAND,-83.499044
,,,Y,MI,,$0,1,Transient non-community system,,,,ANTIQUES MARKET OF WILLIAMSTON,48895,05,,Y,0,1,,WILLIAMSTON,,,MI3320162,V_______VVVVU,,,42.690479,Zip Code Centroid,1,,4,,110049269055,,10000,INGHAM,-84.269431
,,,Y,MI,,$0,1,Transient non-community system,,,,ANTLER'S FIRESIDE GRILL,49346,05,,N,0,0,,STANWOOD,,,MI5420226,____________U,,,43.586881,Zip Code Centroid,0,,2,,110049383939,,10000,MECOSTA,-85.305252
,,,Y,MI,,$0,1,Transient non-community system,,,,ANTRIM BAPTIST CHURCH,48418,05,,N,0,0,,BYRON,,,MI7820003,____________U,,,42.832073,Zip Code Centroid,0,,4,,110052169354,,10000,SHIAWASSEE,-83.944784
,,,Y,MI,,$0,1,Transient non-community system,,,,ANTRIM COUNTY BARNES PARK,49627,05,,N,0,1,,EASTPORT,,,MI0520021,VVVVVVVV____U,,,45.107988,Zip Code Centroid,0,,,,110049176618,,10000,ANTRIM,-85.351765
,,,Y,MI,,$0,1,Transient non-community system,,,,ANTRIM COUNTY BARNES PARK NEW BATH HOUSE,49627,05,,N,0,1,,EASTPORT,,,MI0520124,VVVVVVVVVVV_U,,,45.107988,Zip Code Centroid,0,,,,110049315932,,10000,ANTRIM,-85.351765
,,,Y,MI,,$0,1,Transient non-community system,,,,ANTRIM COUNTY BARNES PARK OFFICE,49627,05,,N,0,0,,EASTPORT,,,MI0520144,____________U,,,45.107988,Zip Code Centroid,0,,,,110049186796,,10000,ANTRIM,-85.351765
,,,Y,MI,,$0,1,Transient non-community system,,,,ANTRIM COUNTY BARNES PARK PICNIC AREA,49627,05,,N,0,1,,EASTPORT,,,MI0520145,VVVVVVVV____U,,,45.107988,Zip Code Centroid,0,,,,110049186812,,10000,ANTRIM,-85.351765
,,,Y,MI,,$0,1,Transient non-community system,,,,ANTRIM DELLS GOLF CLUB,49729,05,,N,0,1,,ELLSWORTH,,,MI0520008,___VVVVV____U,,,45.159824,Zip Code Centroid,0,,,,110052716726,,10000,ANTRIM,-85.347689
,,,Y,MI,,$0,1,Transient non-community system,,,,APEX ONE MOTEL,48906,05,,N,0,0,,LANSING,,,MI1920563,____________U,,,42.765514,Zip Code Centroid,0,,,,110052070762,,10000,CLINTON,-84.616266
,,,Y,MI,,$0,1,Non-Transient non-community system,,,,APOLLO CENTER/HVS,48357,05,,N,0,0,,HIGHLAND,,,MI6320165,____________U,,,42.653259,Zip Code Centroid,0,,,,110052087996,,10000,OAKLAND,-83.649471
,,,Y,MI,,$0,1,Non-Transient non-community system,,,,APOSTOLIC LIGHTHOUSE,49047,05,,N,0,0,,DOWAGIAC,,,MI1420178,____________U,,,42.0147,Zip Code Centroid,0,,,,110052727279,,10000,CASS,-86.06904
,,,Y,MI,,$0,1,Transient non-community system,,,,APOSTOLIC LUTHERAN CHURCH,48167,05,,N,0,0,,NORTHVILLE,,,MI8120488,____________U,,,42.427821,Zip Code Centroid,0,,,,110052382596,,10000,WASHTENAW,-83.607512
,,,Y,MI,,$0,1,Transient non-community system,,,,APOSTOLIC TABERNACLE,49022,05,,N,0,0,,BENTON HARBOR,,,MI1120363,____________U,,,42.129129,Zip Code Centroid,0,,,,110049407487,,10000,BERRIEN,-86.402862
26121,,,Y,MI,04060102,$0,1,Community water system,,26121,,APPLE CARR VILLAGE,49442,05,,N,0,1,ENTRANCE POINT OF A FACILITY OR STATION,MUSKEGON,,,MI0040355,______VV____U,12.386,040601021004,43.243903,ADDRESS MATCHING-HOUSE NUMBER,0,MUSKEGON COUNTY,4,49442,110013092615,516 SOUTH COURTLAND LANE,50,MUSKEGON,-86.125809
,,,Y,MI,,$0,1,Transient non-community system,,,,APPLE CORE CAFE,49017,05,,N,0,0,,BATTLE CREEK,,,MI1320391,____________U,,,42.445095,Zip Code Centroid,0,,,,110049337623,,10000,CALHOUN,-85.275866
,,,Y,MI,,$0,1,Transient non-community system,,,,APPLE CREEK PARK,49240,05,,N,0,0,,GRASS LAKE,,,MI3820402,____________U,,,42.271353,Zip Code Centroid,0,,,,110049303972,,10000,JACKSON,-84.187073
,,,Y,MI,,$0,1,Community water system,,,,APPLE GROVE ESTATES,,05,,N,0,1,,,,,MI0040664,_VV_________U,,,43.032497,County Centroid,0,,5,,110013087346,,30000,KENT,-85.547446
,,,Y,MI,,$0,1,Transient non-community system,,,,APPLE ORCHARD INN,48094,05,,N,0,1,,WASHINGTON,,,MI5020061,______V_____U,,,42.734461,Zip Code Centroid,0,,4,,110049270132,,10000,MACOMB,-83.028731
,,,Y,MI,,$0,1,Non-Transient non-community system,,,,APPLEBEE'S,48817,05,,N,0,0,,CORUNNA,,,MI7820360,____________U,,,42.982792,Zip Code Centroid,0,,,,110049374039,,10000,SHIAWASSEE,-84.119269
,,,Y,MI,,$0,1,Transient non-community system,,,,APPLEGATE INN-JOE'S PLACE,48401,05,,N,0,1,,APPLEGATE,,,MI7620119,____VVVVVV__U,,,43.363056,Zip Code Centroid,0,,7,,110052213261,,10000,SANILAC,-82.622722
,,,Y,MI,,$0,1,Transient non-community system,,,,APPLEGATE WESLEYAN,48401,05,,N,0,1,,APPLEGATE,,,MI7620094,________VV__U,,,43.363056,Zip Code Centroid,0,,2,,110052169121,,10000,SANILAC,-82.622722
,,,Y,MI,,$0,1,Transient non-community system,,,,APPLEMILL BP,49442,05,,N,0,0,,MUSKEGON,,,MI6120406,____________U,,,43.238693,Zip Code Centroid,0,,2,,110049192333,,10000,MUSKEGON,-86.206655
,,,Y,MI,,$0,1,Community water system,,,,APPLEWOOD,,05,,N,0,0,,,,,MI0040668,____________U,,,42.283986,County Centroid,0,,,,110013087462,,30000,VAN BUREN,-86.305697
,,,Y,MI,,$0,1,Transient non-community system,,,,"APPLEWOOD ORCHARDS, INC (NEW CAMP)",49267,05,,N,0,0,,OTTAWA LAKE,,,MI5820443,____________U,,,41.743769,Zip Code Centroid,0,,,,110063332086,,10000,MONROE,-83.783215
,2,,Y,MI,,$0,1,Transient non-community system,,,,"APPOLONI RISTORANTE & PIZZARIA, INC",49093,05,,Y,2,1,,,,,MI1420189,VVVV__VVVSSSU,,,41.932417,Zip Code Centroid,1,,14,,110049266254,,10000,CASS,-85.659734
,,,Y,MI,,$0,1,Transient non-community system,,,,APRILS COUNTRY GORMET,49079,05,,N,0,1,,,,,MI8020132,VVVVVVVVVVVVU,,,42.257225,Zip Code Centroid,0,,20,,110052112441,,10000,VAN BUREN,-85.888407
,,,Y,MI,,$0,1,Non-Transient non-community system,,,,AQUA GLOBAL LLC,49721,05,,N,0,0,,CHEBOYGAN,,,MI1620474,____________U,,,45.589655,Zip Code Centroid,0,,2,,110063329376,,10000,CHEBOYGAN,-84.481787
,,,Y,MI,,$0,1,Transient non-community system,,,,AQUA LOG CABINS - BLACK BEAR INC.,49931,05,,N,0,1,,,,,MI4220041,_________VV_U,,,47.105643,Zip Code Centroid,0,,9,,110064358751,,10000,KEWEENAW,-88.592185
,,,Y,MI,,$0,1,Transient non-community system,,,,ARBOR INN,49068,05,,N,0,0,,MARSHALL,,,MI1320382,____________U,,,42.297422,Zip Code Centroid,0,,,,110049337428,,10000,CALHOUN,-84.944033
,,,Y,MI,,$0,1,Community water system,,,,ARBOR RIDGE CONDOMINIUMS,,05,,Y,0,1,,,,,MI0000236,VVVVVVVVVVVVU,,,42.248474,County Centroid,1,,14,,110049069958,,30000,JACKSON,-84.420868
,,,Y,MI,,$0,1,Non-Transient non-community system,,,,ARBOR SPRINGS WATER CO.,48105,05,,N,0,0,,,,,MI8120304,____________U,,,42.319989,Zip Code Centroid,0,,,,110052398516,,10000,WASHTENAW,-83.726994
,1,,Y,MI,,$0,1,Community water system,,,,ARBOR VIEW CONDO OWNERS ASSOCIATION,,05,,N,1,1,,,,,MI0004778,V__VVVV_____U,,,41.918585,County Centroid,0,,10,,110063344304,,30000,BRANCH,-85.066523
,,,Y,MI,,$0,1,Community water system,,,,ARBOR VILLAGE,,05,,Y,0,1,,,,,MI0040223,______VVVVVVU,,,42.248474,County Centroid,1,,2,,110013097193,,30000,JACKSON,-84.420868
,,,Y,MI,,$0,1,Non-Transient non-community system,,,,ARBRE FARMS CORPORATION,49459,05,,Y,0,1,,WALKERVILLE,,,MI6420203,VVVVVVVVVVVVU,,,43.71408,Zip Code Centroid,1,,28,,110052133320,,10000,OCEANA,-86.118377
,,,Y,MI,,$0,1,Transient non-community system,,,,ARBRE FARMS CORPORATION,49459,05,,N,0,1,,WALKERVILLE,,,MI6420081,VVVSSSVSSVVVU,,,43.71408,Zip Code Centroid,0,,6,,110049377081,,10000,OCEANA,-86.118377
,,,Y,MI,,$0,1,Transient non-community system,,,,ARBY'S,48629,05,,N,0,1,,HOUGHTON LAKE,,,MI7220338,_____VVVVVVVU,,,44.288946,Zip Code Centroid,0,,12,,110052093168,,10000,ROSCOMMON,-84.758547
,,,Y,MI,,$0,1,Transient non-community system,,,,ARBY'S,49224,05,,N,0,0,,ALBION,,,MI1320308,____________U,,,42.237964,Zip Code Centroid,0,,,,110051929017,,10000,CALHOUN,-84.775219
,,,Y,MI,,$0,1,Transient non-community system,,,,ARBY'S,48879,05,,N,0,0,,SAINT JOHNS,,,MI1920251,____________U,,,43.131808,Zip Code Centroid,0,,,,110049460668,,10000,CLINTON,-84.592645
,,,Y,MI,,$0,1,Transient non-community system,,,,ARBY'S #5961,48820,05,,N,0,1,,DEWITT,,,MI1920220,____VV______U,,,42.856679,Zip Code Centroid,0,,1,,110049392457,,10000,CLINTON,-84.587325
,,,Y,MI,,$0,1,Transient non-community system,,,,ARBY'S - WHITMORE LAKE,48189,05,,N,0,0,,WHITMORE LAKE,,,MI4720493,____________U,,,42.45217,Zip Code Centroid,0,,,,110049485963,,10000,LIVINGSTON,-83.799432
,,,Y,MI,,$0,1,Transient non-community system,,,,ARBY'S OF HARTLAND - STORE #5856,48353,05,,N,0,0,,HARTLAND,,,MI4720448,____________U,,,42.648563,Zip Code Centroid,0,,10,,110049270427,,10000,LIVINGSTON,-83.717655
,,,Y,MI,,$0,1,Transient non-community system,,,,ARBY'S RESTAURANT,48867,05,,N,0,1,,OWOSSO,,,MI7820223,____VVVVV_VVU,,,42.987308,Zip Code Centroid,0,,4,,110052111228,,10000,SHIAWASSEE,-84.158545
,,,Y,MI,,$0,1,Transient non-community system,,,,ARBY'S RESTAURANT,48846,05,,N,0,0,,IONIA,,,MI3420250,____________U,,,42.984206,Zip Code Centroid,0,,,,110052702786,,10000,IONIA,-85.087094
,,,Y,MI,,$0,1,Transient non-community system,,,,ARBY'S RESTAURANT - BRIGHTON,48116,05,,N,0,0,,BRIGHTON,,,MI4720325,____________U,,,42.500105,Zip Code Centroid,0,,,,110049423502,,10000,LIVINGSTON,-83.790412
,,,Y,MI,,$0,1,Transient non-community system,,,,ARBY'S ROAST BEEF #6439,48801,05,,N,0,1,,,,,MI2920140,______VV____U,,,43.382217,Zip Code Centroid,0,,1,,110049432805,,10000,GRATIOT,-84.656985
,,,Y,MI,,$0,1,Transient non-community system,,,,ARCADIA BLUFFS,49613,05,,N,0,1,,ARCADIA,,,MI5120206,____VV_VV___U,,,44.557725,Zip Code Centroid,0,,1,,110052164199,,10000,MANISTEE,-86.208346
,,,Y,MI,,$0,1,Transient non-community system,,,,ARCADIA HILLS GOLF COURSE,48412,05,,N,0,0,,ATTICA,,,MI4420051,____________U,,,43.067482,Zip Code Centroid,0,,,,110049173167,,10000,LAPEER,-83.168747
,,,Y,MI,,$0,1,Transient non-community system,,,,ARCADIA TOWNSHIP HALL,48452,05,,N,0,0,,,,,MI4420052,____________U,,,43.088633,County Centroid,0,,,,110049173185,,30000,LAPEER,-83.224325
,,,Y,MI,,$0,1,Transient non-community system,,,,ARCADIA TWP VETERANS MEM MARINA,49613,05,,N,0,1,,ARCADIA,,,MI5120187,SV____VVVV__U,,,44.557725,Zip Code Centroid,0,,5,,110052194406,,10000,MANISTEE,-86.208346
,,,Y,MI,,$0,1,Transient non-community system,,,,ARCHEY'S INC.,49264,05,,Y,0,1,,ONONDAGA,,,MI3320094,____VVVVVVVVU,,,42.451854,Zip Code Centroid,1,,6,,110049348130,,10000,INGHAM,-84.545841
,,,Y,MI,,$0,1,Transient non-community system,,,,ARCHIE PARK PENINSULA TOWNSHIP,49686,05,,N,0,1,,TRAVERSE CITY,,,MI2820431,VVVVVVVVVV__U,,,44.843496,Zip Code Centroid,0,,8,,110049225129,,10000,GRAND TRAVERSE,-85.53025
,,,Y,MI,,$0,1,Transient non-community system,,,,ARCTIC GLACIER,49738,05,,N,0,0,,,,,MI2020177,____________U,,,44.650184,Zip Code Centroid,0,,,,110052071173,,10000,CRAWFORD,-84.585927
,,,Y,MI,,$0,1,Transient non-community system,,,,ARENA'S PIZZA,49442,05,,N,0,1,,MUSKEGON,,,MI6120210,VVVVV_______U,,,43.238693,Zip Code Centroid,0,,10,,110052066740,,10000,MUSKEGON,-86.206655
26049,,,Y,MI,04080203,$0,1,Community water system,,26049,,ARGENTINE CARE CENTER,48451,05,,N,0,0,CENTER OF A FACILITY OR STATION,LINDEN,,,MI0066355,V___________U,3.606,040802030109,42.79159,ADDRESS MATCHING-HOUSE NUMBER,0,GENESEE COUNTY,3,48451,110013085393,9051 SILVER LAKE RD,30,GENESEE,-83.84652
,,,Y,MI,,$0,1,Transient non-community system,,,,ARGENTINE CHURCH OF NAZARENE,48451,05,,N,0,0,,LINDEN,,,MI2520566,____________U,,,42.825944,Zip Code Centroid,0,,,,110049305257,,10000,GENESEE,-83.773078
,,,Y,MI,,$0,1,Non-Transient non-community system,,,,ARGENTINE ELE SCHOOL,48451,05,,N,0,0,,LINDEN,,,MI2520711,____________U,,,42.825944,Zip Code Centroid,0,,,,110049473468,,10000,GENESEE,-83.773078
,,,Y,MI,,$0,1,Transient non-community system,,,,ARGENTINE QUICK-STOP,48451,05,,Y,0,1,,LINDEN,,,MI2520778,VVVVVV__VVVVU,,,42.825944,Zip Code Centroid,1,,9,,110049311614,,10000,GENESEE,-83.773078
,,,Y,MI,,$0,1,Transient non-community system,,,,ARGYLE PARTY STORE,48410,05,,N,0,1,,SNOVER,,,MI7620229,__________VVU,,,43.563756,Zip Code Centroid,0,,3,,110052224286,,10000,SANILAC,-82.935853
,,,Y,MI,,$0,1,Transient non-community system,,,,ARISE UNITED METHODIST CHURCH,48169,05,,N,0,0,,PINCKNEY,,,MI4720640,____________U,,,42.422773,Zip Code Centroid,0,,,,110049294189,,10000,LIVINGSTON,-83.904607
,,,Y,MI,,$0,1,Transient non-community system,,,,ARLENE'S TRUCK STOP,49015,05,,N,0,1,,BATTLE CREEK,,,MI1320088,________VVV_U,,,42.268262,Zip Code Centroid,0,,2,,110052487876,,10000,CALHOUN,-85.231487
26121,,,Y,MI,04060101,$0,1,Community water system,,26121,,ARLINGTON ESTATES,49442,05,,N,0,0,CENTER OF A FACILITY OR STATION,MUSKEGON,,,MI0040356,____________U,19.074,040601011011,43.21246,ADDRESS MATCHING-HOUSE NUMBER,0,MUSKEGON COUNTY,2,49442,110013092633,3785 EVANSTON AVENUE,30,MUSKEGON,-86.15024
,,,Y,MI,,$0,1,Community water system,,,,ARMADA,,05,,N,0,0,,ARMADA,,,MI0000240,____________U,,,42.842083,Place Name Centroid,0,,,,110013130021,,20000,MACOMB,-82.881108
,,,Y,MI,,$0,1,Transient non-community system,,,,ARMADA AMVETS POST 93,48005,05,,N,0,0,,ARMADA,,,MI5020143,____________U,,,42.849819,Zip Code Centroid,0,,,,110049170874,,10000,MACOMB,-82.92086
,,,Y,MI,,$0,1,Transient non-community system,,,,ARMADA FLEA MARKET INC,48005,05,,N,0,0,,ARMADA,,,MI5020274,____________U,,,42.849819,Zip Code Centroid,0,,,,110052060979,,10000,MACOMB,-82.92086
,,,Y,MI,,$0,1,Transient non-community system,,,,ARMADA FUEL STOP,48005,05,,N,0,1,,ARMADA,,,MI5020362,VVVVV_______U,,,42.849819,Zip Code Centroid,0,,2,,110049524822,,10000,MACOMB,-82.92086
,,,Y,MI,,$0,1,Non-Transient non-community system,,,,ARMADA HIGH SCHOOL,48005,05,,N,0,1,,ARMADA,,,MI5020082,VVVVV_______U,,,42.849819,Zip Code Centroid,0,,30,,110049336027,,10000,MACOMB,-82.92086
,,,Y,MI,,$0,1,Non-Transient non-community system,,,,ARMADA RUBBER MFG CO,48005,05,,N,0,0,,ARMADA,,,MI5020088,____________U,,,42.849819,Zip Code Centroid,0,,,,110049336152,,10000,MACOMB,-82.92086
,,,Y,MI,,$0,1,Transient non-community system,,,,ARMADA SENIOR CITIZEN CENTER,48005,05,,N,0,0,,ARMADA,,,MI5020312,____________U,,,42.849819,Zip Code Centroid,0,,,,110049472557,,10000,MACOMB,-82.92086
,,,Y,MI,,$0,1,Transient non-community system,,,,ARMADA TOWNSHIP PARK,48005,05,,N,0,0,,ARMADA,,,MI5020303,____________U,,,42.849819,Zip Code Centroid,0,,,,110049472398,,10000,MACOMB,-82.92086
,,,Y,MI,,$0,1,Non-Transient non-community system,,,,ARMSTRONG MIDDLE SCHOOL,48506,05,,Y,0,1,,FLINT,,,MI2520241,________VVVVU,,,43.062637,Zip Code Centroid,1,,2,,110049201500,,10000,GENESEE,-83.6177
,1,,Y,MI,,$0,1,Transient non-community system,,,,AROUND THE CORNER CAFE,49130,05,,Y,1,1,,,,,MI1420039,VVVVV____VVVU,,,41.786012,Zip Code Centroid,1,,6,,110049290600,,10000,CASS,-85.849716
,1,,Y,MI,,$0,1,Transient non-community system,,,,ARROWHEAD GOLF & COUNTRY CLUB,48723,05,,Y,1,1,,CARO,,,MI7920443,________VVVVU,,,43.488053,Zip Code Centroid,1,,6,,110049401651,,10000,TUSCOLA,-83.369477
,,,Y,MI,,$0,1,Transient non-community system,,,,ARROWHEAD GOLF COURSE,49331,05,,N,0,0,,LOWELL,,,MI4120023,____________U,,,42.967056,Zip Code Centroid,0,,,,110049432280,,10000,KENT,-85.374024
,,,Y,MI,,$0,1,Transient non-community system,,,,ART'S TAVERN,49636,05,,N,0,0,,GLEN ARBOR,,,MI4520044,____________U,,,44.902819,Zip Code Centroid,0,,,,110049450866,,10000,LEELANAU,-85.976585
,,,Y,MI,,$0,1,Transient non-community system,,,,ARTESIA BEACH BATH HOUSE,48656,05,,N,0,1,,SAINT HELEN,,,MI7220262,VVVVVSV_____U,,,44.356174,Zip Code Centroid,0,,6,,110052131554,,10000,ROSCOMMON,-84.427916
,,,Y,MI,,$0,1,Transient non-community system,,,,ARTESIA BEACH CAMPGROUND,48656,05,,N,0,1,,SAINT HELEN,,,MI7220355,VVVVVSV_____U,,,44.356174,Zip Code Centroid,0,,6,,110052095255,,10000,ROSCOMMON,-84.427916
,,,Y,MI,,$0,1,Transient non-community system,,,,ARTESIAN WELLS SPORTS BAR,49233,05,,N,0,0,,CEMENT CITY,,,MI4620142,V___________U,,,42.055874,Zip Code Centroid,0,,4,,110052727723,,10000,LENAWEE,-84.315897
,,,Y,MI,,$0,1,Transient non-community system,,,,ARTHUR DODD PARK = D-2,49120,05,,N,0,1,,NILES,,,MI1420318,____VV___VV_U,,,41.83129,Zip Code Centroid,0,,2,,110049521861,,10000,CASS,-86.165982
,,,Y,MI,,$0,1,Transient non-community system,,,,ASCS BUILDING,48867,05,,N,0,0,,OWOSSO,,,MI7820294,____________U,,,42.987308,Zip Code Centroid,0,,,,110052221476,,10000,SHIAWASSEE,-84.158545
,,,Y,MI,,$0,1,Transient non-community system,,,,ASGA-ELY LAKE CAMPGROUND,49010,05,,Y,0,1,,ALLEGAN,,,MI0320460,________VVVVU,,,42.492887,Zip Code Centroid,1,,3,,110052723344,,10000,ALLEGAN,-85.850787
26115,,,Y,MI,04100001,$0,1,Community water system,,26115,,ASH TOWNSHIP,48117,05,,N,0,0,CENTER OF A FACILITY OR STATION,CARLETON,,,MI0000245,____________U,5.347,041000010104,42.05063,ADDRESS MATCHING-HOUSE NUMBER,0,MONROE COUNTY,,48117,110013130049,1677 READY ROAD,30,MONROE,-83.35241
,,,Y,MI,,$0,1,Transient non-community system,,,,ASHLEY BAPTIST CHURCH,48809,05,,N,0,1,,BELDING,,,MI3420258,SS__________U,,,43.059466,Zip Code Centroid,0,,3,,110052721202,,10000,IONIA,-85.251986
,,,Y,MI,,$0,1,Community water system,,26057,,"ASHLEY, VILLAGE OF",48806,05,,N,0,1,,ASHLEY,,,MI0000250,VVVVVVV_____U,,,43.172511,Zip Code Centroid,0,GRATIOT COUNTY,3,,110013130067,UNKNOWN,10000,GRATIOT,-84.543274
,,,Y,MI,,$0,1,Non-Transient non-community system,,,,ASPEN TECHNOLOGIES INC.,48116,05,,N,0,0,,BRIGHTON,,,MI4720658,____________U,,,42.500105,Zip Code Centroid,0,,,,110049270597,,10000,LIVINGSTON,-83.790412
,,,Y,MI,,$0,1,Transient non-community system,,,,ASSEMBLY OF GOD,48617,05,,N,0,0,,,,,MI1820117,____________U,,,43.871316,Zip Code Centroid,0,,,,110049354952,,10000,CLARE,-84.727846
,,,Y,MI,,$0,1,Transient non-community system,,,,ASSEMBLY OF GOD CHURCH - BALDWIN,49304,05,,N,0,1,,BALDWIN,,,MI4320106,VVVVV_______U,,,43.931797,Zip Code Centroid,0,,2,,110049354211,,10000,LAKE,-85.82237
,,,Y,MI,,$0,1,Transient non-community system,,,,ASSEMBLY OF YAHWEH,48827,05,,N,0,0,,EATON RAPIDS,,,MI2320223,____________U,,,42.494795,Zip Code Centroid,0,,,,110049434493,,10000,EATON,-84.575948
,,,Y,MI,,$0,1,Transient non-community system,,,,AT & T - HOWELL GARAGE,48843,05,,N,0,0,,HOWELL,,,MI4720509,____________U,,,42.565791,Zip Code Centroid,0,,,,110049352927,,10000,LIVINGSTON,-83.944662
,,,Y,MI,,$0,1,Non-Transient non-community system,,,,AT&T,49201,05,,N,0,0,,JACKSON,,,MI3820152,____________U,,,42.253548,Zip Code Centroid,0,,,,110049230621,,10000,JACKSON,-84.502495
,,,Y,MI,,$0,1,Transient non-community system,,,,ATBALSIS,49093,05,,N,0,1,,THREE RIVERS,,,MI7520191,VVVVVVV_____U,,,41.932417,Zip Code Centroid,0,,2,,110052084196,,10000,ST. JOSEPH,-85.659734
,,,Y,MI,,$0,1,Community water system,,26025,,ATHENS,49011,05,,N,0,0,,ATHENS,,,MI0000260,____________U,,,42.119592,Zip Code Centroid,0,CALHOUN COUNTY,,,110012984878,UNKNOWN,10000,CALHOUN,-85.231168
,,,Y,MI,,$0,1,Non-Transient non-community system,,,,ATHERTON COMMUNITY SCHOOLS,48519,05,,N,0,0,,BURTON,,,MI2520523,____________U,,,42.985861,Zip Code Centroid,0,,,,110052706434,,10000,GENESEE,-83.609751
,1,,Y,MI,,$0,1,Non-Transient non-community system,,,,ATHERTON ELEMENTARY SCHOOL,48519,05,,Y,1,1,,BURTON,,,MI2520524,________VVVVU,,,42.985861,Zip Code Centroid,1,,,,110052706470,,10000,GENESEE,-83.609751
,,,Y,MI,,$0,1,Non-Transient non-community system,,,,ATLANTA JR-SR HIGH SCH,49709,05,,N,0,1,,ATLANTA,,,MI6020092,____VVVVV___U,,,44.993844,Zip Code Centroid,0,,2,,110052074385,,10000,MONTMORENCY,-84.153156
,,,Y,MI,,$0,1,Transient non-community system,,,,ATLANTA SENIOR CITIZENS,49709,05,,N,0,1,,ATLANTA,,,MI6020107,_____VV_____U,,,44.993844,Zip Code Centroid,0,,2,,110049443189,,10000,MONTMORENCY,-84.153156
,,,Y,MI,,$0,1,Transient non-community system,,,,ATLANTA THNDR BAY EAGLES #4077,49709,05,,Y,0,1,,ATLANTA,,,MI6020101,______VVVVVVU,,,44.993844,Zip Code Centroid,1,,2,,110052074456,,10000,MONTMORENCY,-84.153156
,,,Y,MI,,$0,1,Non-Transient non-community system,,,,ATLAS VALLEY GOLF CLUB,48439,05,,Y,0,1,,GRAND BLANC,,,MI2520568,V__________VU,,,42.868926,Zip Code Centroid,1,,4,,110049305275,,10000,GENESEE,-83.574274
,,,Y,MI,,$0,1,Transient non-community system,,,,ATTICA PINES CAMPGROUND LLC,48412,05,,N,0,1,,ATTICA,,,MI4421627,_________VV_U,,,43.067482,Zip Code Centroid,0,,3,,110052069710,,10000,LAPEER,-83.168747
,,,Y,MI,,$0,1,Transient non-community system,,,,ATTICA TOWNSHIP HALL,48412,05,,N,0,1,,ATTICA,,,MI4420084,_______VV___U,,,43.067482,Zip Code Centroid,0,,7,,110049173452,,10000,LAPEER,-83.168747
,,,Y,MI,,$0,1,Transient non-community system,,,,ATTICA TWP. FIREHALL & LIBRARY,48412,05,,Y,0,1,,ATTICA,,,MI4421610,________VVVVU,,,43.067482,Zip Code Centroid,1,,2,,110052069676,,10000,LAPEER,-83.168747
,,,Y,MI,,$0,1,Transient non-community system,,,,ATTICA UNITED METHODIST CHURCH,48412,05,,N,0,1,,ATTICA,,,MI4420082,________VV__U,,,43.067482,Zip Code Centroid,0,,2,,110049173416,,10000,LAPEER,-83.168747
,,,Y,MI,,$0,1,Non-Transient non-community system,,,,ATW AUTOMATION,48393,05,,N,0,0,,,,,MI6322284,____________U,,,42.535036,Zip Code Centroid,0,,,,110052191436,,10000,OAKLAND,-83.543376
,,,Y,MI,,$0,1,Community water system,,26011,,AU GRES TOWNSHIP,48703,05,,N,0,0,,AU GRES,,,MI0000285,____________U,,,44.049126,Zip Code Centroid,0,ARENAC COUNTY,,,110013130110,UNKNOWN,10000,ARENAC,-83.696078
26011,,,Y,MI,04080101,$0,1,Community water system,,26011,,"AU GRES, CITY OF",48703,05,,N,0,0,ENTRANCE POINT OF A FACILITY OR STATION,AU GRES,,,MI0000280,____________U,4.312,040801010503,44.082312,ADDRESS MATCHING-HOUSE NUMBER,0,ARENAC COUNTY,,48703,110013130085,"124 W. HURON RD.,",50,ARENAC,-83.591776
26069,,,Y,MI,04070007,$0,1,Community water system,,26069,,AU SABLE TOWNSHIP,48750,05,,N,0,1,ENTRANCE POINT OF A FACILITY OR STATION,AUSABLE,,,MI0000290,VVV_________U,7.408,040700070709,44.410697,ADDRESS MATCHING-HOUSE NUMBER,0,IOSCO COUNTY,3,48750,110012984958,311 FIFTH STREET,50,IOSCO,-83.335794
,,,Y,MI,,$0,1,Community water system,,,,AUBURN,,05,,N,0,1,,AUBURN,,,MI0000300,________VV__U,,,43.602011,Place Name Centroid,0,,2,,110013130147,,20000,BAY,-84.075106
,,,Y,MI,,$0,1,Community water system,,,,AUBURN HILLS,,05,,N,0,0,,AUBURN HILLS,,,MI0005450,____________U,,,42.67472,Place Name Centroid,0,,,,110013108877,,20000,OAKLAND,-83.243606
,,,Y,MI,,$0,1,Community water system,,,,AUGUSTA,,05,,N,0,1,,AUGUSTA,,,MI0000320,VVV_________U,,,42.337672,Place Name Centroid,0,,2,,110013130165,,20000,KALAMAZOO,-85.352464
,,,Y,MI,,$0,1,Transient non-community system,,,,AUGUSTA CUSTER VFW 7956,49012,05,,N,0,1,,AUGUSTA,,,MI3920121,_____VV_____U,,,42.398469,Zip Code Centroid,0,,2,,110052729721,,10000,KALAMAZOO,-85.351011
26161,,,Y,MI,04100001,$0,1,Community water system,,26161,,AUGUSTA TOWNSHIP,48190,05,,N,0,0,CENTER OF A FACILITY OR STATION,WHITTAKER,,,MI0000321,____________U,13.327,041000010105,42.12817,ADDRESS MATCHING-HOUSE NUMBER,0,WASHTENAW COUNTY,,48191,110013130209,8021 TALLADAY ROAD,30,WASHTENAW,-83.5994
,,,Y,MI,,$0,1,Transient non-community system,,,,AUGUSTANA LUTH CHURCH,49688,05,,N,0,1,,TUSTIN,,,MI6720011,__________VVU,,,44.127215,Zip Code Centroid,0,,3,,110052108116,,10000,OSCEOLA,-85.444291
,,,Y,MI,,$0,1,Transient non-community system,,,,AUNT BETTYS RESTAURANT,,05,,N,0,0,,,,,MI2020021,____________U,,,44.841084,State Centroid,0,,,,110049215185,,100000,,-85.65932
,,,Y,MI,,$0,1,Transient non-community system,,,,AUNT MILLIES,48386,05,,N,0,0,,WHITE LAKE,,,MI6322586,____________U,,,42.644052,Zip Code Centroid,0,,,,110052224749,,10000,OAKLAND,-83.473469
,,,Y,MI,,$0,1,Transient non-community system,,,,AUSABLE INSTITUTE OF ENV.STUDY,49659,05,,N,0,1,,MANCELONA,,,MI4020054,____VVVVV___U,,,44.916847,Zip Code Centroid,0,,1,,110049221864,,10000,KALKASKA,-85.024615
,,,Y,MI,,$0,1,Transient non-community system,,,,AUSABLE VALLEY COM MENTAL HLTH,48647,05,,N,0,0,,MIO,,,MI6820171,____________U,,,44.675674,Zip Code Centroid,0,,,,110052080671,,10000,OSCODA,-84.153245
26135,,,Y,MI,04070007,$0,1,Community water system,,26135,,AUSABLE VALLEY COMMUNITY,48621,05,,N,0,0,ENTRANCE POINT OF A FACILITY OR STATION,FAIRVIEW,,,MI0000324,____________U,2.229,040700070503,44.719965,ADDRESS MATCHING-HOUSE NUMBER,0,OSCODA COUNTY,,48621,110012985010,1390 MAPLE DRIVE,50,OSCODA,-84.044408
,,,Y,MI,,$0,1,Transient non-community system,,,,AUSABLE VALLEY INN,48647,05,,N,0,0,,MIO,,,MI6820194,____________U,,,44.675674,Zip Code Centroid,0,,,,110049426705,,10000,OSCODA,-84.153245
,,,Y,MI,,$0,1,Transient non-community system,,,,AUSTIN ACADEMY,48096,05,,N,0,1,,RAY,,,MI5020087,VVVVVVVSVSSVU,,,42.761435,Zip Code Centroid,0,,5,,110049336134,,10000,MACOMB,-82.907288
,,,Y,MI,,$0,1,Community water system,,,,AUSTIN COMMONS II,,05,,N,0,0,,,,,MI0000322,____________U,,,42.252327,County Centroid,0,,,,110049070063,,30000,WASHTENAW,-83.844634
,,,Y,MI,,$0,1,Transient non-community system,,,,AUTO CITY EAGLES,48458,05,,Y,0,1,,MOUNT MORRIS,,,MI2520634,________VVVVU,,,43.110996,Zip Code Centroid,1,,,,110049190503,,10000,GENESEE,-83.714253
,,,Y,MI,,$0,1,Transient non-community system,,,,AUTO CITY SERVICES,48189,05,,N,0,0,,WHITMORE LAKE,,,MI8120093,____________U,,,42.45217,Zip Code Centroid,0,,,,110052228610,,10000,WASHTENAW,-83.799432
,,,Y,MI,,$0,1,Transient non-community system,,,,AUTO ZONE,48867,05,,N,0,0,,OWOSSO,,,MI7820315,____________U,,,42.987308,Zip Code Centroid,0,,,,110052107180,,10000,SHIAWASSEE,-84.158545
,,,Y,MI,,$0,1,Transient non-community system,,,,AUTO ZONE,48723,05,,N,0,0,,CARO,,,MI7921064,____________U,,,43.488053,Zip Code Centroid,0,,,,110049455674,,10000,TUSCOLA,-83.369477
,,,Y,MI,,$0,1,Non-Transient non-community system,,,,AUTOMATION & MODULAR COMPONENTS,48350,05,,N,0,1,,DAVISBURG,,,MI6320797,______VVVVV_U,,,42.749226,Zip Code Centroid,0,,2,,110052215900,,10000,OAKLAND,-83.527394
,,,Y,MI,,$0,1,Non-Transient non-community system,,,,"AUTOPORT, LIMITED",48813,05,,N,0,0,,CHARLOTTE,,,MI2320288,____________U,,,42.568198,Zip Code Centroid,0,,,,110052069122,,10000,EATON,-84.889577
,,,Y,MI,,$0,1,Transient non-community system,,,,AUTRAIN COMMUNITY CENTER,49806,05,,N,0,1,,AU TRAIN,,,MI0220122,V_________VVU,,,46.419879,Zip Code Centroid,0,,2,,110049212927,,10000,ALGER,-86.837205
,,,Y,MI,,$0,1,Non-Transient non-community system,,,,AUTRAIN-ONOTA PUBLIC SCHOOL,49822,05,,Y,0,1,,DEERTON,,,MI0220075,V__VVVVVVVVVU,,,46.494353,Zip Code Centroid,1,,7,,110052703954,,10000,ALGER,-87.093583
,,,Y,MI,,$0,1,Community water system,,,,AUTUMN HILLS,,05,,N,0,0,,,,,MI0001910,____________U,,,41.91624,County Centroid,0,,4,,110012982987,,30000,CASS,-85.999457
,,,Y,MI,,$0,1,Transient non-community system,,,,AUTUMN HILLS LANDFILL,49464,05,,N,0,1,,ZEELAND,,,MI7020516,_________V__U,,,42.7532,Zip Code Centroid,0,,10,,110052184417,,10000,OTTAWA,-85.890067
,,,Y,MI,,$0,1,Non-Transient non-community system,,,,AVILA DAYCARE CENTER,48118,05,,Y,0,1,,CHELSEA,,,MI8120405,________VVVVU,,,42.328626,Zip Code Centroid,1,,1,,110052391504,,10000,WASHTENAW,-84.054214
,,,Y,MI,,$0,1,Non-Transient non-community system,,,,AVOCA ELEMENTARY SCHOOL,48006,05,,Y,0,1,,AVOCA,,,MI7420066,VVVVVVVVVVVVU,,,43.033026,Zip Code Centroid,1,,42,,110052193372,,10000,ST. CLAIR,-82.693548
26023,,,Y,MI,04050001,$0,1,Community water system,,26023,,AVRA ESTATES,49036,05,,N,0,1,CENTER OF A FACILITY OR STATION,COLDWATER,,,MI0040074,__VVVV______U,15.413,040500010106,41.92727,ADDRESS MATCHING-HOUSE NUMBER,0,BRANCH COUNTY,5,49036,110013097549,27 WEST GARFIELD AVENUE,30,BRANCH,-85.00646
,,,Y,MI,,$0,1,Transient non-community system,,,,AYSO REGION 417,48430,05,,N,0,0,,FENTON,,,MI2521528,____________U,,,42.725284,Zip Code Centroid,0,,3,,110052068775,,10000,GENESEE,-83.757378
,,,Y,MI,,$0,1,Transient non-community system,,,,AZALIA U.M. CHURCH,48110,05,,N,0,0,,AZALIA,,,MI5820334,____________U,,,42.012371,Zip Code Centroid,0,,,,110052222028,,10000,MONROE,-83.667085
,,,Y,MI,,$0,1,Transient non-community system,,,,Alcona Park Electric Bathhouse,48737,05,,N,0,0,,,,,MI0120227,____________U,,,44.548797,Zip Code Centroid,0,,,,MI0120227,,10000,Alcona,-83.721292
,,,Y,MI,,$0,1,Transient non-community system,,,,Applewood,48503,05,,N,0,0,,,,,MI2521617,____________U,,,43.012165,Zip Code Centroid,0,,,,MI2521617,,10000,Genesee,-83.658562
,,,Y,MI,,$0,1,Transient non-community system,,,,"Arcadia Bluffs, LLC",49613,05,,N,0,1,,,,,MI5120243,__________VVU,,,44.557725,Zip Code Centroid,0,,2,,MI5120243,,10000,Manistee,-86.208346
,,,Y,MI,,$0,1,Transient non-community system,,,,Arcadia Medical,49613,05,,N,0,1,,,,,MI5120242,____VVVVVVVVU,,,44.557725,Zip Code Centroid,0,,1,,MI5120242,,10000,Manistee,-86.208346
,,,Y,MI,,$0,1,Non-Transient non-community system,,,,Arcticlear,49419,05,,N,0,1,,,,,MI0320681,______VVVV__U,,,42.688812,Zip Code Centroid,0,,,,MI0320681,,10000,Allegan,-85.987488
,,,Y,MI,,$0,1,Transient non-community system,,,,Ashland Church of Christ,49327,05,,N,0,1,,,,,MI6220318,______VVVVVVU,,,43.338022,Zip Code Centroid,0,,2,,MI6220318,,10000,Newaygo,-85.805157
,,,Y,MI,,$0,1,Transient non-community system,,,,Aurelius Baptist Church,48854,05,,N,0,0,,,,,MI3320226,____________U,,,42.58212,Zip Code Centroid,0,,,,MI3320226,,10000,Ingham,-84.558886
