FacDerivedStctyFIPS,SDWAFormalActionCount,FacDateLastPenalty,SDWISFlag,FacState,FacDerivedHuc,FacTotalPenalties,SDWAInspections5yr,SDWAIDs,FacLastPenaltyAmt,FacName,FacZip,FacEPARegion,FacDerivedZip,NC,FacFormalActionCount,ViolFlag,FacReferencePoint,FacCity,FacImpWaterFlg,FacPenaltyCount,FacFIPSCode,SDWA3yrComplQtrsHistory,FacDerivedWBD,FacLat,FacCollectionMethod,CurrVioFlag,FacStdCountyName,SDWAInformalCount,RegistryID,FacStreet,FacAccuracyMeters,FacCounty,FacLong
,,,Y,MI,,$0,,MI2420373,,#5 HILLS TEE BOYNE HIGHLANDS,49740,05,,N,0,1,,HARBOR SPRINGS,,,,VV__________U,,45.464346,Zip Code Centroid,0,,,110049263578,,10000,EMMET,-84.991462
,,,Y,MI,,$0,,MI2420374,,#5 ROSS TEE BOYNE HIGHLANDS,49740,05,,N,0,1,,HARBOR SPRINGS,,,,_VV_________U,,45.464346,Zip Code Centroid,0,,2,110049263596,,10000,EMMET,-84.991462
,,,Y,MI,,$0,,MI2420242,,10TH TEE ROSS COURSE SNACKBAR,49740,05,,N,0,1,,HARBOR SPRINGS,,,,_VV_________U,,45.464346,Zip Code Centroid,0,,2,110049299512,,10000,EMMET,-84.991462
,,,Y,MI,,$0,,MI1320305,,115 TRUCK STOP,49068,05,,N,0,0,,MARSHALL,,,,____________U,,42.297422,Zip Code Centroid,0,,,110051928991,,10000,CALHOUN,-84.944033
,,,Y,MI,,$0,,MI1120720,,12 CORNERS VINEYARDS,49022,05,,N,0,0,,BENTON HARBOR,,,,____________U,,42.129129,Zip Code Centroid,0,,,110063330925,,10000,BERRIEN,-86.402862
,,,Y,MI,,$0,,MI0320572,,12TH STREET MARTIN BUILDING,49070,05,,N,0,1,,MARTIN,,,,VVVVV_______U,,42.537674,Zip Code Centroid,0,,2,110052716129,,10000,ALLEGAN,-85.62016
,,,Y,MI,,$0,,MI6321807,,1449 S MILFORD ROAD PLAZA LLC,48357,05,,N,0,0,,HIGHLAND,,,,____________U,,42.653259,Zip Code Centroid,0,,,110052229940,,10000,OAKLAND,-83.649471
,,,Y,MI,,$0,,MI6321986,,15 OAK SQUARE MALL,48462,05,,N,0,0,,ORTONVILLE,,,,____________U,,42.888844,Zip Code Centroid,0,,,110049417715,,10000,OAKLAND,-83.371704
,,,Y,MI,,$0,,MI3220262,,1ST & MAIN PARTY STORE,48720,05,,N,0,0,,BAY PORT,,,,____________U,,43.840322,Zip Code Centroid,0,,,110049236126,,10000,HURON,-83.370584
,,,Y,MI,,$0,,MI5920357,,1ST BAPTIST CHURCH,48811,05,,N,0,0,,CARSON CITY,,,,____________U,,43.147515,Zip Code Centroid,0,,8,110049430022,,10000,MONTCALM,-84.806947
,,,Y,MI,,$0,,MI4720781,,20TH CENTURY BUILDING COMPANY,48189,05,,N,0,0,,WHITMORE LAKE,,,,____________U,,42.45217,Zip Code Centroid,0,,,110049435045,,10000,LIVINGSTON,-83.799432
,,,Y,MI,,$0,,MI4720465,,20TH CENTURY BUILDING COMPANY,48189,05,,N,0,0,,WHITMORE LAKE,,,,____________U,,42.45217,Zip Code Centroid,0,,,110052717627,,10000,LIVINGSTON,-83.799432
,,,Y,MI,,$0,,MI4720575,,20TH CENTURY BUILDING COMPANY,48189,05,,N,0,0,,WHITMORE LAKE,,,,____________U,,42.45217,Zip Code Centroid,0,,,110049341468,,10000,LIVINGSTON,-83.799432
,,,Y,MI,,$0,,MI4720440,,20TH CENTURY BUILDING COMPANY,48189,05,,N,0,0,,WHITMORE LAKE,,,,____________U,,42.45217,Zip Code Centroid,0,,,110049270258,,10000,LIVINGSTON,-83.799432
,,,Y,MI,,$0,,MI7120027,,211 BAR AND GRILL,49765,05,,N,0,1,,ONAWAY,,,,_______VV___U,,45.352734,Zip Code Centroid,0,,8,110049399101,,10000,PRESQUE ISLE,-84.229588
,,,Y,MI,,$0,,MI7120182,,211 OUTPOST COUNTRY STORE,49765,05,,Y,0,1,,ONAWAY,,,,_______VVVVVU,,45.352734,Zip Code Centroid,1,,7,110049482608,,10000,PRESQUE ISLE,-84.229588
,,,Y,MI,,$0,,MI5920546,,3-D PIZZA,48891,05,,N,0,0,,VESTABURG,,,,____________U,,43.452832,Zip Code Centroid,0,,,110052202273,,10000,MONTCALM,-84.92581
,,,Y,MI,,$0,,MI7920440,,3224 BUILDING ASSOCIATION,48723,05,,N,0,0,,,,,,____________U,,43.488053,Zip Code Centroid,0,,,110049401599,,10000,TUSCOLA,-83.369477
,,,Y,MI,,$0,,MI4421806,,"3522 S. LAPEER RD., LLC",48455,05,,N,0,1,,,,,,_________VV_U,,42.947955,Zip Code Centroid,0,,2,110049517554,,10000,LAPEER,-83.349206
,,,Y,MI,,$0,,MI0320691,,3rd Base Party Store,49080,05,,N,0,0,,,,,,____________U,,42.405566,Zip Code Centroid,0,,,MI0320691,,10000,Allegan,-85.615033
,,,Y,MI,,$0,,MI6420291,,4 B'S CAMPGROUND,49421,05,,N,0,0,,HESPERIA,,,,____________U,,43.556769,Zip Code Centroid,0,,,110052064172,,10000,OCEANA,-86.079342
,,,Y,MI,,$0,,MI6720149,,4 CORNER'S GRILL,49665,05,,Y,0,1,,,,,,__VV_VVVVVVVU,,44.176628,Zip Code Centroid,1,,7,110052248386,,10000,OSCEOLA,-85.082443
,,,Y,MI,,$0,,MI6322936,,4 N ORTONVILLE RD,48462,05,,N,0,0,,,,,,____________U,,42.888844,Zip Code Centroid,0,,,MI6322936,,10000,Oakland,-83.371704
,,,Y,MI,,$0,,MI7420271,,4 SQUARE SPORTSMAN CLUB,48032,05,,N,0,0,,JEDDO,,,,____________U,,43.174971,Zip Code Centroid,0,,,110049403686,,10000,ST. CLAIR,-82.604551
,,,Y,MI,,$0,,MI3720176,,4-H CAMPGROUND,48858,05,,N,0,1,,MOUNT PLEASANT,,,,______VVVV__U,,43.619325,Zip Code Centroid,0,,6,110049408280,,10000,ISABELLA,-84.787666
,,,Y,MI,,$0,,MI5920657,,4-H FAIRGROUND,48838,05,,Y,0,1,,GREENVILLE,,,,____VVVVVVVVU,,43.177998,Zip Code Centroid,1,,2,110052098966,,10000,MONTCALM,-85.254904
,,,Y,MI,,$0,,MI7120180,,40 MILE POINT LIGHTHOUSE,49779,05,,N,0,1,,ROGERS CITY,,,,_VVVVVV_____U,,45.418715,Zip Code Centroid,0,,8,110049482564,,10000,PRESQUE ISLE,-83.826576
,,,Y,MI,,$0,,MI2420347,,405 N.DIVISION ROAD CONDO ASSOC.,49770,05,,N,0,0,,PETOSKEY,,,,____________U,,45.347505,Zip Code Centroid,0,,,110052724003,,10000,EMMET,-84.985655
,,,Y,MI,,$0,,MI5220089,,41 STEAK HOUSE,49814,05,,N,0,0,,CHAMPION,,,,____________U,,46.496638,Zip Code Centroid,0,,,110049482966,,10000,MARQUETTE,-87.938281
,,,Y,MI,,$0,,MI4120726,,42 NORTH APPLES LLC,48838,05,,N,0,0,,,,,,____________U,,43.177998,Zip Code Centroid,0,,,110049227813,,10000,KENT,-85.254904
,,,Y,MI,,$0,,MI5020231,,42ND DISTRICT COURT BLDG,48065,05,,N,0,0,,ROMEO,,,,____________U,,42.847452,Zip Code Centroid,0,,,110052077499,,10000,MACOMB,-83.00961
,,,Y,MI,,$0,,MI2820211,,42ND STREET PLAZA,49684,05,,Y,0,1,,TRAVERSE CITY,,,,VVVVVVVVVVVVU,,44.772207,Zip Code Centroid,1,,106,110052732129,,10000,GRAND TRAVERSE,-85.861351
,,,Y,MI,,$0,,MI7020667,,45 Botello's,49460,05,,N,0,0,,,,,,____________U,,42.936016,Zip Code Centroid,0,,,MI7020667,,10000,Ottawa,-86.080617
,2,,Y,MI,,$0,,MI5520003,,47 TAVERN,49896,05,,N,2,1,,WILSON,,,,V___VVVV_VVVU,,45.698962,Zip Code Centroid,0,,15,110049363666,,10000,MENOMINEE,-87.431925
,,,Y,MI,,$0,,MI5920415,,5 CORNERS PARTY STORE,48850,05,,N,0,1,,LAKEVIEW,,,,V__VV_______U,,43.444212,Zip Code Centroid,0,,4,110052156992,,10000,MONTCALM,-85.280803
,,,Y,MI,,$0,,MI0040520,,553 MOBILE ESTATES,,05,,N,0,1,,,,,,___VV______VU,,46.656597,County Centroid,0,,4,110013088915,,30000,MARQUETTE,-87.584028
,,,Y,MI,,$0,,MI6321830,,7-ELEVEN,48386,05,,N,0,0,,WHITE LAKE,,,,____________U,,42.644052,Zip Code Centroid,0,,,110052201675,,10000,OAKLAND,-83.473469
,,,Y,MI,,$0,,MI4720796,,7-ELEVEN CONVENIENCE STORE,48116,05,,N,0,0,,BRIGHTON,,,,____________U,,42.500105,Zip Code Centroid,0,,,110049448004,,10000,LIVINGSTON,-83.790412
,,,Y,MI,,$0,,MI4320112,,7TH DAY ADVENTIST CHURCH,49642,05,,N,0,1,,IDLEWILD,,,,VVVVVV______U,,43.884615,Zip Code Centroid,0,,6,110049366949,,10000,LAKE,-85.77744
,,,Y,MI,,$0,,MI4720791,,8000 KENSINGTON COURT,48114,05,,N,0,0,,BRIGHTON,,,,____________U,,42.575505,Zip Code Centroid,0,,,110049435241,,10000,LIVINGSTON,-83.759625
,,,Y,MI,,$0,,MI6322750,,"826 M-24, LLC.",48371,05,,N,0,0,,OXFORD,,,,____________U,,42.897606,Zip Code Centroid,0,,,110052199866,,10000,OAKLAND,-83.326031
,,,Y,MI,,$0,,MI8120327,,"A & L ENTERPRISES, LLC.",48105,05,,N,0,0,,ANN ARBOR,,,,____________U,,42.319989,Zip Code Centroid,0,,4,110052178095,,10000,WASHTENAW,-83.726994
,,,Y,MI,,$0,,MI7020646,,A & L FARMS - FARM MARKET,49417,05,,N,0,0,,GRAND HAVEN,,,,____________U,,43.021278,Zip Code Centroid,0,,,110052162690,,10000,OTTAWA,-86.121708
,,,Y,MI,,$0,,MI6320714,,A & W,48462,05,,N,0,0,,ORTONVILLE,,,,____________U,,42.888844,Zip Code Centroid,0,,,110052182525,,10000,OAKLAND,-83.371704
,,,Y,MI,,$0,,MI0220154,,A + L GROCERY & PIZZA,49806,05,,Y,0,1,,AU TRAIN,,,,V_______VVVVU,,46.419879,Zip Code Centroid,1,,,110049282423,,10000,ALGER,-86.837205
,,,Y,MI,,$0,,MI1020050,,A B MALEY PARK,49640,05,,N,0,1,,HONOR,,,,________VV__U,,44.674928,Zip Code Centroid,0,,3,110052727876,,10000,BENZIE,-86.01277
,,,Y,MI,,$0,,MI1320072,,A FOREVER RECOVERY,49017,05,,N,0,0,,BATTLE CREEK,,,,____________U,,42.445095,Zip Code Centroid,0,,,110052487590,,10000,CALHOUN,-85.275866
,,,Y,MI,,$0,,MI0520085,,A GA MING GOLF CLUB (DUFFERS),49648,05,,N,0,1,,KEWADIN,,,,VVVVV_______U,,44.964311,Zip Code Centroid,0,,3,110049303035,,10000,ANTRIM,-85.353094
,,,Y,MI,,$0,,MI6020129,,A WIN-SANDS MOTEL,49709,05,,N,0,1,,ATLANTA,,,,_VVV________U,,44.993844,Zip Code Centroid,0,,4,110049381502,,10000,MONTMORENCY,-84.153156
,,,Y,MI,,$0,,MI5720095,,A&L TRADING POST,49651,05,,N,0,0,,LAKE CITY,,,,____________U,,44.302701,Zip Code Centroid,0,,3,110052084935,,10000,MISSAUKEE,-85.231046
,,,Y,MI,,$0,,MI8120434,,A&W ROOT BEER DRIVE-IN,48130,05,,N,0,0,,DEXTER,,,,____________U,,42.316243,Zip Code Centroid,0,,,110052329011,,10000,WASHTENAW,-83.899265
,,,Y,MI,,$0,,MI6322470,,A.B. HELLER,48381,05,,N,0,0,,MILFORD,,,,____________U,,42.565969,Zip Code Centroid,0,,,110049510864,,10000,OAKLAND,-83.592226
,,,Y,MI,,$0,,MI5820430,,A.J'S DOOLITTLES,48144,05,,N,0,0,,LAMBERTVILLE,,,,____________U,,41.753787,Zip Code Centroid,0,,,110052147556,,10000,MONROE,-83.625811
,,,Y,MI,,$0,,MI1520011,,A.L.P. LIGHTING COMPONENTS,49720,05,,N,0,1,,CHARLEVOIX,,,,VVVVVVV_____U,,45.24964,Zip Code Centroid,0,,40,110049462737,,10000,CHARLEVOIX,-85.239121
,,,Y,MI,,$0,,MI3520051,,AARON'S WOODED ACRES RESORT,48730,05,,N,0,0,,EAST TAWAS,,,,____________U,,44.305342,Zip Code Centroid,0,,,110049304356,,10000,IOSCO,-83.424435
,,,Y,MI,,$0,,MI7520158,,ABBOTT NUTRITION,49091,05,,N,0,0,,STURGIS,,,,____________U,,41.816077,Zip Code Centroid,0,,,110052226747,,10000,ST. JOSEPH,-85.42365
,,,Y,MI,,$0,,MI3820610,,ABC ACADEMY # 1,49202,05,,N,0,0,,JACKSON,,,,____________U,,42.273665,Zip Code Centroid,0,,,110049356184,,10000,JACKSON,-84.423065
,,,Y,MI,,$0,,MI3820616,,ABC ACADEMY #2,49201,05,,N,0,0,,,,,,____________U,,42.253548,Zip Code Centroid,0,,,110049338668,,10000,JACKSON,-84.502495
,,,Y,MI,,$0,,MI4720914,,ABED PROFESSIONAL BUILDING,48353,05,,N,0,0,,HARTLAND,,,,____________U,,42.648563,Zip Code Centroid,0,,,110049213588,,10000,LIVINGSTON,-83.717655
,,,Y,MI,,$0,,MI6220142,,ABNER'S RESTAURANT,49312,05,,Y,0,1,,BROHMAN,,,,_VVV_VVVVVVVU,,43.688435,Zip Code Centroid,1,,7,110049393740,,10000,NEWAYGO,-85.812967
,,,Y,MI,,$0,,MI1020145,,ABRAMSON FAMILY DENTISTRY,49617,05,,N,0,0,,BEULAH,,,,____________U,,44.645144,Zip Code Centroid,0,,,110049334948,,10000,BENZIE,-85.956946
,,,Y,MI,,$0,,MI3820508,,ABSOPURE #1,49230,05,,N,0,0,,BROOKLYN,,,,____________U,,42.117116,Zip Code Centroid,0,,,110049475705,,10000,JACKSON,-84.277562
,,,Y,MI,,$0,,MI3820758,,ABSOPURE #2-WM YOUNG,49234,05,,N,0,0,,CLARKLAKE,,,,____________U,,42.115818,Zip Code Centroid,0,,,110049314746,,10000,JACKSON,-84.356787
,,,Y,MI,,$0,,MI3820812,,ABSOPURE #3 - WM YOUNG,49234,05,,N,0,0,,CLARKLAKE,,,,____________U,,42.115818,Zip Code Centroid,0,,,110052728697,,10000,JACKSON,-84.356787
,,,Y,MI,,$0,,MI6321414,,ABSOPURE WATER COMPANY,48034,05,,N,0,0,,SOUTHFIELD,,,,____________U,,42.496629,Zip Code Centroid,0,,,110049431156,,10000,OAKLAND,-83.289867
,,,Y,MI,,$0,,MI0620210,,ABUNDANT LIFE CHURCH,48658,05,,N,0,0,,STANDISH,,,,____________U,,43.968057,Zip Code Centroid,0,,,110052712374,,10000,ARENAC,-83.94555
,,,Y,MI,,$0,,MI1520068,,ACAT GLOBAL / OLIVER,,05,,N,0,1,,,,,,____VVVVV___U,,44.841084,State Centroid,0,,8,110052727386,,100000,,-85.65932
,,,Y,MI,,$0,,MI7120170,,ACE HARDWARE- ROGERS CITY,49779,05,,N,0,1,,,,,,____VV______U,,45.418715,Zip Code Centroid,0,,2,110049425207,,10000,PRESQUE ISLE,-83.826576
,,,Y,MI,,$0,,MI2220077,,ACE OF CLUBS,49881,05,,N,0,0,,SAGOLA,,,,____________U,,46.08361,Zip Code Centroid,0,,,110049196721,,10000,DICKINSON,-88.075187
,,,Y,MI,,$0,,MI7420037,,ACHATZ CATERING,48064,05,,N,0,1,,CASCO,,,,__VV___VV___U,,42.768462,Zip Code Centroid,0,,1,110052241221,,10000,ST. CLAIR,-82.672659
,,,Y,MI,,$0,,MI5020321,,ACHATZ PIE COMPANY,48005,05,,N,0,0,,ARMADA,,,,____________U,,42.849819,Zip Code Centroid,0,,,110049472717,,10000,MACOMB,-82.92086
,,,Y,MI,,$0,,MI0820050,,ACKERS POINT RESORT,49046,05,,N,0,1,,DELTON,,,,__VVVVVVVV__U,,42.521751,Zip Code Centroid,0,,6,110049232013,,10000,BARRY,-85.377162
,,,Y,MI,,$0,,MI3820104,,ACKERSON LAKE EDUCATION CTR,49201,05,,N,0,0,,JACKSON,,,,____________U,,42.253548,Zip Code Centroid,0,,,110049303838,,10000,JACKSON,-84.502495
,,,Y,MI,,$0,,MI2820202,,ACME SHELL MINI MART,49610,05,,Y,0,1,,WILLIAMSBURG,,,,____VVVVVVVVU,,44.80676,Zip Code Centroid,1,,16,110049305195,,10000,GRAND TRAVERSE,-85.5713
,,,Y,MI,,$0,,MI0000011,,ACME TOWNSHIP - HOPE VILLAGE,,05,,N,0,0,,,,,,____________U,,44.718688,County Centroid,0,,,110013131887,,30000,GRAND TRAVERSE,-85.553848
,,,Y,MI,,$0,,MI2820403,,ACME TOWNSHIP HALL,49610,05,,N,0,1,,WILLIAMSBURG,,,,VVVVVVVSVVVVU,,44.80676,Zip Code Centroid,0,,18,110049328376,,10000,GRAND TRAVERSE,-85.5713
,,,Y,MI,,$0,,MI0320617,,ACRDC,49080,05,,Y,0,1,,PLAINWELL,,,,________VVVVU,,42.405566,Zip Code Centroid,1,,,110049223675,,10000,ALLEGAN,-85.615033
,,,Y,MI,,$0,,MI4720906,,ACTION WATER SPORTS,48430,05,,N,0,0,,FENTON,,,,____________U,,42.725284,Zip Code Centroid,0,,,110049316913,,10000,LIVINGSTON,-83.757378
,,,Y,MI,,$0,,MI4120847,,ADA BIBLE CHURCH,49301,05,,N,0,0,,ADA,,,,____________U,,42.965599,Zip Code Centroid,0,,,110049284500,,10000,KENT,-85.480171
,,,Y,MI,,$0,,MI4120884,,ADA PARK - LEARNING CENTER,49301,05,,N,0,0,,,,,,____________U,,42.965599,Zip Code Centroid,0,,,110052740254,,10000,KENT,-85.480171
,,,Y,MI,,$0,,MI4120883,,ADA PARK - SHELTER,49301,05,,N,0,0,,ADA,,,,____________U,,42.965599,Zip Code Centroid,0,,,110052740227,,10000,KENT,-85.480171
,,,Y,MI,,$0,,MI0000012,,ADA TOWNSHIP,,05,,N,0,0,,ADA,,,,____________U,,42.965599,Post Office Name Centroid,0,,,110013131912,,20000,KENT,-85.480171
,,,Y,MI,,$0,,MI7420034,,ADAIR BAR,48064,05,,N,0,0,,CASCO,,,,____________U,,42.768462,Zip Code Centroid,0,,,110052241178,,10000,ST. CLAIR,-82.672659
,,,Y,MI,,$0,,MI5020108,,ADAM'S CORNER,48065,05,,N,0,1,,ROMEO,,,,VVVVV_______U,,42.847452,Zip Code Centroid,0,,32,110049349255,,10000,MACOMB,-83.00961
,,,Y,MI,,$0,,MI0000020,,ADAMS TOWNSHIP,,05,,N,0,0,,AHMEEK,,,,____________U,,47.298458,Place Name Centroid,0,,,110013131949,,20000,HOUGHTON,-88.397106
,,,Y,MI,,$0,,MI0000030,,ADDISON,,05,,Y,0,1,,ADDISON,,,,___________VU,,41.985887,Place Name Centroid,1,,3,110013131985,,20000,LENAWEE,-84.349076
,,,Y,MI,,$0,,MI3020150,,ADDISON GUN CLUB,49220,05,,N,0,1,,ADDISON,,,,_VV_VVVVVVVVU,,41.993567,Zip Code Centroid,0,,4,110049201118,,10000,HILLSDALE,-84.326575
,,,Y,MI,,$0,,MI6322455,,ADDISON OAKS - MAINTENANCE,48367,05,,N,0,0,,LEONARD,,,,____________U,,42.843677,Zip Code Centroid,0,,4,110049509705,,10000,OAKLAND,-83.141345
,,,Y,MI,,$0,,MI6322881,,ADDISON OAKS CAMP AREA B,48367,05,,N,0,0,,LEONARD,,,,____________U,,42.843677,Zip Code Centroid,0,,,110052196379,,10000,OAKLAND,-83.141345
,,,Y,MI,,$0,,MI6321981,,ADDISON OAKS CONCESSION BLDG.,48367,05,,N,0,0,,LEONARD,,,,____________U,,42.843677,Zip Code Centroid,0,,4,110049404952,,10000,OAKLAND,-83.141345
,,,Y,MI,,$0,,MI6320563,,ADDISON OAKS CONFERENCE CENTER,48367,05,,N,0,0,,LEONARD,,,,____________U,,42.843677,Zip Code Centroid,0,,4,110052075302,,10000,OAKLAND,-83.141345
,,,Y,MI,,$0,,MI6321982,,ADDISON OAKS CPGD.SHOWER BLDG.,48367,05,,N,0,0,,LEONARD,,,,____________U,,42.843677,Zip Code Centroid,0,,,110049404970,,10000,OAKLAND,-83.141345
,,,Y,MI,,$0,,MI6322808,,ADDISON OAKS LOOP D,48367,05,,N,0,0,,LEONARD,,,,____________U,,42.843677,Zip Code Centroid,0,,,110052180812,,10000,OAKLAND,-83.141345
,,,Y,MI,,$0,,MI6322718,,ADDISON OAKS- CAMP AREA A,48367,05,,N,0,0,,LEONARD,,,,____________U,,42.843677,Zip Code Centroid,0,,,110049384288,,10000,OAKLAND,-83.141345
,,,Y,MI,,$0,,MI6321797,,ADDISON TWP. HALL,48367,05,,N,0,0,,LEONARD,,,,____________U,,42.843677,Zip Code Centroid,0,,4,110052219899,,10000,OAKLAND,-83.141345
,,,Y,MI,,$0,,MI6322896,,ADEPT PLASTIC,48393,05,,N,0,0,,WIXOM,,,,____________U,,42.535036,Zip Code Centroid,0,,,110052196538,,10000,OAKLAND,-83.543376
,,,Y,MI,,$0,,MI2320189,,ADESA AUTO AUCTION,48821,05,,N,0,1,,DIMONDALE,,,,__VV_____VV_U,,42.646305,Zip Code Centroid,0,,4,110049312463,,10000,EATON,-84.661846
,,,Y,MI,,$0,,MI2920629,,ADMIRAL FUEL STATION #169,48801,05,,N,0,1,,ALMA,,,,_______VVVV_U,,43.382217,Zip Code Centroid,0,,2,110052068711,,10000,GRATIOT,-84.656985
,,,Y,MI,,$0,,MI2521188,,ADMIRAL PETROLEUM,48437,05,,N,0,1,,GENESEE,,,,____VVVVV___U,,43.11305,Zip Code Centroid,0,,2,110049270766,,10000,GENESEE,-83.620197
,,,Y,MI,,$0,,MI7020326,,ADMIRAL PETROLEUM,49417,05,,N,0,0,,GRAND HAVEN,,,,____________U,,43.021278,Zip Code Centroid,0,,,110049375234,,10000,OTTAWA,-86.121708
,1,,Y,MI,,$0,,MI3420180,,ADMIRAL PETROLEUM #282,48846,05,,N,1,1,,IONIA,,,,VVV_________U,,42.984206,Zip Code Centroid,0,,8,110049446097,,10000,IONIA,-85.087094
,,,Y,MI,,$0,,MI7220354,,ADMIRAL PETROLEUM #78,48629,05,,N,0,1,,HOUGHTON LAKE,,,,VVVVVVVSVVVVU,,44.288946,Zip Code Centroid,0,,3,110052095237,,10000,ROSCOMMON,-84.758547
,,,Y,MI,,$0,,MI7820367,,ADMIRAL PETROLEUM CO.,48867,05,,N,0,0,,OWOSSO,,,,____________U,,42.987308,Zip Code Centroid,0,,,110049471219,,10000,SHIAWASSEE,-84.158545
,,,Y,MI,,$0,,MI0000040,,ADRIAN,,05,,N,0,1,,ADRIAN,,,,_V__________U,,41.89878,Place Name Centroid,0,,5,110013132010,,20000,LENAWEE,-84.044829
,,,Y,MI,,$0,,MI4620374,,ADRIAN CINEMAS,48237,05,,N,0,0,,OAK PARK,,,,____________U,,42.467711,Zip Code Centroid,0,,2,110049195045,,10000,LENAWEE,-83.177869
,,,Y,MI,,$0,,MI4620314,,"ADRIAN SKATERY II, INC.",49221,05,,N,0,0,,ADRIAN,,,,____________U,,41.895649,Zip Code Centroid,0,,,110049424253,,10000,LENAWEE,-84.061928
,,,Y,MI,,$0,,MI2920148,,ADVANCED AUTO,48801,05,,N,0,0,,ALMA,,,,____________U,,43.382217,Zip Code Centroid,0,,,110049432976,,10000,GRATIOT,-84.656985
,,,Y,MI,,$0,,MI6322183,,ADVANCED AUTO TRENDS,48371,05,,N,0,1,,OXFORD,,,,V_VVV_______U,,42.897606,Zip Code Centroid,0,,3,110052138673,,10000,OAKLAND,-83.326031
,,,Y,MI,,$0,,MI6321596,,"ADVANCED AUTO TRENDS, INC.",48371,05,,N,0,1,,OXFORD,,,,__VV________U,,42.897606,Zip Code Centroid,0,,3,110049453523,,10000,OAKLAND,-83.326031
,,,Y,MI,,$0,,MI5520096,,ADVANCED BLENDING SOLUTIONS,49893,05,,N,0,1,,WALLACE,,,,_____VV_____U,,45.325884,Zip Code Centroid,0,,2,110052095987,,10000,MENOMINEE,-87.604114
,,,Y,MI,,$0,,MI8120466,,ADVANCED DISPOSAL - LEARNING CENTER,48167,05,,N,0,0,,NORTHVILLE,,,,____________U,,42.427821,Zip Code Centroid,0,,,110052167141,,10000,WASHTENAW,-83.607512
,,,Y,MI,,$0,,MI8120640,,ADVANCED DISPOSAL - WHITMORE LAKE,48189,05,,N,0,0,,,,,,____________U,,42.45217,Zip Code Centroid,0,,,MI8120640,,10000,Washtenaw,-83.799432
,,,Y,MI,,$0,,MI6720159,,ADVANCED FIBER MOLDING,49655,05,,N,0,0,,LEROY,,,,____________U,,44.031028,Zip Code Centroid,0,,,110052080804,,10000,OSCEOLA,-85.486772
,,,Y,MI,,$0,,MI0820359,,ADVANCED ORTHOPEDIC & PAIN INSTITUTE,49058,05,,Y,0,1,,HASTINGS,,,,VVVVVVVVVVVVU,,42.670925,Zip Code Centroid,1,,48,110049266600,,10000,BARRY,-85.29902
,,,Y,MI,,$0,,MI1020170,,ADVENT LUTHERAN CHURCH,49650,05,,N,0,0,,LAKE ANN,,,,____________U,,44.732919,Zip Code Centroid,0,,,110063366236,,10000,BENZIE,-85.870434
,,,Y,MI,,$0,,MI6620002,,ADVENTURE MOTEL & CAFE,49948,05,,N,0,0,,MASS CITY,,,,____________U,,46.726058,Zip Code Centroid,0,,4,110052141589,,10000,ONTONAGON,-89.019989
,,,Y,MI,,$0,,MI1220200,,ADVENTURE ZONE,49036,05,,N,0,1,,COLDWATER,,,,VVVVV_______U,,41.96712,Zip Code Centroid,0,,2,110052678679,,10000,BRANCH,-85.027728
,,,Y,MI,,$0,,MI6220196,,AETNA CALVARY CHURCH,49349,05,,N,0,0,,WHITE CLOUD,,,,____________U,,43.604819,Zip Code Centroid,0,,1,110049355327,,10000,NEWAYGO,-85.75906
,,,Y,MI,,$0,,MI7520242,,AFFINITY CUSTON MOLDING,49072,05,,N,0,1,,MENDON,,,,VVVVV_______U,,42.009634,Zip Code Centroid,0,,20,110052193675,,10000,ST. JOSEPH,-85.45324
,,,Y,MI,,$0,,MI0520080,,AFTERLOON DELIGHTS,49612,05,,N,0,1,,ALDEN,,,,VVVVV_______U,,44.831278,Zip Code Centroid,0,,2,110049236796,,10000,ANTRIM,-85.203787
,,,Y,MI,,$0,,MI7820242,,"AG RELIENT GENETICS, LLC",48866,05,,N,0,0,,OVID,,,,____________U,,43.015585,Zip Code Centroid,0,,,110049360320,,10000,SHIAWASSEE,-84.409197
,,,Y,MI,,$0,,MI3120097,,AGATE BEACH CAMPGROUND,49965,05,,N,0,1,,TOIVOLA,,,,____VVVVVVV_U,,46.883191,Zip Code Centroid,0,,2,110049249292,,10000,HOUGHTON,-88.858223
,,,Y,MI,,$0,,MI6620030,,AGATE FALLS WAYSIDE  P153 (MDOT),49967,05,,N,0,0,,TROUT CREEK,,,,____________U,,46.46301,Zip Code Centroid,0,,,110052203389,,10000,ONTONAGON,-88.888576
,,,Y,MI,,$0,,MI3520244,,AGILITY PHYSICAL THERAPY,48739,05,,N,0,0,,HALE,,,,____________U,,44.349817,Zip Code Centroid,0,,,110063338320,,10000,IOSCO,-83.93169
,,,Y,MI,,$0,,MI6520310,,AGILITY PHYSICAL THERAPY,48654,05,,N,0,0,,ROSE CITY,,,,____________U,,44.519369,Zip Code Centroid,0,,,110064360061,,10000,OGEMAW,-84.129572
,,,Y,MI,,$0,,MI4120808,,AGO #43 GOWEN,49326,05,,N,0,0,,,,,,____________U,,43.239681,Zip Code Centroid,0,,,110049203777,,10000,KENT,-85.342124
,1,,Y,MI,,$0,,MI4120599,,AGO CITGO,49505,05,,N,1,0,,,,,,V___________U,,42.996476,Zip Code Centroid,0,,9,110049264853,,10000,KENT,-85.64359
,,,Y,MI,,$0,,MI8020116,,AGUDATH ISRAEL,49090,05,,N,0,1,,SOUTH HAVEN,,,,__VVVVV_____U,,42.498414,Zip Code Centroid,0,,4,110052112316,,10000,VAN BUREN,-86.2162
,,,Y,MI,,$0,,MI6322463,,AHF RENTALS,48462,05,,N,0,0,,ORTONVILLE,,,,____________U,,42.888844,Zip Code Centroid,0,,,110049510070,,10000,OAKLAND,-83.371704
,,,Y,MI,,$0,,MI0000050,,AHMEEK,,05,,N,0,0,,,,,,____________U,,47.681981,County Centroid,0,,,110012984681,,30000,KEWEENAW,-88.148802
,,,Y,MI,,$0,,MI2320118,,AINGER BIBLE CHURCH,49076,05,,Y,0,1,,OLIVET,,,,__VV_______VU,,42.392524,Zip Code Centroid,1,,2,110049392359,,10000,EATON,-84.836831
,,,Y,MI,,$0,,MI0320474,,AIRPORT BOWLING LANES,49348,05,,N,0,1,,WAYLAND,,,,VVVVVVVVV___U,,42.639752,Zip Code Centroid,0,,10,110052723567,,10000,ALLEGAN,-85.529076
,,,Y,MI,,$0,,MI3820059,,AIRPORT LANES,49202,05,,N,0,0,,JACKSON,,,,____________U,,42.273665,Zip Code Centroid,0,,,110049328152,,10000,JACKSON,-84.423065
,,,Y,MI,,$0,,MI1820037,,AIRPORT RESTAURANT,48625,05,,N,0,1,,HARRISON,,,,V__VVVV_VVVVU,,44.041136,Zip Code Centroid,0,,18,110049285518,,10000,CLARE,-84.768184
,,,Y,MI,,$0,,MI3820630,,AIRPORT RESTAURANT & SPIRITS,49202,05,,N,0,0,,JACKSON,,,,____________U,,42.273665,Zip Code Centroid,0,,,110049338873,,10000,JACKSON,-84.423065
,,,Y,MI,,$0,,MI5020280,,AIS CONTINENTAL EQUIPMT,48050,05,,N,0,0,,NEW HAVEN,,,,____________U,,42.785645,Zip Code Centroid,0,,,110052061013,,10000,MACOMB,-82.807769
,,,Y,MI,,$0,,MI0320101,,AJ'S GRILL & COCKTAIL BAR,49323,05,,N,0,1,,DORR,,,,___VV_______U,,42.725168,Zip Code Centroid,0,,2,110049395908,,10000,ALLEGAN,-85.762382
,,,Y,MI,,$0,,MI4720680,,AJAX MATERIAL CORP,48116,05,,N,0,0,,,,,,____________U,,42.500105,Zip Code Centroid,0,,,MI4720680,,10000,Livingston,-83.790412
,,,Y,MI,,$0,,MI2020015,,AJD FOREST PRODUCTS,49738,05,,N,0,1,,GRAYLING,,,,_______VV_VVU,,44.650184,Zip Code Centroid,0,,,110049202732,,10000,CRAWFORD,-84.585927
,,,Y,MI,,$0,,MI0000070,,AKRON,,05,,Y,0,1,,,,,,VVVVVVVVVVVVU,,43.487902,County Centroid,1,,9,110013132083,,30000,TUSCOLA,-83.436618
,,,Y,MI,,$0,,MI7920326,,AKRON - FAIRGROVE HIGH SCHOOL,48733,05,,N,0,0,,FAIRGROVE,,,,____________U,,43.523556,Zip Code Centroid,0,,2,110052135756,,10000,TUSCOLA,-83.551108
,,,Y,MI,,$0,,MI0000072,,AKRON TOWNSHIP,,05,,N,0,0,,,,,,____________U,,43.487902,County Centroid,0,,,110064360971,,30000,TUSCOLA,-83.436618
,,,Y,MI,,$0,,MI6322241,,AL DEEBY DODGE INC,48348,05,,N,0,0,,CLARKSTON,,,,____________U,,42.761126,Zip Code Centroid,0,,,110052171118,,10000,OAKLAND,-83.439499
,,,Y,MI,,$0,,MI2521502,,AL'S MARKET,48458,05,,N,0,1,,MOUNT MORRIS,,,,VVVVV_______U,,43.110996,Zip Code Centroid,0,,2,110049459518,,10000,GENESEE,-83.714253
,,,Y,MI,,$0,,MI2520463,,AL-MAR ORCHARDS,48433,05,,Y,0,1,,FLUSHING,,,,________VVVVU,,43.075977,Zip Code Centroid,1,,,110052070325,,10000,GENESEE,-83.860305
,,,Y,MI,,$0,,MI3520226,,ALABASTER BIBLE CHURCH,48763,05,,N,0,0,,TAWAS CITY,,,,____________U,,44.293915,Zip Code Centroid,0,,,110049459153,,10000,IOSCO,-83.5793
,,,Y,MI,,$0,,MI0000082,,ALABASTER TOWNSHIP,,05,,N,0,0,,,,,,____________U,,44.329482,County Centroid,0,,,110013132118,,30000,IOSCO,-82.849447
,,,Y,MI,,$0,,MI3320028,,ALAIEDON ELEMENTARY SCHOOL,48854,05,,Y,0,1,,MASON,,,,V___VVVVVVVVU,,42.58212,Zip Code Centroid,1,,4,110052711302,,10000,INGHAM,-84.558886
,,,Y,MI,,$0,,MI3920050,,ALAMO COMMUNITY CHURCH,49009,05,,N,0,0,,KALAMAZOO,,,,____________U,,42.30714,Zip Code Centroid,0,,,110049278857,,10000,KALAMAZOO,-85.773166
,,,Y,MI,,$0,,MI3920335,,ALAMO ELEMENTARY SCHOOL,49009,05,,N,0,0,,KALAMAZOO,,,,____________U,,42.30714,Zip Code Centroid,0,,,110049314130,,10000,KALAMAZOO,-85.773166
,,,Y,MI,,$0,,MI3920049,,ALAMO LITTLE LEAGUE,49009,05,,N,0,0,,KALAMAZOO,,,,____________U,,42.30714,Zip Code Centroid,0,,,110049278839,,10000,KALAMAZOO,-85.773166
26077,,,Y,MI,04050003,$0,,MI0060085,,ALAMO NURSING HOME,49009,05,49009,N,0,0,CENTER OF A FACILITY OR STATION,KALAMAZOO,,,26077,____________U,040500030903,42.38958,ADDRESS MATCHING-HOUSE NUMBER,0,KALAMAZOO COUNTY,,110012973283,8290 W C AVE,30,KALAMAZOO,-85.71318
26155,,,Y,MI,04080203,$0,,MI0040319 MI0040458 MI0040460,,ALANS MHP-DURAND,48429,05,48429,Y,0,1,ENTRANCE POINT OF A FACILITY OR STATION,DURAND,,,26155,_____V____V_U,040802030204,42.947045,ADDRESS MATCHING-HOUSE NUMBER,1,SHIAWASSEE COUNTY,9,110013091162,11785 E LANSING ROAD,50,SHIAWASSEE,-83.932846
,,,Y,MI,,$0,,MI2420232,,ALANSON CHURCH OF NAZARENE,49706,05,,N,0,0,,ALANSON,,,,____________U,,45.426236,Zip Code Centroid,0,,,110049287124,,10000,EMMET,-84.69612
,,,Y,MI,,$0,,MI2420357,,ALANSON COMMONS,49706,05,,N,0,0,,ALANSON,,,,V___________U,,45.426236,Zip Code Centroid,0,,4,110049182914,,10000,EMMET,-84.69612
,,,Y,MI,,$0,,MI2420131,,ALANSON DAIRY QUEEN,49706,05,,N,0,1,,ALANSON,,,,VV__VVVVVVV_U,,45.426236,Zip Code Centroid,0,,,110049422692,,10000,EMMET,-84.69612
,,,Y,MI,,$0,,MI2420246,,ALANSON EZ MART,49706,05,,N,0,0,,ALANSON,,,,____________U,,45.426236,Zip Code Centroid,0,,,110049299601,,10000,EMMET,-84.69612
,,,Y,MI,,$0,,MI2420330,,ALANSON FLOWING WELL,49706,05,,N,0,0,,,,,,____________U,,45.426236,Zip Code Centroid,0,,6,110049239025,,10000,EMMET,-84.69612
26047,,,Y,MI,04070004,$0,,MI0040129,,ALANSON MOBILE HOME PARK,49706,05,49706,N,0,0,ENTRANCE POINT OF A FACILITY OR STATION,ALANSON,,,26047,____________U,040700040208,45.454764,ADDRESS MATCHING-HOUSE NUMBER,0,EMMET COUNTY,,110013098780,6760 US 31 NORTH,50,EMMET,-84.783885
,,,Y,MI,,$0,,MI2420288,,ALANSON PUBLIC SCHOOL,49706,05,,Y,0,1,,ALANSON,,,,___VVVVVVVVVU,,45.426236,Zip Code Centroid,1,,2,110049342485,,10000,EMMET,-84.69612
,,,Y,MI,,$0,,MI2420021,,ALANSON RIVERSIDE BAR  INC,49706,05,,N,0,1,,ALANSON,,,,VVVVVVVVV___U,,45.426236,Zip Code Centroid,0,,11,110052069426,,10000,EMMET,-84.69612
,,,Y,MI,,$0,,MI2420299,,ALANSON UNITED METHODIST CHURCH,49706,05,,N,0,0,,ALANSON,,,,____________U,,45.426236,Zip Code Centroid,0,,,110049342733,,10000,EMMET,-84.69612
,,,Y,MI,,$0,,MI4120126,,ALASKA BAPTIST CHURCH,49316,05,,N,0,0,,CALEDONIA,,,,____________U,,42.746686,Zip Code Centroid,0,,,110049325681,,10000,KENT,-85.589123
,,,Y,MI,,$0,,MI4120125,,ALASKA COMMUNITY OF CHRIST,49302,05,,N,0,0,,ALTO,,,,____________U,,42.824712,Zip Code Centroid,0,,,110049325663,,10000,KENT,-85.408947
,,,Y,MI,,$0,,MI0520048,,ALBA ELEMENTARY SCHOOL,49611,05,,N,0,1,,ALBA,,,,VVVVVV______U,,44.99659,Zip Code Centroid,0,,44,110049223906,,10000,ANTRIM,-84.993095
,,,Y,MI,,$0,,MI0520110,,ALBA EZ MART,49611,05,,N,0,0,,ALBA,,,,V___________U,,44.99659,Zip Code Centroid,0,,2,110049303525,,10000,ANTRIM,-84.993095
,,,Y,MI,,$0,,MI0520084,,ALBA SPORTSMAN CLUB,49611,05,,Y,0,1,,ALBA,,,,VVVVV______VU,,44.99659,Zip Code Centroid,1,,2,110049303017,,10000,ANTRIM,-84.993095
,,,Y,MI,,$0,,MI0000088,,ALBEE TOWNSHIP,,05,,N,0,0,,,,,,____________U,,43.328267,County Centroid,0,,,110049080409,,30000,SAGINAW,-84.05541
,,,Y,MI,,$0,,MI6020093,,ALBERT TWP SYSTEM 1,49756,05,,N,0,1,,LEWISTON,,,,_______VV___U,,44.839144,Zip Code Centroid,0,,2,110052074394,,10000,MONTMORENCY,-84.259485
,,,Y,MI,,$0,,MI0000100,,ALBION,,05,,Y,0,1,,ALBION,,,,VVVVVVVVVVVVU,,42.247854,Place Name Centroid,1,,4,110012984716,,20000,CALHOUN,-84.75912
,,,Y,MI,,$0,,MI1320507,,ALBION BEER WELL GAS STATION,49222,05,,N,0,0,,,,,,____________U,,42.24299,County Centroid,0,,3,110051915898,,30000,CALHOUN,-85.012385
,,,Y,MI,,$0,,MI2620075,,ALBRIGHT SHORE EAGLES 3655,48612,05,,N,0,0,,BEAVERTON,,,,____________U,,43.902036,Zip Code Centroid,0,,,110049182709,,10000,GLADWIN,-84.62827
,,,Y,MI,,$0,,MI5820016,,ALCATRAZ INDUSTRY INC,48133,05,,N,0,0,,ERIE,,,,____________U,,41.799488,Zip Code Centroid,0,,,110049369955,,10000,MONROE,-83.493838
,,,Y,MI,,$0,,MI0120101,,ALCONA CO COMMISSION ON AGING,48742,05,,N,0,0,,LINCOLN,,,,____________U,,44.742547,Zip Code Centroid,0,,,110051944054,,10000,ALCONA,-83.414584
,,,Y,MI,,$0,,MI0120109,,ALCONA COMMUNITY HIGH SCHOOL,48742,05,,N,0,1,,LINCOLN,,,,___VVVV_____U,,44.742547,Zip Code Centroid,0,,3,110051944116,,10000,ALCONA,-83.414584
,,,Y,MI,,$0,,MI0120032,,ALCONA ELEMENTARY SCHOOL,48742,05,,N,0,1,,LINCOLN,,,,VVVVVV______U,,44.742547,Zip Code Centroid,0,,3,110052608291,,10000,ALCONA,-83.414584
,,,Y,MI,,$0,,MI0120196,,ALCONA HEAD START,48742,05,,N,0,0,,LINCOLN,,,,____________U,,44.742547,Zip Code Centroid,0,,,110052094915,,10000,ALCONA,-83.414584
,,,Y,MI,,$0,,MI1720567,,ALCONA HEALTH CENTER,49774,05,,N,0,0,,,,,,____________U,,46.175589,Zip Code Centroid,0,,,MI1720567,,10000,Chippewa,-84.321593
,,,Y,MI,,$0,,MI0120217,,ALCONA HEALTH CENTER - LINCOLN,48742,05,,N,0,0,,LINCOLN,,,,____________U,,44.742547,Zip Code Centroid,0,,,110049433724,,10000,ALCONA,-83.414584
,,,Y,MI,,$0,,MI0420146,,ALCONA HEALTH CENTER-OSSINEKE SERVICES,49766,05,,Y,0,1,,OSSINEKE,,,,_____VV____VU,,44.902374,Zip Code Centroid,1,,2,110052716263,,10000,ALPENA,-83.435859
,,,Y,MI,,$0,,MI0120198,,ALCONA MOTORS,48742,05,,N,0,0,,LINCOLN,,,,____________U,,44.742547,Zip Code Centroid,0,,,110049420649,,10000,ALCONA,-83.414584
,,,Y,MI,,$0,,MI0120172,,ALCONA PARK 2E,48737,05,,N,0,0,,GLENNIE,,,,____________U,,44.548797,Zip Code Centroid,0,,,110052621294,,10000,ALCONA,-83.721292
,,,Y,MI,,$0,,MI0120159,,ALCONA PARK 4E,48737,05,,N,0,0,,GLENNIE,,,,____________U,,44.548797,Zip Code Centroid,0,,,110051915362,,10000,ALCONA,-83.721292
,,,Y,MI,,$0,,MI0120164,,ALCONA PARK 4W,48737,05,,N,0,0,,GLENNIE,,,,____________U,,44.548797,Zip Code Centroid,0,,,110051915415,,10000,ALCONA,-83.721292
,,,Y,MI,,$0,,MI0120158,,ALCONA PARK 5E,48737,05,,N,0,0,,GLENNIE,,,,____________U,,44.548797,Zip Code Centroid,0,,,110051915353,,10000,ALCONA,-83.721292
,,,Y,MI,,$0,,MI0120157,,ALCONA PARK 6E,48737,05,,N,0,0,,GLENNIE,,,,____________U,,44.548797,Zip Code Centroid,0,,,110051915344,,10000,ALCONA,-83.721292
,,,Y,MI,,$0,,MI0120155,,ALCONA PARK 9E,48737,05,,N,0,0,,GLENNIE,,,,____________U,,44.548797,Zip Code Centroid,0,,,110051915326,,10000,ALCONA,-83.721292
,,,Y,MI,,$0,,MI0120150,,ALCONA PARK OFFICE,48737,05,,N,0,0,,GLENNIE,,,,____________U,,44.548797,Zip Code Centroid,0,,,110051915273,,10000,ALCONA,-83.721292
,,,Y,MI,,$0,,MI0120179,,ALCONA PARK PAVILION-11E,48737,05,,N,0,0,,GLENNIE,,,,____________U,,44.548797,Zip Code Centroid,0,,,110052621524,,10000,ALCONA,-83.721292
,,,Y,MI,,$0,,MI0120190,,ALCONA PARK SER.BUILD-NEW,48737,05,,N,0,0,,GLENNIE,,,,____________U,,44.548797,Zip Code Centroid,0,,,110052621935,,10000,ALCONA,-83.721292
,,,Y,MI,,$0,,MI0120149,,ALCONA PARK SER.BUILD-OLD,48737,05,,N,0,0,,GLENNIE,,,,____________U,,44.548797,Zip Code Centroid,0,,,110051915264,,10000,ALCONA,-83.721292
,,,Y,MI,,$0,,MI0120212,,ALCONA PARK WEST SERVICE BLDG.,48737,05,,N,0,0,,GLENNIE,,,,____________U,,44.548797,Zip Code Centroid,0,,,110049420890,,10000,ALCONA,-83.721292
,,,Y,MI,,$0,,MI0120121,,ALCONA TWP HALL,48721,05,,N,0,0,,BLACK RIVER,,,,____________U,,44.811318,Zip Code Centroid,0,,,110051944214,,10000,ALCONA,-83.344599
,,,Y,MI,,$0,,MI0520030,,ALDEN BAR AND GRILL,49612,05,,N,0,0,,ALDEN,,,,____________U,,44.831278,Zip Code Centroid,0,,,110049176789,,10000,ANTRIM,-85.203787
,,,Y,MI,,$0,,MI0520143,,ALDEN COMMUNITY METHODIST CHURCH,49612,05,,N,0,0,,ALDEN,,,,____________U,,44.831278,Zip Code Centroid,0,,2,110049186778,,10000,ANTRIM,-85.203787
,,,Y,MI,,$0,,MI2520880,,ALDOS BAKERY,48507,05,,Y,0,1,,FLINT,,,,V_______VVVVU,,42.964235,Zip Code Centroid,1,,2,110049294688,,10000,GENESEE,-83.735047
,,,Y,MI,,$0,,MI6322651,,ALEX'S 2 GO,48442,05,,N,0,0,,HOLLY,,,,____________U,,42.734186,Zip Code Centroid,0,,,110049439997,,10000,OAKLAND,-83.601417
,,,Y,MI,,$0,,MI6322858,,ALEX'S MARKET,48442,05,,N,0,0,,HOLLY,,,,____________U,,42.734186,Zip Code Centroid,0,,,110052224981,,10000,OAKLAND,-83.601417
,,,Y,MI,,$0,,MI0040216,,ALEXANDERS MOBILE VILLAGE,,05,,N,0,1,,,,,,__V_________U,,43.645233,County Centroid,0,,2,110012974781,,30000,ISABELLA,-84.839425
,,,Y,MI,,$0,,MI0220058,,ALGER FALLS MOTEL,49862,05,,N,0,1,,MUNISING,,,,__________VVU,,46.412264,Zip Code Centroid,0,,3,110049286777,,10000,ALGER,-86.61594
,,,Y,MI,,$0,,MI4120966,,ALGOMA AVENUE SUBWAY,49341,05,,N,0,0,,ROCKFORD,,,,____________U,,43.125532,Zip Code Centroid,0,,,110052740717,,10000,KENT,-85.510637
,,,Y,MI,,$0,,MI4120213,,ALGOMA BAPTIST CHURCH,49341,05,,N,0,0,,ROCKFORD,,,,____________U,,43.125532,Zip Code Centroid,0,,,110052709397,,10000,KENT,-85.510637
,,,Y,MI,,$0,,MI4120525,,ALGOMA CENTER,49341,05,,N,0,0,,ROCKFORD,,,,____________U,,43.125532,Zip Code Centroid,0,,,110049230211,,10000,KENT,-85.510637
,,,Y,MI,,$0,,MI4120478,,ALGOMA CHRISTIAN SCHOOL,49330,05,,N,0,0,,KENT CITY,,,,____________U,,43.234347,Zip Code Centroid,0,,,110052709761,,10000,KENT,-85.729829
,,,Y,MI,,$0,1,MI0040259,,ALGOMA ESTATES,,05,,N,0,1,,,,,,VVVVVVVVVVVVU,,43.032497,County Centroid,0,,6,110013094347,,30000,KENT,-85.547446
,,,Y,MI,,$0,,MI4120545,,ALGOMA TWP OFFICES,49341,05,,N,0,1,,ROCKFORD,,,,__________VVU,,43.125532,Zip Code Centroid,0,,4,110052743812,,10000,KENT,-85.510637
,,,Y,MI,,$0,,MI4120867,,ALGOMA TWP PARK CONCESSIONS,,05,,N,0,1,,,,,,__________VVU,,44.841084,State Centroid,0,,4,110052719689,,100000,,-85.65932
26147,,03/08/2006,Y,MI,04090002,$0,,MI0000110,"$11,034",ALGONAC,48001,05,48001,N,0,0,CENTER OF A FACILITY OR STATION,ALGONAC,,,26147,____________U,040900020101,42.61761,ADDRESS MATCHING-HOUSE NUMBER,0,ST. CLAIR COUNTY,,110028094112,622 COLUMBIA,30,SAINT CLAIR,-82.53626
,,,Y,MI,,$0,,MI3420271,,ALICE SPRINGS CAMPGROUND,48846,05,,N,0,0,,IONIA,,,,____________U,,42.984206,Zip Code Centroid,0,,,110052721532,,10000,IONIA,-85.087094
,,,Y,MI,,$0,,MI4120501,,ALL AMERICAN N COUNTRY STORE,49345,05,,N,0,0,,SPARTA,,,,____________U,,43.16057,Zip Code Centroid,0,,,110049333333,,10000,KENT,-85.643871
,,,Y,MI,,$0,,MI4121007,,ALL AMERICAN NORTH COUNTRY STORE #1,49330,05,,N,0,0,,,,,,____________U,,43.234347,Zip Code Centroid,0,,,MI4121007,,10000,Kent,-85.729829
,,,Y,MI,,$0,,MI1320287,,ALL AMERICAN PIZZA,49017,05,,N,0,0,,BATTLE CREEK,,,,____________U,,42.445095,Zip Code Centroid,0,,,110051962685,,10000,CALHOUN,-85.275866
,,,Y,MI,,$0,,MI4421406,,ALL DOGS CAN LLC,48446,05,,N,0,1,,,,,,__________VVU,,43.053031,Zip Code Centroid,0,,2,MI4421406,,10000,Lapeer,-83.344801
,,,Y,MI,,$0,,MI7020556,,ALL FOR KIDS,49544,05,,N,0,0,,GRAND RAPIDS,,,,____________U,,43.009541,Zip Code Centroid,0,,2,110049508092,,10000,OTTAWA,-85.706664
,,,Y,MI,,$0,,MI4720771,,ALL SAINTS LUTHERAN CHURCH,48353,05,,N,0,0,,HARTLAND,,,,____________U,,42.648563,Zip Code Centroid,0,,,110049516225,,10000,LIVINGSTON,-83.717655
,,,Y,MI,,$0,,MI2520487,,ALL STAR SPORTS BAR,48529,05,,Y,0,1,,BURTON,,,,VVVVV___VVVVU,,42.974678,Zip Code Centroid,1,,5,110049195526,,10000,GENESEE,-83.663228
,,,Y,MI,,$0,,MI6322290,,ALL STARS PRESCHOOL,48380,05,,N,0,0,,MILFORD,,,,____________U,,42.549487,Zip Code Centroid,0,,4,110052191506,,10000,OAKLAND,-83.692892
,,,Y,MI,,$0,,MI7020518,,ALL-IN-ONE BANQUET HALL,49460,05,,N,0,0,,WEST OLIVE,,,,____________U,,42.936016,Zip Code Centroid,0,,,110052184514,,10000,OTTAWA,-86.080617
,,,Y,MI,,$0,,MI0000120,,ALLEGAN,,05,,N,0,0,,ALLEGAN,,,,____________U,,42.530638,Place Name Centroid,0,,,110013132234,,20000,ALLEGAN,-85.846348
,,,Y,MI,,$0,,MI0320051,,ALLEGAN CO PARK-DUMONT LAKE,49010,05,,N,0,0,,ALLEGAN,,,,____________U,,42.492887,Zip Code Centroid,0,,,110049340021,,10000,ALLEGAN,-85.850787
,,,Y,MI,,$0,,MI0320359,,ALLEGAN CO PARK-LITTLEJOHN,49010,05,,N,0,0,,ALLEGAN,,,,____________U,,42.492887,Zip Code Centroid,0,,,110049340520,,10000,ALLEGAN,-85.850787
,,,Y,MI,,$0,,MI0320133,,ALLEGAN CO PARK-SILVER CREEK,49419,05,,N,0,1,,HAMILTON,,,,VVVVV__VVVVVU,,42.688812,Zip Code Centroid,0,,9,110052053077,,10000,ALLEGAN,-85.987488
,,,Y,MI,,$0,,MI0320180,,ALLEGAN CO PARK-WESTSIDE,49408,05,,N,0,0,,FENNVILLE,,,,____________U,,42.573555,Zip Code Centroid,0,,,110052704454,,10000,ALLEGAN,-86.114109
,,,Y,MI,,$0,,MI0320611,,ALLEGAN COUNTY GUN LAKE PARK,49344,05,,N,0,0,,SHELBYVILLE,,,,____________U,,42.57752,Zip Code Centroid,0,,,110049223522,,10000,ALLEGAN,-85.509906
,2,,Y,MI,,$0,,MI0000125,,ALLEGAN COUNTY SERVICES CENTER,,05,,Y,2,1,,,,,,VVVVVVVVVVVVU,,42.595788,County Centroid,1,,10,110012984770,,30000,ALLEGAN,-86.634745
,,,Y,MI,,$0,,MI0320488,,ALLEGAN JEHOVAHS WITNESS HALL,49010,05,,N,0,0,,ALLEGAN,,,,____________U,,42.492887,Zip Code Centroid,0,,,110049329080,,10000,ALLEGAN,-85.850787
,,,Y,MI,,$0,1,MI0040002,,ALLEGAN MOBILE ESTATES,,05,,N,0,0,,,,,,____________U,,42.595788,County Centroid,0,,,110013099501,,30000,ALLEGAN,-86.634745
,,,Y,MI,,$0,,MI0320527,,ALLEGAN TOWNSHIP HALL,49010,05,,N,0,1,,ALLEGAN,,,,V_______VV__U,,42.492887,Zip Code Centroid,0,,2,110049201984,,10000,ALLEGAN,-85.850787
,,,Y,MI,,$0,,MI0320536,,ALLEGAN TUBULAR PRODUCTS,49010,05,,N,0,1,,ALLEGAN,,,,VVVVVV______U,,42.492887,Zip Code Centroid,0,,2,110049202162,,10000,ALLEGAN,-85.850787
,,,Y,MI,,$0,,MI0320615,,ALLEGAN WELLNESS COMPLEX,49010,05,,N,0,0,,ALLEGAN,,,,____________U,,42.492887,Zip Code Centroid,0,,1,110049223611,,10000,ALLEGAN,-85.850787
,,,Y,MI,,$0,,MI3320200,,ALLEGIANCE HEALTH,48854,05,,Y,0,1,,,,,,VV_VV___VVVVU,,42.58212,Zip Code Centroid,1,,14,110049199247,,10000,INGHAM,-84.558886
,,,Y,MI,,$0,,MI3820821,,ALLEGIANT MEDICAL CENTER - GRASS LAKE,49240,05,,N,0,0,,GRASS LAKE,,,,____________U,,42.271353,Zip Code Centroid,0,,,110052728973,,10000,JACKSON,-84.187073
,,,Y,MI,,$0,,MI0000130,,ALLEN PARK,,05,,Y,0,1,,ALLEN PARK,,,,__________VVU,,42.259474,Place Name Centroid,1,,1,110013132305,,20000,WAYNE,-83.210391
,,,Y,MI,,$0,,MI7020171,,ALLENDALE KOA,49401,05,,N,0,0,,ALLENDALE,,,,____________U,,42.976116,Zip Code Centroid,0,,,110052142720,,10000,OTTAWA,-85.954105
,,,Y,MI,,$0,,MI0000127,,ALLENDALE TOWNSHIP MS4-OTTAWA,49401,05,,N,0,1,,ALLENDALE,,,26139,____________U,,42.976116,Zip Code Centroid,0,OTTAWA COUNTY,,110040046205,P.O. BOX 539,10000,OTTAWA,-85.954105
,,,Y,MI,,$0,,MI7420110,,ALLENTON TAVERN,48002,05,,N,0,1,,ALLENTON,,,,___VVVV_____U,,42.941973,Zip Code Centroid,0,,1,110049502221,,10000,ST. CLAIR,-82.92613
,,,Y,MI,,$0,,MI4620656,,ALLIED ICE,49286,05,,N,0,0,,TECUMSEH,,,,____________U,,42.002695,Zip Code Centroid,0,,,110049183879,,10000,LENAWEE,-83.953514
,,,Y,MI,,$0,,MI4720570,,"ALLOR MANUFACTURING, INC.",48116,05,,N,0,0,,BRIGHTON,,,,____________U,,42.500105,Zip Code Centroid,0,,,110049341351,,10000,LIVINGSTON,-83.790412
,,,Y,MI,,$0,,MI7921072,,ALLURE SALON,48723,05,,N,0,0,,CARO,,,,____________U,,43.488053,Zip Code Centroid,0,,,110063347267,,10000,TUSCOLA,-83.369477
,,,Y,MI,,$0,,MI2920142,,ALMA CINEMAS,48801,05,,N,0,0,,ALMA,,,,____________U,,43.382217,Zip Code Centroid,0,,,110049432841,,10000,GRATIOT,-84.656985
26057,,,Y,MI,04080202,$0,,MI0000140,,ALMA CITY OF,48801,05,48801,N,0,0,CENTER OF A FACILITY OR STATION,ALMA,,,26057,____________U,040802020312,43.37894,ADDRESS MATCHING-HOUSE NUMBER,0,GRATIOT COUNTY,,110013132323,525 E. SUPERIOR ST.,30,GRATIOT,-84.65458
,,,Y,MI,,$0,,MI2920115,,ALMA COMFORTABLE INN,48801,05,,N,0,0,,ALMA,,,,____________U,,43.382217,Zip Code Centroid,0,,,110049323371,,10000,GRATIOT,-84.656985
,,,Y,MI,,$0,,MI2920073,,ALMA COMMUNITY OF CHRIST,48801,05,,N,0,1,,ALMA,,,,_______VV___U,,43.382217,Zip Code Centroid,0,,5,110049368215,,10000,GRATIOT,-84.656985
,,,Y,MI,,$0,,MI8020084,,ALMENA UNITED METHODIST CHURCH,49079,05,,N,0,1,,PAW PAW,,,,____VV__VV__U,,42.257225,Zip Code Centroid,0,,5,110052254966,,10000,VAN BUREN,-85.888407
,,,Y,MI,,$0,,MI1020168,,ALMIRA TOWNSHIP BEACH PARK,49650,05,,N,0,1,,LAKE ANN,,,,VVVVV_______U,,44.732919,Zip Code Centroid,0,,,110063330293,,10000,BENZIE,-85.870434
,,,Y,MI,,$0,,MI1020162,,ALMIRA TOWNSHIP HALL & PARK,49650,05,,N,0,0,,LAKE ANN,,,,____________U,,44.732919,Zip Code Centroid,0,,,110049174567,,10000,BENZIE,-85.870434
,,,Y,MI,,$0,,MI1020163,,ALMIRA TOWNSHIP PARK PAVILION,49650,05,,N,0,0,,LAKE ANN,,,,____________U,,44.732919,Zip Code Centroid,0,,,110049174594,,10000,BENZIE,-85.870434
,,,Y,MI,,$0,,MI4421900,,ALMONT VINEYARD CHURCH,48003,05,,N,0,1,,ALMONT,,,,V_______VVVVU,,42.93554,Zip Code Centroid,0,,10,110049366306,,10000,LAPEER,-83.043257
,,,Y,MI,,$0,,MI0000150,,"ALMONT, VILLAGE OF",,05,,N,0,0,,,,,,____________U,,43.088633,County Centroid,0,,,110012984814,,30000,LAPEER,-83.224325
,,,Y,MI,,$0,,MI2720106,,ALPEN,49911,05,,Y,0,1,,BESSEMER,,,,____VV_____VU,,46.48021,Zip Code Centroid,1,,2,110052052719,,10000,GOGEBIC,-90.05138
,,,Y,MI,,$0,,MI2720083,,ALPEN VILLA,49911,05,,N,0,0,,BESSEMER,,,,____________U,,46.48021,Zip Code Centroid,0,,,110052705765,,10000,GOGEBIC,-90.05138
,,,Y,MI,,$0,,MI0420133,,ALPENA SPORTSMANS CLUB,49707,05,,N,0,0,,ALPENA,,,,____________U,,45.077161,Zip Code Centroid,0,,,110049202590,,10000,ALPENA,-83.451112
,,,Y,MI,,$0,,MI0000170,,ALPENA TOWNSHIP,,05,,N,0,0,,,,,,____________U,,44.894954,County Centroid,0,,3,110013129854,,30000,ALPENA,-83.426574
26007,,,Y,MI,04070006,$0,,MI0000160,,"ALPENA, CITY OF",49707,05,49707,N,0,0,ENTRANCE POINT OF A FACILITY OR STATION,ALPENA,,,26007,____________U,040700060605,45.079386,ADDRESS MATCHING-HOUSE NUMBER,0,ALPENA COUNTY,,110003630786,1003 LONG LAKE AVE,50,ALPENA,-83.431531
,1,,Y,MI,,$0,,MI0000180,,ALPHA,,05,,Y,1,1,,ALPHA,,,,VVVVVVVVVVVVU,,46.044033,Place Name Centroid,1,,6,110013129890,,20000,IRON,-88.378444
,,,Y,MI,,$0,,MI6920103,,ALPINE AUTO AUCTION,49735,05,,N,0,0,,GAYLORD,,,,____________U,,44.978894,Zip Code Centroid,0,,,110052107386,,10000,OTSEGO,-84.763955
,,,Y,MI,,$0,,MI2720135,,ALPINE CAMPGROUND,49911,05,,N,0,1,,BESSEMER,,,,VVVVV_______U,,46.48021,Zip Code Centroid,0,,2,110049182549,,10000,GOGEBIC,-90.05138
,,,Y,MI,,$0,,MI6920220,,ALPINE CROSSINGS MALL,49735,05,,N,0,1,,GAYLORD,,,,VVVVSV______U,,44.978894,Zip Code Centroid,0,,,110052242774,,10000,OTSEGO,-84.763955
,,,Y,MI,,$0,,MI4120245,,ALPINE ELEMENTARY SCHOOL,49321,05,,N,0,0,,COMSTOCK PARK,,,,____________U,,43.082105,Zip Code Centroid,0,,,110049217361,,10000,KENT,-85.679764
,,,Y,MI,,$0,,MI6920212,,ALPINE FAMILY DENTISTRY,49735,05,,N,0,0,,GAYLORD,,,,____________U,,44.978894,Zip Code Centroid,0,,,110052232534,,10000,OTSEGO,-84.763955
,,,Y,MI,,$0,,MI4120265,,ALPINE GOLF CLUB,49321,05,,N,0,0,,COMSTOCK PARK,,,,____________U,,43.082105,Zip Code Centroid,0,,,110049230097,,10000,KENT,-85.679764
,,,Y,MI,,$0,,MI5320148,,ALPINE MOTEL,49402,05,,Y,0,1,,BRANCH,,,,VVVVVVVVVVVSU,,43.945894,Zip Code Centroid,1,,2,110049483402,,10000,MASON,-86.093235
,,,Y,MI,,$0,,MI4120573,,ALPINE SPORTS COMPLEX,49321,05,,N,0,0,,COMSTOCK PARK,,,,____________U,,43.082105,Zip Code Centroid,0,,,110049251787,,10000,KENT,-85.679764
,,,Y,MI,,$0,,MI6320830,,ALPINE VALLEY SKI AREA,48383,05,,N,0,0,,WHITE LAKE,,,,____________U,,42.655242,Zip Code Centroid,0,,,110049371210,,10000,OAKLAND,-83.537627
,,,Y,MI,,$0,,MI6320831,,ALPINE VALLEY SKI PATROL,48383,05,,N,0,0,,WHITE LAKE,,,,____________U,,42.655242,Zip Code Centroid,0,,,110049371247,,10000,OAKLAND,-83.537627
,,,Y,MI,,$0,,MI6920057,,ALPINE VILLAGE BAPTIST CHURCH,49735,05,,N,0,0,,GAYLORD,,,,____________U,,44.978894,Zip Code Centroid,0,,,110049374789,,10000,OTSEGO,-84.763955
,,,Y,MI,,$0,,MI4120255,,"ALT, CARL & SONS - AG LABOR",49321,05,,N,0,0,,COMSTOCK PARK,,,,____________U,,43.082105,Zip Code Centroid,0,,,110049217539,,10000,KENT,-85.679764
,,,Y,MI,,$0,,MI4120829,,ALTEN OAKS BLDG B,49504,05,,N,0,0,,GRAND RAPIDS,,,,____________U,,42.97859,Zip Code Centroid,0,,,110049204231,,10000,KENT,-85.711186
,,,Y,MI,,$0,,MI4120830,,ALTEN OAKS BLDG C,49301,05,,N,0,0,,ADA,,,,____________U,,42.965599,Zip Code Centroid,0,,,110049204259,,10000,KENT,-85.480171
,,,Y,MI,,$0,,MI4120831,,ALTEN OAKS BLDG D,49512,05,,N,0,0,,GRAND RAPIDS,,,,____________U,,42.887757,Zip Code Centroid,0,,,110049204277,,10000,KENT,-85.568368
,,,Y,MI,,$0,,MI4120828,,ALTEN OAKS BLDG. A,49512,05,,N,0,0,,GRAND RAPIDS,,,,____________U,,42.887757,Zip Code Centroid,0,,,110049204213,,10000,KENT,-85.568368
,,,Y,MI,,$0,,MI4120432,,ALTO AMERICAN LEGION HALL,49302,05,,N,0,1,,ALTO,,,,_________VV_U,,42.824712,Zip Code Centroid,0,,6,110049301144,,10000,KENT,-85.408947
,,,Y,MI,,$0,,MI4120916,,ALTO APOSTOLIC CHURCH,49302,05,,N,0,1,,ALTO,,,,__________VVU,,42.824712,Zip Code Centroid,0,,3,110049518376,,10000,KENT,-85.408947
,,,Y,MI,,$0,,MI4120027,,ALTO ELEMENTARY SCHOOL,49302,05,,N,0,0,,ALTO,,,,____________U,,42.824712,Zip Code Centroid,0,,,110049432360,,10000,KENT,-85.408947
,,,Y,MI,,$0,,MI4120821,,ALTO MARATHON,49302,05,,N,0,0,,ALTO,,,,____________U,,42.824712,Zip Code Centroid,0,,,110049204053,,10000,KENT,-85.408947
,,,Y,MI,,$0,4,MI0040681,,ALTO MEADOWS,,05,,Y,0,1,,,,,,_________V_VU,,43.032497,County Centroid,1,,8,110016810842,,30000,KENT,-85.547446
,,,Y,MI,,$0,,MI4720642,,ALWAYS UNIQUE CHILDCARE,48189,05,,N,0,0,,WHITMORE LAKE,,,,____________U,,42.45217,Zip Code Centroid,0,,,110049294223,,10000,LIVINGSTON,-83.799432
,,,Y,MI,,$0,,MI6820115,,AM LEG WALLY BARTLEY POST 162,48636,05,,N,0,0,,LUZERNE,,,,____________U,,44.61586,Zip Code Centroid,0,,,110049415192,,10000,OSCODA,-84.267811
,,,Y,MI,,$0,,MI8120606,,AM PROPERTY MANAGEMENT LLC,48108,05,,N,0,0,,ANN ARBOR,,,,____________U,,42.225886,Zip Code Centroid,0,,3,110052353289,,10000,WASHTENAW,-83.747133
,,,Y,MI,,$0,,MI2920137,,AMAZING GRACE CHURCH,48615,05,,N,0,0,,BRECKENRIDGE,,,,____________U,,43.525117,Zip Code Centroid,0,,,110049323665,,10000,GRATIOT,-84.454975
,,,Y,MI,,$0,,MI4520051,,AMBER SANDS RESORT,49653,05,,Y,0,1,,LAKE LEELANAU,,,,___________VU,,44.983505,Zip Code Centroid,1,,,110049208344,,10000,LEELANAU,-85.736995
,,,Y,MI,,$0,,MI5920057,,AMBLE ROADHOUSE,49329,05,,N,0,0,,HOWARD CITY,,,,____________U,,43.38869,Zip Code Centroid,0,,,110052123439,,10000,MONTCALM,-85.580647
,,,Y,MI,,$0,,MI3520117,,AMER. LEG. GLENN STALEY PT.422,48739,05,,N,0,0,,HALE,,,,____________U,,44.349817,Zip Code Centroid,0,,,110049518884,,10000,IOSCO,-83.93169
,,,Y,MI,,$0,,MI1420212,,AMERI-KART,49031,05,,N,0,0,,CASSOPOLIS,,,,____________U,,41.90853,Zip Code Centroid,0,,,110049242020,,10000,CASS,-86.00505
,,,Y,MI,,$0,,MI5220199,,AMERICA'S BEST VALUE MOTEL,49855,05,,N,0,0,,MARQUETTE,,,,____________U,,46.544838,Zip Code Centroid,0,,,110052131625,,10000,MARQUETTE,-87.435653
,,,Y,MI,,$0,,MI3920398,,AMERICAN CAMPGROUND A-FRAME,49009,05,,N,0,0,,KALAMAZOO,,,,____________U,,42.30714,Zip Code Centroid,0,,6,110049346631,,10000,KALAMAZOO,-85.773166
,,,Y,MI,,$0,,MI3920051,,AMERICAN CAMPGROUND MAIN LODGE,49009,05,,N,0,1,,KALAMAZOO,,,,__VV________U,,42.30714,Zip Code Centroid,0,,8,110049278875,,10000,KALAMAZOO,-85.773166
,,,Y,MI,,$0,,MI3920350,,AMERICAN CAMPGROUND POOL,49009,05,,N,0,1,,KALAMAZOO,,,,__VV________U,,42.30714,Zip Code Centroid,0,,8,110049265512,,10000,KALAMAZOO,-85.773166
,,,Y,MI,,$0,,MI4720823,,"AMERICAN COMPOUNDING SPECIALTIES, LLC",48116,05,,N,0,0,,BRIGHTON,,,,____________U,,42.500105,Zip Code Centroid,0,,,110049194554,,10000,LIVINGSTON,-83.790412
,,,Y,MI,,$0,,MI5920034,,AMERICAN GAS & OIL,48884,05,,Y,0,1,,SHERIDAN,,,,VVVVVVV__VVVU,,43.20401,Zip Code Centroid,1,,3,110052202077,,10000,MONTCALM,-85.054302
,,,Y,MI,,$0,,MI5920405,,AMERICAN GAS & OIL,49329,05,,Y,0,1,,HOWARD CITY,,,,_VVV_____VSSU,,43.38869,Zip Code Centroid,1,,6,110052156867,,10000,MONTCALM,-85.580647
,,,Y,MI,,$0,,MI7520223,,AMERICAN INN,49091,05,,Y,0,1,,STURGIS,,,,VVVVV___VV_VU,,41.816077,Zip Code Centroid,1,,11,110052149215,,10000,ST. JOSEPH,-85.42365
,,,Y,MI,,$0,,MI4720144,,AMERICAN LEGION,48169,05,,N,0,0,,PINCKNEY,,,,____________U,,42.422773,Zip Code Centroid,0,,,110049343929,,10000,LIVINGSTON,-83.904607
,,,Y,MI,,$0,,MI6420288,,AMERICAN LEGION,49421,05,,N,0,0,,HESPERIA,,,,____________U,,43.556769,Zip Code Centroid,0,,2,110052064145,,10000,OCEANA,-86.079342
,,,Y,MI,,$0,,MI2521130,,AMERICAN LEGION,48504,05,,N,0,0,,FLINT,,,,____________U,,43.05004,Zip Code Centroid,0,,,110049257969,,10000,GENESEE,-83.742088
,,,Y,MI,,$0,,MI1420022,,AMERICAN LEGION  #365,49112,05,,N,0,1,,EDWARDSBURG,,,,____VVVVVVVVU,,41.807363,Zip Code Centroid,0,,6,110049290334,,10000,CASS,-86.016411
,,,Y,MI,,$0,,MI3720032,,AMERICAN LEGION  POST 240,49310,05,,N,0,1,,BLANCHARD,,,,_______VV___U,,43.546728,Zip Code Centroid,0,,3,110049328072,,10000,ISABELLA,-85.087913
,,,Y,MI,,$0,,MI7520077,,AMERICAN LEGION #170,49093,05,,N,0,0,,THREE RIVERS,,,,____________U,,41.932417,Zip Code Centroid,0,,,110052224099,,10000,ST. JOSEPH,-85.659734
,,,Y,MI,,$0,,MI7520205,,AMERICAN LEGION #223,49042,05,,N,0,0,,CONSTANTINE,,,,____________U,,41.831095,Zip Code Centroid,0,,2,110049431879,,10000,ST. JOSEPH,-85.790105
,,,Y,MI,,$0,,MI3120086,,AMERICAN LEGION #291,49945,05,,N,0,1,,LAKE LINDEN,,,,VVVVV_______U,,47.17082,Zip Code Centroid,0,,3,110049249112,,10000,HOUGHTON,-88.380767
,,,Y,MI,,$0,,MI1720078,,"AMERICAN LEGION HALL, POST 393",49748,05,,N,0,1,,HULBERT,,,,VVVVVVVVVVVVU,,46.352635,Zip Code Centroid,0,,14,110049230872,,10000,CHIPPEWA,-85.150357
,,,Y,MI,,$0,,MI7220169,,AMERICAN LEGION POST #245 PRUDENVILLE,48651,05,,N,0,0,,PRUDENVILLE,,,,____________U,,44.295077,Zip Code Centroid,0,,,110052204468,,10000,ROSCOMMON,-84.64697
,,,Y,MI,,$0,,MI3820595,,AMERICAN LEGION POST #29,49202,05,,N,0,0,,JACKSON,,,,____________U,,42.273665,Zip Code Centroid,0,,,110049355988,,10000,JACKSON,-84.423065
,,,Y,MI,,$0,,MI4920316,,AMERICAN LEGION POST #290,49827,05,,N,0,0,,ENGADINE,,,,____________U,,46.129973,Zip Code Centroid,0,,,110049281031,,10000,MACKINAC,-85.577381
,,,Y,MI,,$0,,MI1120041,,AMERICAN LEGION POST #344,49113,05,,N,0,0,,GALIEN,,,,____________U,,41.812578,Zip Code Centroid,0,,,110052085872,,10000,BERRIEN,-86.477635
,,,Y,MI,,$0,,MI5220171,,AMERICAN LEGION POST #349,49833,05,,N,0,0,,LITTLE LAKE,,,,____________U,,46.29451,Zip Code Centroid,0,,,110052169443,,10000,MARQUETTE,-87.318113
,,,Y,MI,,$0,,MI6520204,,AMERICAN LEGION POST #370,48756,05,,N,0,0,,PRESCOTT,,,,____________U,,44.198161,Zip Code Centroid,0,,,110052101177,,10000,OGEMAW,-84.025235
,,,Y,MI,,$0,,MI1120221,,AMERICAN LEGION POST #518,49119,05,,N,0,0,,SAWYER,,,,____________U,,41.872481,Zip Code Centroid,0,,,110049332986,,10000,BERRIEN,-86.532869
,,,Y,MI,,$0,,MI1820241,,AMERICAN LEGION POST #558,48622,05,,N,0,0,,FARWELL,,,,____________U,,43.843167,Zip Code Centroid,0,,,110049392769,,10000,CLARE,-84.857373
,,,Y,MI,,$0,,MI4120397,,AMERICAN LEGION POST 123,49330,05,,N,0,0,,KENT CITY,,,,____________U,,43.234347,Zip Code Centroid,0,,,110052079790,,10000,KENT,-85.729829
,,,Y,MI,,$0,,MI3420078,,AMERICAN LEGION POST 182,48845,05,,N,0,0,,HUBBARDSTON,,,,____________U,,43.093917,Zip Code Centroid,0,,,110049347854,,10000,IONIA,-84.818776
,,,Y,MI,,$0,,MI6020131,,AMERICAN LEGION POST 198,49756,05,,N,0,0,,LEWISTON,,,,____________U,,44.839144,Zip Code Centroid,0,,,110049381548,,10000,MONTMORENCY,-84.259485
,,,Y,MI,,$0,,MI7820220,,AMERICAN LEGION POST 248,48848,05,,N,0,1,,LAINGSBURG,,,,_____VVV____U,,42.88104,Zip Code Centroid,0,,2,110052111166,,10000,SHIAWASSEE,-84.408034
,,,Y,MI,,$0,,MI3220146,,AMERICAN LEGION POST 293,48759,05,,N,0,0,,SEBEWAING,,,,____________U,,43.702332,Zip Code Centroid,0,,,110049339346,,10000,HURON,-83.471059
,,,Y,MI,,$0,,MI6220055,,AMERICAN LEGION POST 381,49337,05,,Y,0,1,,NEWAYGO,,,,____VVVVVVVVU,,43.426526,Zip Code Centroid,1,,8,110052058982,,10000,NEWAYGO,-85.782171
,,,Y,MI,,$0,,MI7220072,,AMERICAN LEGION POST 416 ST. HELEN,48656,05,,N,0,0,,SAINT HELEN,,,,____________U,,44.356174,Zip Code Centroid,0,,,110049439014,,10000,ROSCOMMON,-84.427916
,,,Y,MI,,$0,,MI0820072,,AMERICAN LEGION POST 484,49060,05,,N,0,0,,HICKORY CORNERS,,,,____________U,,42.44166,Zip Code Centroid,0,,,110049175968,,10000,BARRY,-85.392707
,,,Y,MI,,$0,,MI5820020,,AMERICAN LEGION POST 514,48140,05,,N,0,0,,IDA,,,,____________U,,41.888902,Zip Code Centroid,0,,,110049370033,,10000,MONROE,-83.572603
,,,Y,MI,,$0,,MI5420182,,AMERICAN LEGION POST 554,49336,05,,Y,0,1,,MORLEY,,,,_____VVVV__VU,,43.49413,Zip Code Centroid,1,,,110049401884,,10000,MECOSTA,-85.433204
,,,Y,MI,,$0,,MI6322220,,AMERICAN LEGION WALTER FRASER POST 108,48371,05,,N,0,0,,OXFORD,,,,____________U,,42.897606,Zip Code Centroid,0,,,110052105654,,10000,OAKLAND,-83.326031
,,,Y,MI,,$0,,MI1020102,,AMERICAN RESORT & CAMPGROUND,49640,05,,N,0,0,,HONOR,,,,____________U,,44.674928,Zip Code Centroid,0,,,110049267002,,10000,BENZIE,-86.01277
,,,Y,MI,,$0,,MI1120398,,AMERICAN VETS,49120,05,,N,0,0,,NILES,,,,____________U,,41.83129,Zip Code Centroid,0,,,110049355737,,10000,BERRIEN,-86.165982
,,,Y,MI,,$0,,MI4020214,,AMERICAN WASTE,49646,05,,N,0,0,,KALKASKA,,,,____________U,,44.710744,Zip Code Centroid,0,,1,110063336439,,10000,KALKASKA,-85.114129
,,,Y,MI,,$0,,MI0220270,,AMERICINN - MUNISING,49895,05,,Y,0,1,,WETMORE,,,,__________VVU,,46.37974,Zip Code Centroid,1,,2,110052737874,,10000,ALGER,-86.620037
,,,Y,MI,,$0,,MI7620150,,AMETEK PATRIOT SENSOR CONTROL,48466,05,,N,0,1,,PECK,,,,______VV____U,,43.258518,Zip Code Centroid,0,,1,110052063672,,10000,SANILAC,-82.823533
,,,Y,MI,,$0,,MI8120324,,AMI - MANCHESTER,48158,05,,N,0,0,,MANCHESTER,,,,____________U,,42.14581,Zip Code Centroid,0,,,110052178068,,10000,WASHTENAW,-84.073553
,,,Y,MI,,$0,,MI6820206,,AMI INDUSTRIES,49756,05,,N,0,0,,LEWISTON,,,,____________U,,44.839144,Zip Code Centroid,0,,,110049439639,,10000,OSCODA,-84.259485
,,,Y,MI,,$0,,MI1420355,,AMI MARATHON,49130,05,,N,0,0,,UNION,,,,V___________U,,41.786012,Zip Code Centroid,0,,6,110063342075,,10000,CASS,-85.849716
,,,Y,MI,,$0,,MI7520221,,AMIGO CENTER,49091,05,,N,0,1,,STURGIS,,,,VVVV_VVVV___U,,41.816077,Zip Code Centroid,0,,22,110052149180,,10000,ST. JOSEPH,-85.42365
,,,Y,MI,,$0,,MI7520038,,AMIGO PARK,49091,05,,N,0,0,,STURGIS,,,,____________U,,41.816077,Zip Code Centroid,0,,2,110052120584,,10000,ST. JOSEPH,-85.42365
,,,Y,MI,,$0,,MI3020308,,AMISH PRACTICAL SCHOOL,49232,05,,Y,0,1,,CAMDEN,,,,SSSV_VVVVVVVU,,41.724269,Zip Code Centroid,1,,51,110063330630,,10000,HILLSDALE,-84.631169
,,,Y,MI,,$0,,MI7220244,,AMVET DEPT OF MICHIGAN,48653,05,,N,0,1,,ROSCOMMON,,,,_VVV________U,,44.529886,Zip Code Centroid,0,,4,110052240703,,10000,ROSCOMMON,-84.53012
,,,Y,MI,,$0,,MI7220078,,AMVET LODGE,48653,05,,N,0,1,,ROSCOMMON,,,,_VVV________U,,44.529886,Zip Code Centroid,0,,4,110049439112,,10000,ROSCOMMON,-84.53012
,,,Y,MI,,$0,,MI7220258,,AMVET POST 13,48653,05,,N,0,0,,ROSCOMMON,,,,____________U,,44.529886,Zip Code Centroid,0,,,110052131518,,10000,ROSCOMMON,-84.53012
,,,Y,MI,,$0,,MI4320142,,AMVETS POST # 1988,49304,05,,N,0,1,,BALDWIN,,,,____VVVVVVV_U,,43.931797,Zip Code Centroid,0,,1,110063354294,,10000,LAKE,-85.82237
,,,Y,MI,,$0,,MI1620395,,ANCHOR IN MARINA OF CHEBOYGAN,49721,05,,N,0,1,,CHEBOYGAN,,,,V___VVVVVV__U,,45.589655,Zip Code Centroid,0,,8,110052088780,,10000,CHEBOYGAN,-84.481787
,,,Y,MI,,$0,,MI0520049,,ANCHOR LAMINA AMERICA,49615,05,,N,0,0,,BELLAIRE,,,,____________U,,44.957067,Zip Code Centroid,0,,,110049223924,,10000,ANTRIM,-85.165498
,,,Y,MI,,$0,,MI6322938,,ANDERSEN MATERIAL HANDLING,48383,05,,N,0,0,,,,,,____________U,,42.655242,Zip Code Centroid,0,,,MI6322938,,10000,Oakland,-83.537627
,,,Y,MI,,$0,,MI5920609,,ANDERSON GIRLS & ORCHARD,48888,05,,Y,0,1,,STANTON,,,,____VVVVVVVVU,,43.296592,Zip Code Centroid,1,,4,110052182847,,10000,MONTCALM,-85.074312
,,,Y,MI,,$0,,MI4120950,,ANDERSON WOODS,49546,05,,N,0,0,,GRAND RAPIDS,,,,____________U,,42.926886,Zip Code Centroid,0,,,110049296999,,10000,KENT,-85.541428
,,,Y,MI,,$0,,MI6320793,,ANDERSONVILLE COMM CHURCH,48350,05,,N,0,0,,DAVISBURG,,,,____________U,,42.749226,Zip Code Centroid,0,,,110052215848,,10000,OAKLAND,-83.527394
,,,Y,MI,,$0,,MI6320792,,ANDERSONVILLE ELEM/CCS,48346,05,,N,0,1,,CLARKSTON,,,,VVVVVV______U,,42.722994,Zip Code Centroid,0,,87,110052215820,,10000,OAKLAND,-83.417406
,,,Y,MI,,$0,,MI0040246,,ANDREWS ESTATES,,05,,N,0,0,,,,,,____________U,,42.246266,County Centroid,0,,,110012975094,,30000,KALAMAZOO,-85.532854
,,,Y,MI,,$0,,MI0040003,,ANDREWS MOBILE HOME PARK,,05,,N,0,0,,,,,,____________U,,42.595788,County Centroid,0,,,110013099538,,30000,ALLEGAN,-86.634745
26021,,,Y,MI,04050001,$0,,MI0000210,,ANDREWS UNIVERSITY,49104,05,49103,N,0,1,ENTRANCE POINT OF A FACILITY OR STATION,BERRIEN SPRINGS,,,26021,VVVVVVV_____U,040500012604,41.96627,ADDRESS MATCHING-HOUSE NUMBER,0,BERRIEN COUNTY,3,110013910731,DAIRY ROAD,50,BERRIEN,-86.35914
,,,Y,MI,,$0,,MI7220069,,ANDY'S PIZZERIA,48653,05,,N,0,1,,ROSCOMMON,,,,__VVVV______U,,44.529886,Zip Code Centroid,0,,3,110049438934,,10000,ROSCOMMON,-84.53012
,3,,Y,MI,,$0,,MI4920277,,ANG-GIO'S RESTAURANT,49719,05,,N,3,1,,CEDARVILLE,,,,V__VV_______U,,45.988543,Zip Code Centroid,0,,8,110052086522,,10000,MACKINAC,-84.36682
,,,Y,MI,,$0,,MI1220029,,ANGEL COVE PARK,49036,05,,N,0,0,,COLDWATER,,,,____________U,,41.96712,Zip Code Centroid,0,,,110052693206,,10000,BRANCH,-85.027728
,,,Y,MI,,$0,,MI3520231,,ANGELICS ATTIC,48763,05,,N,0,0,,TAWAS CITY,,,,____________U,,44.293915,Zip Code Centroid,0,,,110052059419,,10000,IOSCO,-83.5793
,,,Y,MI,,$0,,MI4720589,,ANGELOS PARTY STORE,48843,05,,N,0,0,,HOWELL,,,,____________U,,42.565791,Zip Code Centroid,0,,,110049237848,,10000,LIVINGSTON,-83.944662
,,,Y,MI,,$0,,MI0000220,,ANN ARBOR,,05,,N,0,1,,ANN ARBOR,,,,___V________U,,42.275641,Place Name Centroid,0,,2,110017724382,,20000,WASHTENAW,-83.731333
,,,Y,MI,,$0,,MI8120422,,ANN ARBOR BAPTIST CHURCH,48103,05,,N,0,1,,ANN ARBOR,,,,_VV_VVVVVVV_U,,42.27524,Zip Code Centroid,0,,6,110052391782,,10000,WASHTENAW,-83.799274
,,,Y,MI,,$0,,MI8120531,,ANN ARBOR CHRISTIAN SCHOOL,48108,05,,N,0,0,,ANN ARBOR,,,,____________U,,42.225886,Zip Code Centroid,0,,,110052286824,,10000,WASHTENAW,-83.747133
,,,Y,MI,,$0,,MI8120537,,ANN ARBOR EAGLES,48103,05,,N,0,1,,ANN ARBOR,,,,_VV_____VV__U,,42.27524,Zip Code Centroid,0,,5,110052286931,,10000,WASHTENAW,-83.799274
,,,Y,MI,,$0,,MI8120568,,ANN ARBOR MOOSE LODGE,48130,05,,N,0,0,,DEXTER,,,,____________U,,42.316243,Zip Code Centroid,0,,,110052372357,,10000,WASHTENAW,-83.899265
26161,,,Y,MI,04090005,$0,,MI0000221,,ANN ARBOR TOWNSHIP,48105,05,48105,N,0,1,CENTER OF A FACILITY OR STATION,ANN ARBOR,,,26161,___VVV______U,040900050402,42.32885,ADDRESS MATCHING-HOUSE NUMBER,0,WASHTENAW COUNTY,2,110013129952,3792 PONTIAC TRAIL,30,WASHTENAW,-83.73305
,,,Y,MI,,$0,,MI6320719,,ANNIE MACPHEE'S,48462,05,,N,0,0,,ORTONVILLE,,,,____________U,,42.888844,Zip Code Centroid,0,,,110052064225,,10000,OAKLAND,-83.371704
,,,Y,MI,,$0,,MI5120131,,ANNIE'S KOZY KITCHEN,49689,05,,N,0,0,,WELLSTON,,,,____________U,,44.188245,Zip Code Centroid,0,,2,110049410482,,10000,MANISTEE,-85.776498
,,,Y,MI,,$0,,MI6320377,,ANNIE'S PARTY SHOPPE,48382,05,,N,0,0,,COMMERCE TOWNSHIP,,,,____________U,,42.585576,Zip Code Centroid,0,,,110052143426,,10000,OAKLAND,-83.499044
,,,Y,MI,,$0,,MI3320162,,ANTIQUES MARKET OF WILLIAMSTON,48895,05,,Y,0,1,,WILLIAMSTON,,,,V_______VVVVU,,42.690479,Zip Code Centroid,1,,4,110049269055,,10000,INGHAM,-84.269431
,,,Y,MI,,$0,,MI5420226,,ANTLER'S FIRESIDE GRILL,49346,05,,N,0,0,,STANWOOD,,,,____________U,,43.586881,Zip Code Centroid,0,,2,110049383939,,10000,MECOSTA,-85.305252
,,,Y,MI,,$0,,MI7820003,,ANTRIM BAPTIST CHURCH,48418,05,,N,0,0,,BYRON,,,,____________U,,42.832073,Zip Code Centroid,0,,4,110052169354,,10000,SHIAWASSEE,-83.944784
,,,Y,MI,,$0,,MI0520021,,ANTRIM COUNTY BARNES PARK,49627,05,,N,0,1,,EASTPORT,,,,VVVVVVVV____U,,45.107988,Zip Code Centroid,0,,,110049176618,,10000,ANTRIM,-85.351765
,,,Y,MI,,$0,,MI0520124,,ANTRIM COUNTY BARNES PARK NEW BATH HOUSE,49627,05,,N,0,1,,EASTPORT,,,,VVVVVVVVVVV_U,,45.107988,Zip Code Centroid,0,,,110049315932,,10000,ANTRIM,-85.351765
,,,Y,MI,,$0,,MI0520144,,ANTRIM COUNTY BARNES PARK OFFICE,49627,05,,N,0,0,,EASTPORT,,,,____________U,,45.107988,Zip Code Centroid,0,,,110049186796,,10000,ANTRIM,-85.351765
,,,Y,MI,,$0,,MI0520145,,ANTRIM COUNTY BARNES PARK PICNIC AREA,49627,05,,N,0,1,,EASTPORT,,,,VVVVVVVV____U,,45.107988,Zip Code Centroid,0,,,110049186812,,10000,ANTRIM,-85.351765
,,,Y,MI,,$0,,MI0520008,,ANTRIM DELLS GOLF CLUB,49729,05,,N,0,1,,ELLSWORTH,,,,___VVVVV____U,,45.159824,Zip Code Centroid,0,,,110052716726,,10000,ANTRIM,-85.347689
,,,Y,MI,,$0,,MI1920563,,APEX ONE MOTEL,48906,05,,N,0,0,,LANSING,,,,____________U,,42.765514,Zip Code Centroid,0,,,110052070762,,10000,CLINTON,-84.616266
,,,Y,MI,,$0,,MI6320165,,APOLLO CENTER/HVS,48357,05,,N,0,0,,HIGHLAND,,,,____________U,,42.653259,Zip Code Centroid,0,,,110052087996,,10000,OAKLAND,-83.649471
,,,Y,MI,,$0,,MI1420178,,APOSTOLIC LIGHTHOUSE,49047,05,,N,0,0,,DOWAGIAC,,,,____________U,,42.0147,Zip Code Centroid,0,,,110052727279,,10000,CASS,-86.06904
,,,Y,MI,,$0,,MI8120488,,APOSTOLIC LUTHERAN CHURCH,48167,05,,N,0,0,,NORTHVILLE,,,,____________U,,42.427821,Zip Code Centroid,0,,,110052382596,,10000,WASHTENAW,-83.607512
,,,Y,MI,,$0,,MI1120363,,APOSTOLIC TABERNACLE,49022,05,,N,0,0,,BENTON HARBOR,,,,____________U,,42.129129,Zip Code Centroid,0,,,110049407487,,10000,BERRIEN,-86.402862
26121,,,Y,MI,04060102,$0,,MI0040355,,APPLE CARR VILLAGE,49442,05,49442,N,0,1,ENTRANCE POINT OF A FACILITY OR STATION,MUSKEGON,,,26121,______VV____U,040601021004,43.243903,ADDRESS MATCHING-HOUSE NUMBER,0,MUSKEGON COUNTY,4,110013092615,516 SOUTH COURTLAND LANE,50,MUSKEGON,-86.125809
,,,Y,MI,,$0,,MI1320391,,APPLE CORE CAFE,49017,05,,N,0,0,,BATTLE CREEK,,,,____________U,,42.445095,Zip Code Centroid,0,,,110049337623,,10000,CALHOUN,-85.275866
,,,Y,MI,,$0,,MI3820402,,APPLE CREEK PARK,49240,05,,N,0,0,,GRASS LAKE,,,,____________U,,42.271353,Zip Code Centroid,0,,,110049303972,,10000,JACKSON,-84.187073
,,,Y,MI,,$0,,MI0040664,,APPLE GROVE ESTATES,,05,,N,0,1,,,,,,_VV_________U,,43.032497,County Centroid,0,,5,110013087346,,30000,KENT,-85.547446
,,,Y,MI,,$0,,MI5020061,,APPLE ORCHARD INN,48094,05,,N,0,1,,WASHINGTON,,,,______V_____U,,42.734461,Zip Code Centroid,0,,4,110049270132,,10000,MACOMB,-83.028731
,,,Y,MI,,$0,,MI7820360,,APPLEBEE'S,48817,05,,N,0,0,,CORUNNA,,,,____________U,,42.982792,Zip Code Centroid,0,,,110049374039,,10000,SHIAWASSEE,-84.119269
,,,Y,MI,,$0,,MI7620119,,APPLEGATE INN-JOE'S PLACE,48401,05,,N,0,1,,APPLEGATE,,,,____VVVVVV__U,,43.363056,Zip Code Centroid,0,,7,110052213261,,10000,SANILAC,-82.622722
,,,Y,MI,,$0,,MI7620094,,APPLEGATE WESLEYAN,48401,05,,N,0,1,,APPLEGATE,,,,________VV__U,,43.363056,Zip Code Centroid,0,,2,110052169121,,10000,SANILAC,-82.622722
,,,Y,MI,,$0,,MI6120406,,APPLEMILL BP,49442,05,,N,0,0,,MUSKEGON,,,,____________U,,43.238693,Zip Code Centroid,0,,2,110049192333,,10000,MUSKEGON,-86.206655
,,,Y,MI,,$0,,MI0040668,,APPLEWOOD,,05,,N,0,0,,,,,,____________U,,42.283986,County Centroid,0,,,110013087462,,30000,VAN BUREN,-86.305697
,,,Y,MI,,$0,,MI5820443,,"APPLEWOOD ORCHARDS, INC (NEW CAMP)",49267,05,,N,0,0,,OTTAWA LAKE,,,,____________U,,41.743769,Zip Code Centroid,0,,,110063332086,,10000,MONROE,-83.783215
,2,,Y,MI,,$0,,MI1420189,,"APPOLONI RISTORANTE & PIZZARIA, INC",49093,05,,Y,2,1,,,,,,VVVV__VVVSSSU,,41.932417,Zip Code Centroid,1,,14,110049266254,,10000,CASS,-85.659734
,,,Y,MI,,$0,,MI8020132,,APRILS COUNTRY GORMET,49079,05,,N,0,1,,,,,,VVVVVVVVVVVVU,,42.257225,Zip Code Centroid,0,,20,110052112441,,10000,VAN BUREN,-85.888407
,,,Y,MI,,$0,,MI1620474,,AQUA GLOBAL LLC,49721,05,,N,0,0,,CHEBOYGAN,,,,____________U,,45.589655,Zip Code Centroid,0,,2,110063329376,,10000,CHEBOYGAN,-84.481787
,,,Y,MI,,$0,,MI4220041,,AQUA LOG CABINS - BLACK BEAR INC.,49931,05,,N,0,1,,,,,,_________VV_U,,47.105643,Zip Code Centroid,0,,9,110064358751,,10000,KEWEENAW,-88.592185
,,,Y,MI,,$0,,MI1320382,,ARBOR INN,49068,05,,N,0,0,,MARSHALL,,,,____________U,,42.297422,Zip Code Centroid,0,,,110049337428,,10000,CALHOUN,-84.944033
,,,Y,MI,,$0,,MI0000236,,ARBOR RIDGE CONDOMINIUMS,,05,,Y,0,1,,,,,,VVVVVVVVVVVVU,,42.248474,County Centroid,1,,14,110049069958,,30000,JACKSON,-84.420868
,,,Y,MI,,$0,,MI8120304,,ARBOR SPRINGS WATER CO.,48105,05,,N,0,0,,,,,,____________U,,42.319989,Zip Code Centroid,0,,,110052398516,,10000,WASHTENAW,-83.726994
,1,,Y,MI,,$0,,MI0004778,,ARBOR VIEW CONDO OWNERS ASSOCIATION,,05,,N,1,1,,,,,,V__VVVV_____U,,41.918585,County Centroid,0,,10,110063344304,,30000,BRANCH,-85.066523
,,,Y,MI,,$0,,MI0040223,,ARBOR VILLAGE,,05,,Y,0,1,,,,,,______VVVVVVU,,42.248474,County Centroid,1,,2,110013097193,,30000,JACKSON,-84.420868
,,,Y,MI,,$0,,MI6420081,,ARBRE FARMS CORPORATION,49459,05,,N,0,1,,WALKERVILLE,,,,VVVSSSVSSVVVU,,43.71408,Zip Code Centroid,0,,6,110049377081,,10000,OCEANA,-86.118377
,,,Y,MI,,$0,,MI6420203,,ARBRE FARMS CORPORATION,49459,05,,Y,0,1,,WALKERVILLE,,,,VVVVVVVVVVVVU,,43.71408,Zip Code Centroid,1,,28,110052133320,,10000,OCEANA,-86.118377
,,,Y,MI,,$0,,MI7220338,,ARBY'S,48629,05,,N,0,1,,HOUGHTON LAKE,,,,_____VVVVVVVU,,44.288946,Zip Code Centroid,0,,12,110052093168,,10000,ROSCOMMON,-84.758547
,,,Y,MI,,$0,,MI1920251,,ARBY'S,48879,05,,N,0,0,,SAINT JOHNS,,,,____________U,,43.131808,Zip Code Centroid,0,,,110049460668,,10000,CLINTON,-84.592645
,,,Y,MI,,$0,,MI1320308,,ARBY'S,49224,05,,N,0,0,,ALBION,,,,____________U,,42.237964,Zip Code Centroid,0,,,110051929017,,10000,CALHOUN,-84.775219
,,,Y,MI,,$0,,MI1920220,,ARBY'S #5961,48820,05,,N,0,1,,DEWITT,,,,____VV______U,,42.856679,Zip Code Centroid,0,,1,110049392457,,10000,CLINTON,-84.587325
,,,Y,MI,,$0,,MI4720493,,ARBY'S - WHITMORE LAKE,48189,05,,N,0,0,,WHITMORE LAKE,,,,____________U,,42.45217,Zip Code Centroid,0,,,110049485963,,10000,LIVINGSTON,-83.799432
,,,Y,MI,,$0,,MI4720448,,ARBY'S OF HARTLAND - STORE #5856,48353,05,,N,0,0,,HARTLAND,,,,____________U,,42.648563,Zip Code Centroid,0,,10,110049270427,,10000,LIVINGSTON,-83.717655
,,,Y,MI,,$0,,MI7820223,,ARBY'S RESTAURANT,48867,05,,N,0,1,,OWOSSO,,,,____VVVVV_VVU,,42.987308,Zip Code Centroid,0,,4,110052111228,,10000,SHIAWASSEE,-84.158545
,,,Y,MI,,$0,,MI3420250,,ARBY'S RESTAURANT,48846,05,,N,0,0,,IONIA,,,,____________U,,42.984206,Zip Code Centroid,0,,,110052702786,,10000,IONIA,-85.087094
,,,Y,MI,,$0,,MI4720325,,ARBY'S RESTAURANT - BRIGHTON,48116,05,,N,0,0,,BRIGHTON,,,,____________U,,42.500105,Zip Code Centroid,0,,,110049423502,,10000,LIVINGSTON,-83.790412
,,,Y,MI,,$0,,MI2920140,,ARBY'S ROAST BEEF #6439,48801,05,,N,0,1,,,,,,______VV____U,,43.382217,Zip Code Centroid,0,,1,110049432805,,10000,GRATIOT,-84.656985
,,,Y,MI,,$0,,MI5120206,,ARCADIA BLUFFS,49613,05,,N,0,1,,ARCADIA,,,,____VV_VV___U,,44.557725,Zip Code Centroid,0,,1,110052164199,,10000,MANISTEE,-86.208346
,,,Y,MI,,$0,,MI4420051,,ARCADIA HILLS GOLF COURSE,48412,05,,N,0,0,,ATTICA,,,,____________U,,43.067482,Zip Code Centroid,0,,,110049173167,,10000,LAPEER,-83.168747
,,,Y,MI,,$0,,MI4420052,,ARCADIA TOWNSHIP HALL,48452,05,,N,0,0,,,,,,____________U,,43.088633,County Centroid,0,,,110049173185,,30000,LAPEER,-83.224325
,,,Y,MI,,$0,,MI5120187,,ARCADIA TWP VETERANS MEM MARINA,49613,05,,N,0,1,,ARCADIA,,,,SV____VVVV__U,,44.557725,Zip Code Centroid,0,,5,110052194406,,10000,MANISTEE,-86.208346
,,,Y,MI,,$0,,MI3320094,,ARCHEY'S INC.,49264,05,,Y,0,1,,ONONDAGA,,,,____VVVVVVVVU,,42.451854,Zip Code Centroid,1,,6,110049348130,,10000,INGHAM,-84.545841
,,,Y,MI,,$0,,MI2820431,,ARCHIE PARK PENINSULA TOWNSHIP,49686,05,,N,0,1,,TRAVERSE CITY,,,,VVVVVVVVVV__U,,44.843496,Zip Code Centroid,0,,8,110049225129,,10000,GRAND TRAVERSE,-85.53025
,,,Y,MI,,$0,,MI2020177,,ARCTIC GLACIER,49738,05,,N,0,0,,,,,,____________U,,44.650184,Zip Code Centroid,0,,,110052071173,,10000,CRAWFORD,-84.585927
,,,Y,MI,,$0,,MI6120210,,ARENA'S PIZZA,49442,05,,N,0,1,,MUSKEGON,,,,VVVVV_______U,,43.238693,Zip Code Centroid,0,,10,110052066740,,10000,MUSKEGON,-86.206655
26049,,,Y,MI,04080203,$0,,MI0066355,,ARGENTINE CARE CENTER,48451,05,48451,N,0,0,CENTER OF A FACILITY OR STATION,LINDEN,,,26049,V___________U,040802030109,42.79159,ADDRESS MATCHING-HOUSE NUMBER,0,GENESEE COUNTY,3,110013085393,9051 SILVER LAKE RD,30,GENESEE,-83.84652
,,,Y,MI,,$0,,MI2520566,,ARGENTINE CHURCH OF NAZARENE,48451,05,,N,0,0,,LINDEN,,,,____________U,,42.825944,Zip Code Centroid,0,,,110049305257,,10000,GENESEE,-83.773078
,,,Y,MI,,$0,,MI2520711,,ARGENTINE ELE SCHOOL,48451,05,,N,0,0,,LINDEN,,,,____________U,,42.825944,Zip Code Centroid,0,,,110049473468,,10000,GENESEE,-83.773078
,,,Y,MI,,$0,,MI2520778,,ARGENTINE QUICK-STOP,48451,05,,Y,0,1,,LINDEN,,,,VVVVVV__VVVVU,,42.825944,Zip Code Centroid,1,,9,110049311614,,10000,GENESEE,-83.773078
,,,Y,MI,,$0,,MI7620229,,ARGYLE PARTY STORE,48410,05,,N,0,1,,SNOVER,,,,__________VVU,,43.563756,Zip Code Centroid,0,,3,110052224286,,10000,SANILAC,-82.935853
,,,Y,MI,,$0,,MI4720640,,ARISE UNITED METHODIST CHURCH,48169,05,,N,0,0,,PINCKNEY,,,,____________U,,42.422773,Zip Code Centroid,0,,,110049294189,,10000,LIVINGSTON,-83.904607
,,,Y,MI,,$0,,MI1320088,,ARLENE'S TRUCK STOP,49015,05,,N,0,1,,BATTLE CREEK,,,,________VVV_U,,42.268262,Zip Code Centroid,0,,2,110052487876,,10000,CALHOUN,-85.231487
26121,,,Y,MI,04060101,$0,,MI0040356,,ARLINGTON ESTATES,49442,05,49442,N,0,0,CENTER OF A FACILITY OR STATION,MUSKEGON,,,26121,____________U,040601011011,43.21246,ADDRESS MATCHING-HOUSE NUMBER,0,MUSKEGON COUNTY,2,110013092633,3785 EVANSTON AVENUE,30,MUSKEGON,-86.15024
,,,Y,MI,,$0,,MI0000240,,ARMADA,,05,,N,0,0,,ARMADA,,,,____________U,,42.842083,Place Name Centroid,0,,,110013130021,,20000,MACOMB,-82.881108
,,,Y,MI,,$0,,MI5020143,,ARMADA AMVETS POST 93,48005,05,,N,0,0,,ARMADA,,,,____________U,,42.849819,Zip Code Centroid,0,,,110049170874,,10000,MACOMB,-82.92086
,,,Y,MI,,$0,,MI5020274,,ARMADA FLEA MARKET INC,48005,05,,N,0,0,,ARMADA,,,,____________U,,42.849819,Zip Code Centroid,0,,,110052060979,,10000,MACOMB,-82.92086
,,,Y,MI,,$0,,MI5020362,,ARMADA FUEL STOP,48005,05,,N,0,1,,ARMADA,,,,VVVVV_______U,,42.849819,Zip Code Centroid,0,,2,110049524822,,10000,MACOMB,-82.92086
,,,Y,MI,,$0,,MI5020082,,ARMADA HIGH SCHOOL,48005,05,,N,0,1,,ARMADA,,,,VVVVV_______U,,42.849819,Zip Code Centroid,0,,30,110049336027,,10000,MACOMB,-82.92086
,,,Y,MI,,$0,,MI5020088,,ARMADA RUBBER MFG CO,48005,05,,N,0,0,,ARMADA,,,,____________U,,42.849819,Zip Code Centroid,0,,,110049336152,,10000,MACOMB,-82.92086
,,,Y,MI,,$0,,MI5020312,,ARMADA SENIOR CITIZEN CENTER,48005,05,,N,0,0,,ARMADA,,,,____________U,,42.849819,Zip Code Centroid,0,,,110049472557,,10000,MACOMB,-82.92086
,,,Y,MI,,$0,,MI5020303,,ARMADA TOWNSHIP PARK,48005,05,,N,0,0,,ARMADA,,,,____________U,,42.849819,Zip Code Centroid,0,,,110049472398,,10000,MACOMB,-82.92086
,,,Y,MI,,$0,,MI2520241,,ARMSTRONG MIDDLE SCHOOL,48506,05,,Y,0,1,,FLINT,,,,________VVVVU,,43.062637,Zip Code Centroid,1,,2,110049201500,,10000,GENESEE,-83.6177
,1,,Y,MI,,$0,,MI1420039,,AROUND THE CORNER CAFE,49130,05,,Y,1,1,,,,,,VVVVV____VVVU,,41.786012,Zip Code Centroid,1,,6,110049290600,,10000,CASS,-85.849716
,1,,Y,MI,,$0,,MI7920443,,ARROWHEAD GOLF & COUNTRY CLUB,48723,05,,Y,1,1,,CARO,,,,________VVVVU,,43.488053,Zip Code Centroid,1,,6,110049401651,,10000,TUSCOLA,-83.369477
,,,Y,MI,,$0,,MI4120023,,ARROWHEAD GOLF COURSE,49331,05,,N,0,0,,LOWELL,,,,____________U,,42.967056,Zip Code Centroid,0,,,110049432280,,10000,KENT,-85.374024
,,,Y,MI,,$0,,MI4520044,,ART'S TAVERN,49636,05,,N,0,0,,GLEN ARBOR,,,,____________U,,44.902819,Zip Code Centroid,0,,,110049450866,,10000,LEELANAU,-85.976585
,,,Y,MI,,$0,,MI7220262,,ARTESIA BEACH BATH HOUSE,48656,05,,N,0,1,,SAINT HELEN,,,,VVVVVSV_____U,,44.356174,Zip Code Centroid,0,,6,110052131554,,10000,ROSCOMMON,-84.427916
,,,Y,MI,,$0,,MI7220355,,ARTESIA BEACH CAMPGROUND,48656,05,,N,0,1,,SAINT HELEN,,,,VVVVVSV_____U,,44.356174,Zip Code Centroid,0,,6,110052095255,,10000,ROSCOMMON,-84.427916
,,,Y,MI,,$0,,MI4620142,,ARTESIAN WELLS SPORTS BAR,49233,05,,N,0,0,,CEMENT CITY,,,,V___________U,,42.055874,Zip Code Centroid,0,,4,110052727723,,10000,LENAWEE,-84.315897
,,,Y,MI,,$0,,MI1420318,,ARTHUR DODD PARK = D-2,49120,05,,N,0,1,,NILES,,,,____VV___VV_U,,41.83129,Zip Code Centroid,0,,2,110049521861,,10000,CASS,-86.165982
,,,Y,MI,,$0,,MI7820294,,ASCS BUILDING,48867,05,,N,0,0,,OWOSSO,,,,____________U,,42.987308,Zip Code Centroid,0,,,110052221476,,10000,SHIAWASSEE,-84.158545
,,,Y,MI,,$0,,MI0320460,,ASGA-ELY LAKE CAMPGROUND,49010,05,,Y,0,1,,ALLEGAN,,,,________VVVVU,,42.492887,Zip Code Centroid,1,,3,110052723344,,10000,ALLEGAN,-85.850787
26115,,,Y,MI,04100001,$0,,MI0000245,,ASH TOWNSHIP,48117,05,48117,N,0,0,CENTER OF A FACILITY OR STATION,CARLETON,,,26115,____________U,041000010104,42.05063,ADDRESS MATCHING-HOUSE NUMBER,0,MONROE COUNTY,,110013130049,1677 READY ROAD,30,MONROE,-83.35241
,,,Y,MI,,$0,,MI3420258,,ASHLEY BAPTIST CHURCH,48809,05,,N,0,1,,BELDING,,,,SS__________U,,43.059466,Zip Code Centroid,0,,3,110052721202,,10000,IONIA,-85.251986
,,,Y,MI,,$0,,MI0000250,,"ASHLEY, VILLAGE OF",48806,05,,N,0,1,,ASHLEY,,,26057,VVVVVVV_____U,,43.172511,Zip Code Centroid,0,GRATIOT COUNTY,3,110013130067,UNKNOWN,10000,GRATIOT,-84.543274
,,,Y,MI,,$0,,MI4720658,,ASPEN TECHNOLOGIES INC.,48116,05,,N,0,0,,BRIGHTON,,,,____________U,,42.500105,Zip Code Centroid,0,,,110049270597,,10000,LIVINGSTON,-83.790412
,,,Y,MI,,$0,,MI1820117,,ASSEMBLY OF GOD,48617,05,,N,0,0,,,,,,____________U,,43.871316,Zip Code Centroid,0,,,110049354952,,10000,CLARE,-84.727846
,,,Y,MI,,$0,,MI4320106,,ASSEMBLY OF GOD CHURCH - BALDWIN,49304,05,,N,0,1,,BALDWIN,,,,VVVVV_______U,,43.931797,Zip Code Centroid,0,,2,110049354211,,10000,LAKE,-85.82237
,,,Y,MI,,$0,,MI2320223,,ASSEMBLY OF YAHWEH,48827,05,,N,0,0,,EATON RAPIDS,,,,____________U,,42.494795,Zip Code Centroid,0,,,110049434493,,10000,EATON,-84.575948
,,,Y,MI,,$0,,MI4720509,,AT & T - HOWELL GARAGE,48843,05,,N,0,0,,HOWELL,,,,____________U,,42.565791,Zip Code Centroid,0,,,110049352927,,10000,LIVINGSTON,-83.944662
,,,Y,MI,,$0,,MI3820152,,AT&T,49201,05,,N,0,0,,JACKSON,,,,____________U,,42.253548,Zip Code Centroid,0,,,110049230621,,10000,JACKSON,-84.502495
,,,Y,MI,,$0,,MI7520191,,ATBALSIS,49093,05,,N,0,1,,THREE RIVERS,,,,VVVVVVV_____U,,41.932417,Zip Code Centroid,0,,2,110052084196,,10000,ST. JOSEPH,-85.659734
,,,Y,MI,,$0,,MI0000260,,ATHENS,49011,05,,N,0,0,,ATHENS,,,26025,____________U,,42.119592,Zip Code Centroid,0,CALHOUN COUNTY,,110012984878,UNKNOWN,10000,CALHOUN,-85.231168
,,,Y,MI,,$0,,MI2520523,,ATHERTON COMMUNITY SCHOOLS,48519,05,,N,0,0,,BURTON,,,,____________U,,42.985861,Zip Code Centroid,0,,,110052706434,,10000,GENESEE,-83.609751
,1,,Y,MI,,$0,,MI2520524,,ATHERTON ELEMENTARY SCHOOL,48519,05,,Y,1,1,,BURTON,,,,________VVVVU,,42.985861,Zip Code Centroid,1,,,110052706470,,10000,GENESEE,-83.609751
,,,Y,MI,,$0,,MI6020092,,ATLANTA JR-SR HIGH SCH,49709,05,,N,0,1,,ATLANTA,,,,____VVVVV___U,,44.993844,Zip Code Centroid,0,,2,110052074385,,10000,MONTMORENCY,-84.153156
,,,Y,MI,,$0,,MI6020107,,ATLANTA SENIOR CITIZENS,49709,05,,N,0,1,,ATLANTA,,,,_____VV_____U,,44.993844,Zip Code Centroid,0,,2,110049443189,,10000,MONTMORENCY,-84.153156
,,,Y,MI,,$0,,MI6020101,,ATLANTA THNDR BAY EAGLES #4077,49709,05,,Y,0,1,,ATLANTA,,,,______VVVVVVU,,44.993844,Zip Code Centroid,1,,2,110052074456,,10000,MONTMORENCY,-84.153156
,,,Y,MI,,$0,,MI2520568,,ATLAS VALLEY GOLF CLUB,48439,05,,Y,0,1,,GRAND BLANC,,,,V__________VU,,42.868926,Zip Code Centroid,1,,4,110049305275,,10000,GENESEE,-83.574274
,,,Y,MI,,$0,,MI4421627,,ATTICA PINES CAMPGROUND LLC,48412,05,,N,0,1,,ATTICA,,,,_________VV_U,,43.067482,Zip Code Centroid,0,,3,110052069710,,10000,LAPEER,-83.168747
,,,Y,MI,,$0,,MI4420084,,ATTICA TOWNSHIP HALL,48412,05,,N,0,1,,ATTICA,,,,_______VV___U,,43.067482,Zip Code Centroid,0,,7,110049173452,,10000,LAPEER,-83.168747
,,,Y,MI,,$0,,MI4421610,,ATTICA TWP. FIREHALL & LIBRARY,48412,05,,Y,0,1,,ATTICA,,,,________VVVVU,,43.067482,Zip Code Centroid,1,,2,110052069676,,10000,LAPEER,-83.168747
,,,Y,MI,,$0,,MI4420082,,ATTICA UNITED METHODIST CHURCH,48412,05,,N,0,1,,ATTICA,,,,________VV__U,,43.067482,Zip Code Centroid,0,,2,110049173416,,10000,LAPEER,-83.168747
,,,Y,MI,,$0,,MI6322284,,ATW AUTOMATION,48393,05,,N,0,0,,,,,,____________U,,42.535036,Zip Code Centroid,0,,,110052191436,,10000,OAKLAND,-83.543376
,,,Y,MI,,$0,,MI0000285,,AU GRES TOWNSHIP,48703,05,,N,0,0,,AU GRES,,,26011,____________U,,44.049126,Zip Code Centroid,0,ARENAC COUNTY,,110013130110,UNKNOWN,10000,ARENAC,-83.696078
26011,,,Y,MI,04080101,$0,,MI0000280,,"AU GRES, CITY OF",48703,05,48703,N,0,0,ENTRANCE POINT OF A FACILITY OR STATION,AU GRES,,,26011,____________U,040801010503,44.082312,ADDRESS MATCHING-HOUSE NUMBER,0,ARENAC COUNTY,,110013130085,"124 W. HURON RD.,",50,ARENAC,-83.591776
26069,,,Y,MI,04070007,$0,,MI0000290,,AU SABLE TOWNSHIP,48750,05,48750,N,0,1,ENTRANCE POINT OF A FACILITY OR STATION,AUSABLE,,,26069,VVV_________U,040700070709,44.410697,ADDRESS MATCHING-HOUSE NUMBER,0,IOSCO COUNTY,3,110012984958,311 FIFTH STREET,50,IOSCO,-83.335794
,,,Y,MI,,$0,,MI0000300,,AUBURN,,05,,N,0,1,,AUBURN,,,,________VV__U,,43.602011,Place Name Centroid,0,,2,110013130147,,20000,BAY,-84.075106
,,,Y,MI,,$0,,MI0005450,,AUBURN HILLS,,05,,N,0,0,,AUBURN HILLS,,,,____________U,,42.67472,Place Name Centroid,0,,,110013108877,,20000,OAKLAND,-83.243606
,,,Y,MI,,$0,,MI0000320,,AUGUSTA,,05,,N,0,1,,AUGUSTA,,,,VVV_________U,,42.337672,Place Name Centroid,0,,2,110013130165,,20000,KALAMAZOO,-85.352464
,,,Y,MI,,$0,,MI3920121,,AUGUSTA CUSTER VFW 7956,49012,05,,N,0,1,,AUGUSTA,,,,_____VV_____U,,42.398469,Zip Code Centroid,0,,2,110052729721,,10000,KALAMAZOO,-85.351011
26161,,,Y,MI,04100001,$0,,MI0000321,,AUGUSTA TOWNSHIP,48190,05,48191,N,0,0,CENTER OF A FACILITY OR STATION,WHITTAKER,,,26161,____________U,041000010105,42.12817,ADDRESS MATCHING-HOUSE NUMBER,0,WASHTENAW COUNTY,,110013130209,8021 TALLADAY ROAD,30,WASHTENAW,-83.5994
,,,Y,MI,,$0,,MI6720011,,AUGUSTANA LUTH CHURCH,49688,05,,N,0,1,,TUSTIN,,,,__________VVU,,44.127215,Zip Code Centroid,0,,3,110052108116,,10000,OSCEOLA,-85.444291
,,,Y,MI,,$0,,MI2020021,,AUNT BETTYS RESTAURANT,,05,,N,0,0,,,,,,____________U,,44.841084,State Centroid,0,,,110049215185,,100000,,-85.65932
,,,Y,MI,,$0,,MI6322586,,AUNT MILLIES,48386,05,,N,0,0,,WHITE LAKE,,,,____________U,,42.644052,Zip Code Centroid,0,,,110052224749,,10000,OAKLAND,-83.473469
,,,Y,MI,,$0,,MI4020054,,AUSABLE INSTITUTE OF ENV.STUDY,49659,05,,N,0,1,,MANCELONA,,,,____VVVVV___U,,44.916847,Zip Code Centroid,0,,1,110049221864,,10000,KALKASKA,-85.024615
,,,Y,MI,,$0,,MI6820171,,AUSABLE VALLEY COM MENTAL HLTH,48647,05,,N,0,0,,MIO,,,,____________U,,44.675674,Zip Code Centroid,0,,,110052080671,,10000,OSCODA,-84.153245
26135,,,Y,MI,04070007,$0,,MI0000324,,AUSABLE VALLEY COMMUNITY,48621,05,48621,N,0,0,ENTRANCE POINT OF A FACILITY OR STATION,FAIRVIEW,,,26135,____________U,040700070503,44.719965,ADDRESS MATCHING-HOUSE NUMBER,0,OSCODA COUNTY,,110012985010,1390 MAPLE DRIVE,50,OSCODA,-84.044408
,,,Y,MI,,$0,,MI6820194,,AUSABLE VALLEY INN,48647,05,,N,0,0,,MIO,,,,____________U,,44.675674,Zip Code Centroid,0,,,110049426705,,10000,OSCODA,-84.153245
,,,Y,MI,,$0,,MI5020087,,AUSTIN ACADEMY,48096,05,,N,0,1,,RAY,,,,VVVVVVVSVSSVU,,42.761435,Zip Code Centroid,0,,5,110049336134,,10000,MACOMB,-82.907288
,,,Y,MI,,$0,,MI0000322,,AUSTIN COMMONS II,,05,,N,0,0,,,,,,____________U,,42.252327,County Centroid,0,,,110049070063,,30000,WASHTENAW,-83.844634
,,,Y,MI,,$0,,MI2520634,,AUTO CITY EAGLES,48458,05,,Y,0,1,,MOUNT MORRIS,,,,________VVVVU,,43.110996,Zip Code Centroid,1,,,110049190503,,10000,GENESEE,-83.714253
,,,Y,MI,,$0,,MI8120093,,AUTO CITY SERVICES,48189,05,,N,0,0,,WHITMORE LAKE,,,,____________U,,42.45217,Zip Code Centroid,0,,,110052228610,,10000,WASHTENAW,-83.799432
,,,Y,MI,,$0,,MI7820315,,AUTO ZONE,48867,05,,N,0,0,,OWOSSO,,,,____________U,,42.987308,Zip Code Centroid,0,,,110052107180,,10000,SHIAWASSEE,-84.158545
,,,Y,MI,,$0,,MI7921064,,AUTO ZONE,48723,05,,N,0,0,,CARO,,,,____________U,,43.488053,Zip Code Centroid,0,,,110049455674,,10000,TUSCOLA,-83.369477
,,,Y,MI,,$0,,MI6320797,,AUTOMATION & MODULAR COMPONENTS,48350,05,,N,0,1,,DAVISBURG,,,,______VVVVV_U,,42.749226,Zip Code Centroid,0,,2,110052215900,,10000,OAKLAND,-83.527394
,,,Y,MI,,$0,,MI2320288,,"AUTOPORT, LIMITED",48813,05,,N,0,0,,CHARLOTTE,,,,____________U,,42.568198,Zip Code Centroid,0,,,110052069122,,10000,EATON,-84.889577
,,,Y,MI,,$0,,MI0220122,,AUTRAIN COMMUNITY CENTER,49806,05,,N,0,1,,AU TRAIN,,,,V_________VVU,,46.419879,Zip Code Centroid,0,,2,110049212927,,10000,ALGER,-86.837205
,,,Y,MI,,$0,,MI0220075,,AUTRAIN-ONOTA PUBLIC SCHOOL,49822,05,,Y,0,1,,DEERTON,,,,V__VVVVVVVVVU,,46.494353,Zip Code Centroid,1,,7,110052703954,,10000,ALGER,-87.093583
,,,Y,MI,,$0,,MI0001910,,AUTUMN HILLS,,05,,N,0,0,,,,,,____________U,,41.91624,County Centroid,0,,4,110012982987,,30000,CASS,-85.999457
,,,Y,MI,,$0,,MI7020516,,AUTUMN HILLS LANDFILL,49464,05,,N,0,1,,ZEELAND,,,,_________V__U,,42.7532,Zip Code Centroid,0,,10,110052184417,,10000,OTTAWA,-85.890067
,,,Y,MI,,$0,,MI8120405,,AVILA DAYCARE CENTER,48118,05,,Y,0,1,,CHELSEA,,,,________VVVVU,,42.328626,Zip Code Centroid,1,,1,110052391504,,10000,WASHTENAW,-84.054214
,,,Y,MI,,$0,,MI7420066,,AVOCA ELEMENTARY SCHOOL,48006,05,,Y,0,1,,AVOCA,,,,VVVVVVVVVVVVU,,43.033026,Zip Code Centroid,1,,42,110052193372,,10000,ST. CLAIR,-82.693548
26023,,,Y,MI,04050001,$0,,MI0040074,,AVRA ESTATES,49036,05,49036,N,0,1,CENTER OF A FACILITY OR STATION,COLDWATER,,,26023,__VVVV______U,040500010106,41.92727,ADDRESS MATCHING-HOUSE NUMBER,0,BRANCH COUNTY,5,110013097549,27 WEST GARFIELD AVENUE,30,BRANCH,-85.00646
,,,Y,MI,,$0,,MI2521528,,AYSO REGION 417,48430,05,,N,0,0,,FENTON,,,,____________U,,42.725284,Zip Code Centroid,0,,3,110052068775,,10000,GENESEE,-83.757378
,,,Y,MI,,$0,,MI5820334,,AZALIA U.M. CHURCH,48110,05,,N,0,0,,AZALIA,,,,____________U,,42.012371,Zip Code Centroid,0,,,110052222028,,10000,MONROE,-83.667085
,,,Y,MI,,$0,,MI0120227,,Alcona Park Electric Bathhouse,48737,05,,N,0,0,,,,,,____________U,,44.548797,Zip Code Centroid,0,,,MI0120227,,10000,Alcona,-83.721292
,,,Y,MI,,$0,,MI2521617,,Applewood,48503,05,,N,0,0,,,,,,____________U,,43.012165,Zip Code Centroid,0,,,MI2521617,,10000,Genesee,-83.658562
,,,Y,MI,,$0,,MI5120243,,"Arcadia Bluffs, LLC",49613,05,,N,0,1,,,,,,__________VVU,,44.557725,Zip Code Centroid,0,,2,MI5120243,,10000,Manistee,-86.208346
,,,Y,MI,,$0,,MI5120242,,Arcadia Medical,49613,05,,N,0,1,,,,,,____VVVVVVVVU,,44.557725,Zip Code Centroid,0,,1,MI5120242,,10000,Manistee,-86.208346
,,,Y,MI,,$0,,MI0320681,,Arcticlear,49419,05,,N,0,1,,,,,,______VVVV__U,,42.688812,Zip Code Centroid,0,,,MI0320681,,10000,Allegan,-85.987488
,,,Y,MI,,$0,,MI6220318,,Ashland Church of Christ,49327,05,,N,0,1,,,,,,______VVVVVVU,,43.338022,Zip Code Centroid,0,,2,MI6220318,,10000,Newaygo,-85.805157
,,,Y,MI,,$0,,MI3320226,,Aurelius Baptist Church,48854,05,,N,0,0,,,,,,____________U,,42.58212,Zip Code Centroid,0,,,MI3320226,,10000,Ingham,-84.558886
,,,Y,MI,,$0,,MI1820305,,Auto Zone,48617,05,,N,0,1,,,,,,____VVVVVV__U,,43.871316,Zip Code Centroid,0,,4,MI1820305,,10000,Clare,-84.727846
,,,Y,MI,,$0,,MI6120526,,Autozone,49442,05,,N,0,0,,,,,,____________U,,43.238693,Zip Code Centroid,0,,,MI6120526,,10000,Muskegon,-86.206655
,,,Y,MI,,$0,,MI1620318,,B & C PIZZA,49749,05,,Y,0,1,,INDIAN RIVER,,,,_VVVVVVV_VVVU,,45.42052,Zip Code Centroid,1,,16,110049179429,,10000,CHEBOYGAN,-84.604941
,,,Y,MI,,$0,,MI7820116,,B J'S FINE FOODS,48867,05,,N,0,0,,OWOSSO,,,,____________U,,42.987308,Zip Code Centroid,0,,,110049484884,,10000,SHIAWASSEE,-84.158545
,,,Y,MI,,$0,,MI0320600,,"B&G CUSTOM WORKS,INC.",49010,05,,N,0,1,,ALLEGAN,,,,VVVVVV______U,,42.492887,Zip Code Centroid,0,,2,110049223327,,10000,ALLEGAN,-85.850787
,,,Y,MI,,$0,,MI3720143,,B'S KITCHEN,49310,05,,N,0,1,,BLANCHARD,,,,___VVVVVV___U,,43.546728,Zip Code Centroid,0,,5,110049170464,,10000,ISABELLA,-85.087913
,,,Y,MI,,$0,,MI2620452,,B-Town Party Store,48612,05,,N,0,1,,,,,,_________VV_U,,43.902036,Zip Code Centroid,0,,2,MI2620452,,10000,Gladwin,-84.62827
,,,Y,MI,,$0,,MI1520049,,B.C. LANES,49712,05,,N,0,1,,BOYNE CITY,,,,__VV________U,,45.20498,Zip Code Centroid,0,,,110049222541,,10000,CHARLEVOIX,-85.014294
,,,Y,MI,,$0,,MI0120030,,BABA-RUSKI SOUTH SHORE,48762,05,,N,0,0,,SPRUCE,,,,____________U,,44.86596,Zip Code Centroid,0,,,110052608255,,10000,ALCONA,-83.436913
,,,Y,MI,,$0,,MI6920181,,BACK #9 PINES GOLF COURSE,49735,05,,N,0,1,,GAYLORD,,,,VVVVVVVVVVV_U,,44.978894,Zip Code Centroid,0,,4,110049387793,,10000,OTSEGO,-84.763955
,,,Y,MI,,$0,,MI4420475,,BACK DOOR LOUNGE,48421,05,,Y,0,1,,COLUMBIAVILLE,,,,___VVVVVVVVVU,,43.150552,Zip Code Centroid,1,,14,110049229054,,10000,LAPEER,-83.368345
,,,Y,MI,,$0,,MI7220367,,BACK DOOR SALOON,48629,05,,N,0,0,,HOUGHTON LAKE,,,,____________U,,44.288946,Zip Code Centroid,0,,,110052095549,,10000,ROSCOMMON,-84.758547
,,,Y,MI,,$0,,MI6420246,,BACK FORTY RESORT,49452,05,,N,0,1,,ROTHBURY,,,,____VV______U,,43.524654,Zip Code Centroid,0,,1,110052089431,,10000,OCEANA,-86.278397
,,,Y,MI,,$0,,MI7320007,,BACK WOODS BAR AND GRILL,48417,05,,N,0,0,,BURT,,,,____________U,,43.263647,Zip Code Centroid,0,,,110049363381,,10000,SAGINAW,-83.938474
,,,Y,MI,,$0,,MI1320373,,BACKROADS SALOON,49068,05,,N,0,0,,,,,,____________U,,42.297422,Zip Code Centroid,0,,,110049337259,,10000,CALHOUN,-84.944033
,,,Y,MI,,$0,,MI0120053,,BACKWOODS BISTRO,48742,05,,N,0,0,,LINCOLN,,,,____________U,,44.742547,Zip Code Centroid,0,,,110049272746,,10000,ALCONA,-83.414584
,,,Y,MI,,$0,,MI0000340,,BAD AXE,,05,,N,0,0,,BAD AXE,,,,____________U,,43.803825,Place Name Centroid,0,,,110013130263,,20000,HURON,-82.998296
,,,Y,MI,,$0,,MI3220218,,BAD AXE MEDICAL CLINIC,48413,05,,N,0,0,,BAD AXE,,,,____________U,,43.806535,Zip Code Centroid,0,,,110049222854,,10000,HURON,-82.996393
,,,Y,MI,,$0,,MI3220328,,BAD AXE MINI MARKET,48413,05,,N,0,0,,BAD AXE,,,,____________U,,43.806535,Zip Code Centroid,0,,,110049186199,,10000,HURON,-82.996393
,,,Y,MI,,$0,,MI3420184,,BADERS,48875,05,,N,0,0,,PORTLAND,,,,____________U,,42.857101,Zip Code Centroid,0,,,110049446177,,10000,IONIA,-84.813523
,,,Y,MI,,$0,,MI1220076,,BAHRS TRAILER PARK,49036,05,,N,0,1,,COLDWATER,,,,____VVVVV___U,,41.96712,Zip Code Centroid,0,,6,110052453304,,10000,BRANCH,-85.027728
,,,Y,MI,,$0,,MI8020382,,BAIERS-PIERSON CAMP 80-0083,49057,05,,N,0,0,,HARTFORD,,,,V___________U,,42.203913,Zip Code Centroid,0,,5,110052297527,,10000,VAN BUREN,-86.157025
,,,Y,MI,,$0,,MI6120380,,BAILEY CHRISTIAN CHURCH,49303,05,,N,0,0,,BAILEY,,,,____________U,,43.278703,Zip Code Centroid,0,,,110049309315,,10000,MUSKEGON,-85.81037
,,,Y,MI,,$0,,MI6320778,,BAILY LAKE ELEM SCHOOL/CCS,48348,05,,N,0,1,,CLARKSTON,,,,VVVVV_______U,,42.761126,Zip Code Centroid,0,,84,110052143952,,10000,OAKLAND,-83.439499
,,,Y,MI,,$0,,MI1420194,,BAIR LAKE BIBLE CAMP,49061,05,,N,0,1,,JONES,,,,___V____VVV_U,,41.925771,Zip Code Centroid,0,,6,110049266316,,10000,CASS,-85.824819
,,,Y,MI,,$0,,MI5720026,,BAKER COLLEGE,49651,05,,N,0,0,,LAKE CITY,,,,____________U,,44.302701,Zip Code Centroid,0,,,110049456352,,10000,MISSAUKEE,-85.231046
,,,Y,MI,,$0,,MI8320195,,BAKER COLLEGE OF CADILLAC,49601,05,,N,0,1,,CADILLAC,,,,VVVVVV_VV___U,,44.252475,Zip Code Centroid,0,,43,110052167276,,10000,WEXFORD,-85.3106
,,,Y,MI,,$0,,MI8320308,,BAKER COLLEGE OF CADILLAC,49601,05,,Y,0,1,,,,,,__________VVU,,44.252475,Zip Code Centroid,1,,2,MI8320308,,10000,Wexford,-85.3106
,,,Y,MI,,$0,,MI2521457,,BAKER'S MINI MALL,48423,05,,N,0,0,,DAVISON,,,,____________U,,43.036153,Zip Code Centroid,0,,,110049391546,,10000,GENESEE,-83.522964
,,,Y,MI,,$0,,MI6322369,,BAKERS OF MILFORD,48381,05,,N,0,0,,MILFORD,,,,____________U,,42.565969,Zip Code Centroid,0,,,110052130109,,10000,OAKLAND,-83.592226
,,,Y,MI,,$0,,MI8120522,,"BALANCE TECHNOLOGIES, INC.",48189,05,,N,0,0,,,,,,____________U,,42.45217,Zip Code Centroid,0,,,110052320001,,10000,WASHTENAW,-83.799432
,,,Y,MI,,$0,,MI6322113,,BALDWIN ELEMENTARY SCHOOL,48306,05,,N,0,0,,ROCHESTER,,,,____________U,,42.728297,Zip Code Centroid,0,,,110052209472,,10000,OAKLAND,-83.171437
,,,Y,MI,,$0,,MI7020353,,BALDWIN OAKS CAMPGROUND,49426,05,,N,0,0,,HUDSONVILLE,,,,____________U,,42.864195,Zip Code Centroid,0,,,110052221911,,10000,OTTAWA,-85.861243
,,,Y,MI,,$0,,MI3320137,,BALDWIN PARK FLOWING WELL,49264,05,,N,0,0,,ONONDAGA,,,,V___________U,,42.451854,Zip Code Centroid,0,,5,110052730522,,10000,INGHAM,-84.545841
26069,,,Y,MI,04080101,$0,,MI0000355,,BALDWIN TOWNSHIP,48763,05,48748,N,0,0,ENTRANCE POINT OF A FACILITY OR STATION,TAWAS,,,26069,____________U,040801010105,44.31239,ADDRESS MATCHING-HOUSE NUMBER,0,IOSCO COUNTY,,110013130290,1119 MONUMENT ROAD,50,IOSCO,-83.54227
,,,Y,MI,,$0,,MI0000350,,"BALDWIN, VILLAGE OF",,05,,N,0,0,,,,,,____________U,,43.995187,County Centroid,0,,,110012985047,,30000,LAKE,-85.8114
,,,Y,MI,,$0,,MI0320333,,BALL CAFE,49450,05,,N,0,1,,PULLMAN,,,,____VV____VVU,,42.483957,Zip Code Centroid,0,,4,110049245394,,10000,ALLEGAN,-86.076828
,,,Y,MI,,$0,,MI0040041,,BALTIMORE TERRACE,,05,,N,0,0,,,,,,____________U,,42.582811,County Centroid,0,,,110013100571,,30000,BARRY,-85.31455
,,,Y,MI,,$0,,MI7220404,,BAMBI LAKE CABINS,48653,05,,N,0,0,,ROSCOMMON,,,,____________U,,44.529886,Zip Code Centroid,0,,,110052195450,,10000,ROSCOMMON,-84.53012
,,,Y,MI,,$0,,MI7220398,,BAMBI LAKE CAMPGROUND,48653,05,,N,0,1,,ROSCOMMON,,,,___VVV______U,,44.529886,Zip Code Centroid,0,,4,110052195343,,10000,ROSCOMMON,-84.53012
,,,Y,MI,,$0,,MI7220399,,BAMBI LAKE DINING HALL,48653,05,,N,0,0,,ROSCOMMON,,,,____________U,,44.529886,Zip Code Centroid,0,,,110052195361,,10000,ROSCOMMON,-84.53012
,,,Y,MI,,$0,,MI7220405,,BAMBI LAKE RETREAT CENTER,48653,05,,N,0,0,,ROSCOMMON,,,,____________U,,44.529886,Zip Code Centroid,0,,,110052195487,,10000,ROSCOMMON,-84.53012
,,,Y,MI,,$0,,MI0000370,,"BANCROFT, VILLAGE OF",,05,,Y,0,1,,,,,,VVVVVVVVVVVVU,,42.951545,County Centroid,1,,4,110013130334,,30000,SHIAWASSEE,-84.146352
26073,,01/18/2017,Y,MI,04080202,"$3,000,000",,MI3720142 MI3720151 MI3720155,"$3,000,000",BANDIT INDUSTRIES INC,49340,05,49310,Y,1,1,ENTRANCE POINT OF A FACILITY OR STATION,REMUS,,1,26073,VVVVVVVVVVVVU,040802020207,43.552965,ADDRESS MATCHING-HOUSE NUMBER,1,ISABELLA COUNTY,42,110009601252,6750 W MILLBROOK RD,50,ISABELLA,-84.982124
,,,Y,MI,,$0,,MI0820377,,BANFIELD GENERAL STORE,49017,05,,N,0,0,,BATTLE CREEK,,,,____________U,,42.445095,Zip Code Centroid,0,,,110052711909,,10000,BARRY,-85.275866
,1,,Y,MI,,$0,,MI0000380,,BANGOR,,05,,Y,1,1,,,,,,______VVVVVVU,,42.283986,County Centroid,1,,6,110013130352,,30000,VAN BUREN,-86.305697
,,,Y,MI,,$0,,MI0000400,,BANGOR-MONITOR METRO DISTRICT,,05,,N,0,0,,,,,,____________U,,43.699711,County Centroid,0,,3,110013130370,,30000,BAY,-83.978701
,,,Y,MI,,$0,,MI7520187,,BANKS HARDWOODS,49099,05,,N,0,1,,WHITE PIGEON,,,,VVVVVSVV____U,,41.804504,Zip Code Centroid,0,,33,110052084132,,10000,ST. JOSEPH,-85.801622
,,,Y,MI,,$0,,MI4120956,,BAPTIST BIBLE CHURCH,49345,05,,N,0,0,,SPARTA,,,,____________U,,43.16057,Zip Code Centroid,0,,,110052740414,,10000,KENT,-85.643871
,,,Y,MI,,$0,,MI4720650,,BAPTIST STATE CONVENTION OF MI,48430,05,,N,0,0,,FENTON,,,,____________U,,42.725284,Zip Code Centroid,0,,4,110049189640,,10000,LIVINGSTON,-83.757378
,,,Y,MI,,$0,,MI4720320,,BAR NONE,48116,05,,N,0,0,,BRIGHTON,,,,____________U,,42.500105,Zip Code Centroid,0,,,110049410829,,10000,LIVINGSTON,-83.790412
,,,Y,MI,,$0,,MI0000410,,BARAGA,,05,,N,0,0,,BARAGA,,,,____________U,,46.775366,Place Name Centroid,0,,,110013130398,,20000,BARAGA,-88.501227
,,,Y,MI,,$0,,MI3820639,,BARB'S COUNTRY KITCHEN,49202,05,,N,0,0,,JACKSON,,,,____________U,,42.273665,Zip Code Centroid,0,,,110052701714,,10000,JACKSON,-84.423065
,,,Y,MI,,$0,,MI4920123,,BAREFOOTS RESORT,49719,05,,N,0,0,,CEDARVILLE,,,,____________U,,45.988543,Zip Code Centroid,0,,,110049329847,,10000,MACKINAC,-84.36682
,,,Y,MI,,$0,,MI0520127,,BARGY'S FARM MARKET,49648,05,,N,0,1,,KEWADIN,,,,VVVVVVVV____U,,44.964311,Zip Code Centroid,0,,4,110049316003,,10000,ANTRIM,-85.353094
,,,Y,MI,,$0,,MI2120130,,BARK RIVER REC. COMPLEX,49807,05,,N,0,1,,BARK RIVER,,,,______VV_VV_U,,45.721317,Zip Code Centroid,0,,6,110049272005,,10000,DELTA,-87.28941
,,,Y,MI,,$0,,MI5520017,,BARK RIVER-HARRIS SCHOOLS,49845,05,,N,0,1,,WILSON,,,,VVVVVVVVVV__U,,45.7014,Zip Code Centroid,0,,108,110049363915,,10000,MENOMINEE,-87.343581
,,,Y,MI,,$0,,MI1620026,,BARKELY'S SEAFOOD AND STEAK,49749,05,,Y,0,1,,INDIAN RIVER,,,,____VVVVVVVSU,,45.42052,Zip Code Centroid,1,,13,110052726546,,10000,CHEBOYGAN,-84.604941
,,,Y,MI,,$0,,MI1320356,,BARKER MANUFACTURING,49017,05,,Y,0,1,,BATTLE CREEK,,,,___________VU,,42.445095,Zip Code Centroid,1,,,110052488116,,10000,CALHOUN,-85.275866
,,,Y,MI,,$0,,MI3720101,,BARN DOOR BAR,48858,05,,N,0,1,,MOUNT PLEASANT,,,,____VVVV____U,,43.619325,Zip Code Centroid,0,,6,110052713257,,10000,ISABELLA,-84.787666
,4,,Y,MI,,$0,,MI0000418,,BARN SWALLOW APARTMENTS,,05,,Y,4,1,,,,,,VVVVVVVVVVVVU,,41.91624,County Centroid,1,,26,110048224266,,30000,CASS,-85.999457
,,,Y,MI,,$0,,MI3920170,,BARN THEATER,49012,05,,N,0,0,,AUGUSTA,,,,____________U,,42.398469,Zip Code Centroid,0,,,110049211009,,10000,KALAMAZOO,-85.351011
,,,Y,MI,,$0,,MI3920392,,BARN THEATER REHEARSAL SHED,49012,05,,N,0,0,,AUGUSTA,,,,V___________U,,42.398469,Zip Code Centroid,0,,4,110049333814,,10000,KALAMAZOO,-85.351011
,,,Y,MI,,$0,,MI1320029,,BARNEY'S BAR,49020,05,,N,0,1,,,,,,_______VVVV_U,,42.395877,Zip Code Centroid,0,,13,110052545527,,10000,CALHOUN,-85.232937
,,,Y,MI,,$0,,MI4720617,,BARNUM COMPANY,48116,05,,N,0,0,,BRIGHTON,,,,____________U,,42.500105,Zip Code Centroid,0,,,110049200930,,10000,LIVINGSTON,-83.790412
,,,Y,MI,,$0,,MI0000420,,BARODA,,05,,N,0,0,,,,,,____________U,,41.792639,County Centroid,0,,3,110013130432,,30000,BERRIEN,-86.741822
,,,Y,MI,,$0,,MI5320150,,BAROTHY LODGE-OFFICE,49458,05,,N,0,0,,,,,,____________U,,43.948755,Zip Code Centroid,0,,1,110049483448,,10000,MASON,-86.118484
,,,Y,MI,,$0,,MI4820121,,"BARRETT'S CAMP 33, INC",49868,05,,N,0,1,,NEWBERRY,,,,VVVVV_______U,,46.349424,Zip Code Centroid,0,,6,110049448022,,10000,LUCE,-85.50823
,,,Y,MI,,$0,,MI6322910,,BARRON INDUSTRIES,48371,05,,N,0,1,,OXFORD,,,,__VVVVVVVVVVU,,42.897606,Zip Code Centroid,0,,8,110064359634,,10000,OAKLAND,-83.326031
,,,Y,MI,,$0,,MI0040092,,BARRON LAKE/ROSEBUSH,,05,,Y,0,1,,,,,,VVVVVVVVVVVVU,,41.91624,County Centroid,1,,16,110013098012,,30000,CASS,-85.999457
,,,Y,MI,,$0,,MI0820268,,BARRY COUNTY CHRISTIAN SCHOOL,49058,05,,N,0,0,,HASTINGS,,,,____________U,,42.670925,Zip Code Centroid,0,,,110049175682,,10000,BARRY,-85.29902
,,,Y,MI,,$0,,MI0820260,,BARRY COUNTY COMMUNITY MENTAL HEALTH,49058,05,,N,0,0,,HASTINGS,,,,____________U,,42.670925,Zip Code Centroid,0,,,110049175548,,10000,BARRY,-85.29902
,,,Y,MI,,$0,,MI0820235,,BARRY COUNTY FAIR/EXPO CENTER,49058,05,,N,0,1,,HASTINGS,,,,____VV______U,,42.670925,Zip Code Centroid,0,,2,110049348942,,10000,BARRY,-85.29902
,,,Y,MI,,$0,,MI0820157,,BARRY COUNTY ROAD COMMISSION - GARAGE,49058,05,,N,0,1,,HASTINGS,,,,_VV_________U,,42.670925,Zip Code Centroid,0,,1,110049348808,,10000,BARRY,-85.29902
,,,Y,MI,,$0,,MI0000426,,BARRY TOWNSHIP,,05,,N,0,0,,,,,,____________U,,42.582811,County Centroid,0,,1,110013130502,,30000,BARRY,-85.31455
26015,,,Y,MI,04050007,$0,,MI0040042,,BARRY'S RESORT,49058,05,49058,Y,0,1,CENTER OF A FACILITY OR STATION,HASTINGS,,,26015,VVVVV____V_VU,040500070211,42.61441,ADDRESS MATCHING-HOUSE NUMBER,1,BARRY COUNTY,8,110012973746,"2875 S CHARLTON PARK RD,",30,BARRY,-85.21166
,,,Y,MI,,$0,,MI5420028,,BARRYTON CHURCH OF CHRIST,49305,05,,N,0,0,,BARRYTON,,,,____________U,,43.79703,Zip Code Centroid,0,,,110052062414,,10000,MECOSTA,-85.068724
,,,Y,MI,,$0,,MI5420117,,BARRYTON CHURCH OF GOD,49305,05,,N,0,1,,BARRYTON,,,,VVVSSSSV____U,,43.79703,Zip Code Centroid,0,,3,110052071262,,10000,MECOSTA,-85.068724
,,,Y,MI,,$0,,MI5420079,,BARRYTON ELEMENTARY SCHOOL,49305,05,,Y,0,1,,BARRYTON,,,,VVVVVVVVVVVVU,,43.79703,Zip Code Centroid,1,,23,110052099545,,10000,MECOSTA,-85.068724
,,,Y,MI,,$0,,MI5420036,,BARRYTON PUBLIC LIBRARY,49305,05,,N,0,0,,BARRYTON,,,,____________U,,43.79703,Zip Code Centroid,0,,,110052132027,,10000,MECOSTA,-85.068724
,,,Y,MI,,$0,,MI1420290,,BARTLEY CAMP 140025,49047,05,,N,0,1,,DOWAGIAC,,,,_____VV__VV_U,,42.0147,Zip Code Centroid,0,,4,110049406479,,10000,CASS,-86.06904
,,,Y,MI,,$0,,MI0120170,,BARTON CITY EAGLES AERIE #4141,48705,05,,N,0,0,,BARTON CITY,,,,____________U,,44.701344,Zip Code Centroid,0,,,110051915479,,10000,ALCONA,-83.69302
,,,Y,MI,,$0,,MI0000430,,BARTON HILLS,,05,,N,0,0,,,,,,____________U,,42.252327,County Centroid,0,,,110013130520,,30000,WASHTENAW,-83.844634
26005,,,Y,MI,04050003,$0,,MI0040005,,BASELINE MOBILE HOME PARK,49055,05,49055,N,0,0,ENTRANCE POINT OF A FACILITY OR STATION,GOBLES,,,26159,____________U,040500030902,42.42277,ADDRESS MATCHING-BLOCK FACE,0,VAN BUREN COUNTY,,110013099681,M-40 NORTH,1000,VAN BUREN,-85.86344
,,,Y,MI,,$0,,MI0820124,,BASELINE UNITED METHODIST CHURCH,49017,05,,N,0,1,,BATTLE CREEK,,,,__VV________U,,42.445095,Zip Code Centroid,0,,2,110052094880,,10000,BARRY,-85.275866
,,,Y,MI,,$0,,MI5320055,,BASS LAKE RESORT,49449,05,,Y,0,1,,PENTWATER,,,,VVVVVVVVVVVSU,,43.783286,Zip Code Centroid,1,,,110052174507,,10000,MASON,-86.409643
,,,Y,MI,,$0,,MI7820244,,BATES SCOUT PARK,48848,05,,N,0,1,,LAINGSBURG,,,,VVV__VV_____U,,42.88104,Zip Code Centroid,0,,10,110049360366,,10000,SHIAWASSEE,-84.408034
,,,Y,MI,,$0,,MI0000440,,BATES TOWNSHIP,,05,,N,0,0,,,,,,____________U,,46.170249,County Centroid,0,,,110013130566,,30000,IRON,-88.540409
,,,Y,MI,,$0,,MI1920554,,BATH AMERICAN LEGION POST 412,48808,05,,Y,0,1,,BATH,,,,VVVVVVVVVVVVU,,42.820453,Zip Code Centroid,1,,5,110052070753,,10000,CLINTON,-84.439358
,,,Y,MI,,$0,,MI0000450,,BATTLE CREEK - VERONA SYSTEM,,05,,Y,0,1,,,,,,__V_______VVU,,42.24299,County Centroid,1,,5,110013130600,,30000,CALHOUN,-85.012385
,,,Y,MI,,$0,,MI1320157,,BATTLE CREEK BAPTIST TEMPLE,49017,05,,N,0,1,,BATTLE CREEK,,,,SVVVV_______U,,42.445095,Zip Code Centroid,0,,16,110051928679,,10000,CALHOUN,-85.275866
,,,Y,MI,,$0,,MI1320283,,BATTLE CREEK ELKS LODGE 131,49017,05,,N,0,0,,BATTLE CREEK,,,,____________U,,42.445095,Zip Code Centroid,0,,,110051962649,,10000,CALHOUN,-85.275866
,,,Y,MI,,$0,,MI1320388,,BATTLE CREEK FRIENDS CHURCH,49017,05,,Y,0,1,,BATTLE CREEK,,,,VVVVVV__VVVVU,,42.445095,Zip Code Centroid,1,,4,110049337561,,10000,CALHOUN,-85.275866
,,,Y,MI,,$0,,MI1320400,,BATTLE CREEK GLASS WORKS,49017,05,,N,0,0,,BATTLE CREEK,,,,V___________U,,42.445095,Zip Code Centroid,0,,5,110051962738,,10000,CALHOUN,-85.275866
,,,Y,MI,,$0,,MI1320091,,BATTLE CREEK MOTOR LODGE,49017,05,,N,0,0,,BATTLE CREEK,,,,____________U,,42.445095,Zip Code Centroid,0,,,110052488759,,10000,CALHOUN,-85.275866
,,,Y,MI,,$0,,MI7020354,,BAUER 7TH DAY ADVENTIST CHURCH,49426,05,,N,0,0,,HUDSONVILLE,,,,____________U,,42.864195,Zip Code Centroid,0,,,110052221939,,10000,OTTAWA,-85.861243
,,,Y,MI,,$0,,MI7020600,,BAUER CHRISTIAN REFORMED CHURCH,49426,05,,N,0,0,,HUDSONVILLE,,,,____________U,,42.864195,Zip Code Centroid,0,,,110052097048,,10000,OTTAWA,-85.861243
,,,Y,MI,,$0,,MI7020347,,BAUER COMMUNITY FELLOWSHIP,49426,05,,N,0,0,,HUDSONVILLE,,,,____________U,,42.864195,Zip Code Centroid,0,,,110052221840,,10000,OTTAWA,-85.861243
,,,Y,MI,,$0,,MI3720200,,BAUMAN'S SUPERETTE,48878,05,,N,0,0,,ROSEBUSH,,,,____________U,,43.71279,Zip Code Centroid,0,,,110049421069,,10000,ISABELLA,-84.762795
,,,Y,MI,,$0,,MI3720148,,BAUMANN'S IGA,48893,05,,N,0,0,,WEIDMAN,,,,____________U,,43.683602,Zip Code Centroid,0,,,110049170561,,10000,ISABELLA,-84.952882
,,,Y,MI,,$0,,MI0006077,,BAVARIAN SOFTWATER VILLAGE,,05,,N,0,0,,,,,,____________U,,42.660452,County Centroid,0,,,110013105095,,30000,OAKLAND,-83.38421
,,,Y,MI,,$0,,MI0620206,,BAY ARENAC HEADSTRT,48749,05,,N,0,1,,OMER,,,,__________VVU,,44.047637,Zip Code Centroid,0,,2,110052712249,,10000,ARENAC,-83.87038
,,,Y,MI,,$0,,MI0620197,,BAY ARENAC ISD,48658,05,,N,0,0,,STANDISH,,,,____________U,,43.968057,Zip Code Centroid,0,,20,110052712070,,10000,ARENAC,-83.94555
26017,,,Y,MI,04080206,$0,,MI0000470,,"BAY CITY, CITY OF",48708,05,48708,N,0,0,CENTER OF A FACILITY OR STATION,BAY CITY,,,26017,____________U,040802060204,43.59341,ADDRESS MATCHING-HOUSE NUMBER,0,BAY COUNTY,,110013130628,301 WASHINGTON AVE,30,BAY,-83.88849
26017,,,Y,MI,04080206,$0,,MI0000485,,BAY CO. DEPT OF WATER & SEWER,48708,05,48708,N,0,0,CENTER OF A FACILITY OR STATION,BAY CITY,,,26017,____________U,040802060204,43.59779,ADDRESS MATCHING-HOUSE NUMBER,0,BAY COUNTY,,110013130646,515 CENTER AVENUE,30,BAY,-83.8848
