FacDerivedStctyFIPS,SDWAFormalActionCount,FacDateLastPenalty,SDWISFlag,FacState,FacDerivedHuc,FacTotalPenalties,Score,SDWASystemTypes,SDWAInspections5yr,FacFIPSCode,FacLastPenaltyAmt,FacName,FacZip,FacEPARegion,FacMajorFlag,NC,FacFormalActionCount,ViolFlag,FacReferencePoint,FacCity,FacImpWaterFlg,FacPenaltyCount,SDWAIDs,SDWA3yrComplQtrsHistory,FacPercentMinority,FacDerivedWBD,FacLat,FacCollectionMethod,CurrVioFlag,FacStdCountyName,SDWAInformalCount,FacDerivedZip,RegistryID,FacStreet,FacAccuracyMeters,FacCounty,FacLong
,8,,Y,NC,,$0,1,Transient non-community system,,,,115 GAS AND GRILL,,04,,Y,8,1,,,,,NC0197555,VV____VV___VV,,,36.209303,County Centroid,1,,12,,110051042251,,30000,WILKES,-81.165354
37047,6,,Y,NC,03040206,$0,1,Transient non-community system,,37047,,1ST ST PAUL S BAPTIST CHURCH,28472,04,,Y,6,1,CENTER OF A FACILITY OR STATION,WHITEVILLE,,,NC0424697,___VV___VVVVV,45.342,030402060203,34.35316,ADDRESS MATCHING-HOUSE NUMBER,1,COLUMBUS COUNTY,10,28472,110018737991,76 CAMPGROUNG ROAD,30,COLUMBUS,-78.71108
37001,3,,Y,NC,03030002,$0,1,Community water system,,37001,,2000 PARK PLACE,27215,04,,N,3,1,CENTER OF A FACILITY OR STATION,BURLINGTON,,,NC0201204,________VVVV,10.595,030300020306,35.97165,ADDRESS MATCHING-HOUSE NUMBER,0,ALAMANCE COUNTY,5,27215,110018689123,3941 EULISS ROAD,30,ALAMANCE,-79.4996
,,,Y,NC,,$0,1,Transient non-community system,1,,,24 FIT,,04,,N,0,0,,,,,NC7065068,_____________,,,34.177466,County Centroid,0,,,,NC7065068,,30000,New Hanover,-77.871378
,,,Y,NC,,$0,1,Transient non-community system,,,,"2MAC, LLC BUILDING",,04,,N,0,0,,,,,NC0150419,_____________,,,35.286463,County Centroid,0,,,,110052748906,,30000,JACKSON,-83.130641
,13,,Y,NC,,$0,1,Transient non-community system,,,,3 POINTS GROCERY & GRILL  NO 2,,04,,Y,13,1,,,,,NC0217420,V___VVVVVVVVV,,,36.393097,County Centroid,1,,24,,110050800969,,30000,CASWELL,-79.332546
,1,,Y,NC,,$0,1,Transient non-community system,,37001,,3 POINTS GROCERY AND GRILL,27217,04,,Y,1,1,,BURLINGTON,,,NC3017002,________VVVVV,,,36.26827,Zip Code Centroid,1,ALAMANCE COUNTY,2,,110018740031,11126 HIGHWAY 62 SOUTH,10000,ALAMANCE,-79.351193
,,,Y,NC,,$0,1,Transient non-community system,,37169,,311 TIRE AND AUTOMOTIVE,27052,04,,N,0,0,,WALNUT COVE,,,NC0234498 NC0285403,_____________,,,36.333806,Zip Code Centroid,0,STOKES COUNTY,,,110018525862,7610 HIGHWAY 311 NORTH,10000,STOKES,-80.184421
,10,,Y,NC,,$0,1,Community water system,2,37085,,401 MOBILE HOME PARK,27546,04,,Y,10,1,,LILLINGTON,,,NC0347102,VVVVVVVVVVVVV,,,35.374255,Zip Code Centroid,1,HARNETT COUNTY,18,,110012864766,RT4 BOX 97,10000,HARNETT,-78.918792
,3,,Y,NC,,$0,1,Transient non-community system,3,,,7 ELEVEN ENOCHVILLE,,04,,N,3,1,,,,,NC2080074,V_____VV_____,,,35.639218,County Centroid,0,,6,,110063331372,,30000,ROWAN,-80.525344
,2,,Y,NC,,$0,1,Transient non-community system,,,,A B FOODMART,,04,,N,2,1,,,,,NC7071044,_V____VV_____,,,34.512581,County Centroid,0,,4,,110050647564,,30000,PENDER,-77.888029
,,,Y,NC,,$0,1,Community water system,,,,A COUNTRY PLACE,,04,,N,0,0,,WAKE FOREST,,,NC0392222,_____________,,,35.988697,Place Name Centroid,0,,,,110012856132,,20000,WAKE,-78.536658
,,,Y,NC,,$0,1,Transient non-community system,1,,,ABBEY INN,,04,,N,0,0,,,,,NC0136890,_____________,,,35.293344,County Centroid,0,,,,110052777081,,30000,GASTON,-81.177256
,2,,Y,NC,,$0,1,Transient non-community system,,,,ABERDEEN TRAINING FACILITY,28310,04,,N,2,1,,FORT BRAGG,,,NC0347482,_V_________VV,,,35.144746,Zip Code Centroid,0,,5,,110027396351,,10000,,-79.043765
37125,,,Y,NC,03040203,$0,1,Community water system,2,37125,,"ABERDEEN, TOWN OF",28315,04,,N,0,0,CENTER OF A FACILITY OR STATION,ABERDEEN,,,NC0363020,_____________,34.205,030402030202,35.14283,ADDRESS MATCHING-HOUSE NUMBER,0,MOORE COUNTY,,28315,110012863534,804 N SANDHILLS BLVD,30,MOORE,-79.42319
,2,,Y,NC,,$0,1,Community water system,2,,,ABINGTON S/D,,04,,N,2,1,,KERNERSVILLE,,,NC0234191,VV___________,,,36.107323,Place Name Centroid,0,,6,,110012899220,,20000,FORSYTH,-80.085466
,,,Y,NC,,$0,1,Transient non-community system,,,,ABSHER FLOWERS VFW POST 9337,,04,,N,0,0,,,,,NC0136625,_____________,,,35.293344,County Centroid,0,,,,110052785660,,30000,GASTON,-81.177256
,,,Y,NC,,$0,1,Transient non-community system,,,,ABUNDANT LIFE ASSEMBLY OF GOD,,04,,N,0,0,,,,,NC0424856,_____________,,,34.260471,County Centroid,0,,,,110050757784,,30000,COLUMBUS,-78.636378
,4,,Y,NC,,$0,1,Transient non-community system,,,,ABUNDANT LIFE FOUR SQUARE CHURCH,,04,,N,4,1,,,,,NC0149600,__VVVVVVV____,,,35.806356,County Centroid,0,,6,,110053036200,,30000,IREDELL,-80.874545
37047,,07/27/2000,Y,NC,03030005,$0,1,Non-Transient non-community system,,37047,"$1,035",ACME DELCO ELEMENTARY SCHOOL,28456,04,,Y,0,1,ENTRANCE POINT OF A FACILITY OR STATION,RIEGELWOOD,,,NC0424416,,54.619,030300050303,34.34724,ADDRESS MATCHING-HOUSE NUMBER,1,COLUMBUS COUNTY,,28456,110009844295,16337 OLD LAKE WILMINGTON RD,50,COLUMBUS,-78.254625
,1,,Y,NC,,$0,1,Community water system,2,,,ACONY BELL COMMUNITY,,04,,Y,1,1,,,,,NC1045041,___________VV,,,35.336424,County Centroid,1,,2,,NC1045041,,30000,Henderson,-82.479634
,2,,Y,NC,,$0,1,Transient non-community system,1,,,ACORN RIDGE BAPT CHURCH,,04,,N,2,0,,,,,NC0363401,_____________,,,35.310163,County Centroid,0,,6,,110053015740,,30000,MOORE,-79.480664
,,,Y,NC,,$0,1,Community water system,1,37037,,ACRES OF SPACE MHP,27545,04,,N,0,0,,KNIGHTDALE,,,NC0392101,_____________,,,35.790909,Zip Code Centroid,0,CHATHAM COUNTY,,,110012857444,7911 US HIGHWAY 64 E,10000,WAKE,-78.484575
37101,37,,Y,NC,03020203,$0,1,Community water system,1,37101,,ADAMS MHP,27557,04,,Y,37,1,CENTER OF A FACILITY OR STATION,MIDDLESEX,,,NC0351120,VVVVVVVVVVVVV,48.515,030202030102,35.74133,ADDRESS MATCHING-HOUSE NUMBER,1,JOHNSTON COUNTY,100,27557,110010708653,12862 BUCK ROAD,30,JOHNSTON,-78.22825
,10,,Y,NC,,$0,1,Transient non-community system,,,,ADVANCED DIGITAL CABLE,,04,,Y,10,1,,,,,NC0122405,V___VVVVVVVVV,,,35.052997,County Centroid,1,,17,,110052877295,,30000,CLAY,-83.752264
,1,,Y,NC,,$0,1,Transient non-community system,,,,ADVENTURE TRAIL CAMPGROUND,,04,,N,1,0,,,,,NC0150187,_____________,,,35.286463,County Centroid,0,,3,,110052921488,,30000,JACKSON,-83.130641
,,,Y,NC,,$0,1,Transient non-community system,,,,ADVENTURE VILLAGE,,04,,N,0,0,,,,,NC1088001,_____________,,,35.210095,County Centroid,0,,,,110050867488,,30000,TRANSYLVANIA,-82.816696
,,,Y,NC,,$0,1,Transient non-community system,2,,,AFFORDABLE DENTURES,,04,,N,0,0,,,,,NC5326400,_____________,,,35.050192,County Centroid,0,,,,110050931612,,30000,CUMBERLAND,-78.828719
,2,,Y,NC,,$0,1,Transient non-community system,,,,AGAPE BAPTIST CHURCH,,04,,N,2,1,,,,,NC0201596,__VV_________,,,36.041974,County Centroid,0,,3,,110050819334,,30000,ALAMANCE,-79.399935
,,,Y,NC,,$0,1,Transient non-community system,,,,AGATE`S INN AT THE PONDS,,04,,N,0,0,,,,,NC0195553,_____________,,,36.235371,County Centroid,0,,,,110050952652,,30000,WATAUGA,-81.709919
37175,,,Y,NC,06010105,$0,1,Transient non-community system,,37175,,AGFA CORPORATION,28718,04,Y,N,0,0,POINT WHERE SUBSTANCE IS RELEASED,CEDAR MOUNTAIN,,,NC0188501,,3.084,060101050204,35.18529,UNKNOWN,0,TRANSYLVANIA COUNTY,,28718,110018748275,STATON ROAD STATE ROAD 1591,17400,TRANSYLVANIA,-82.61779
,,,Y,NC,,$0,1,Community water system,,,,"AHOSKIE, TOWN OF",,04,,N,0,1,,AHOSKIE,,,NC0446010,__VV_________,,,36.284339,Place Name Centroid,0,,,,110012844690,,20000,HERTFORD,-76.990146
,26,,Y,NC,,$0,1,Transient non-community system,,,,AJ`S FOOD MART,,04,,Y,26,1,,,,,NC4392445,_VV_VVVV__VVV,,,35.789846,County Centroid,1,,37,,110050861803,,30000,WAKE,-78.650624
,1,,Y,NC,,$0,1,Non-Transient non-community system,,,,ALAMANCE PRESBYTERIAN CH/DAYCA,,04,,N,1,1,,,,,NC0241645,__VV_________,,,36.079065,County Centroid,0,,3,,110050890327,,30000,GUILFORD,-79.788665
,,,Y,NC,,$0,1,Community water system,,,,ALAN ACRES,,04,,N,0,0,,GASTONIA,,,NC0136102,_____________,,,35.249223,Place Name Centroid,0,,,,110012928528,,20000,GASTON,-81.182939
,,,Y,NC,,$0,1,Community water system,,,,ALBANY ACRES S/D,,04,,N,0,0,,CLAYTON,,,NC0351194,_____________,,,35.666192,Place Name Centroid,0,,,,110012862599,,20000,JOHNSTON,-78.444539
,1,,Y,NC,,$0,1,Transient non-community system,2,,,ALBEMARLE WESLEYAN CHURCH,,04,,N,1,0,,,,,NC0184555,_____________,,,35.310523,County Centroid,0,,3,,110052936123,,30000,STANLY,-80.254355
,3,,Y,NC,,$0,1,Community water system,23,,,"ALBEMARLE, CITY OF",,04,,N,3,1,,ALBEMARLE,,,NC0184010,VVVVV__VVVVV,,,35.360039,Place Name Centroid,0,,7,,110012906418,,20000,STANLY,-80.192135
37167,,01/14/2011,Y,NC,03040103,$0,1,Community water system,,37167,$187,ALCOA - BADIN WORKS,28009,04,Y,Y,0,1,ENTRANCE POINT OF A FACILITY OR STATION,BADIN,Y,,NC0184040,,40.09,030401030605,35.4155,ADDRESS MATCHING-HOUSE NUMBER,1,STANLY COUNTY,,28001,110017425614,293 HIGHWAY 740,30,STANLY,-80.11826
,2,,Y,NC,,$0,1,Non-Transient non-community system,1,,,ALDERMAN ROAD ELEMENTARY,,04,,N,2,0,,,,,NC0326810,_____________,,,35.050192,County Centroid,0,,3,,110050920063,,30000,CUMBERLAND,-78.828719
,,,Y,NC,,$0,1,Transient non-community system,,,,ALERT PENTECOSTAL HOLINESS CH,,04,,N,0,0,,,,,NC0235406,_____________,,,36.088241,County Centroid,0,,,,110050847884,,30000,FRANKLIN,-78.28309
37003,,,Y,NC,03050101,$0,1,Community water system,8,37003,,ALEXANDER CO WTR DIST,28681,04,,N,0,0,ENTRANCE POINT OF A FACILITY OR STATION,TAYLORSVILLE,,,NC0102020,_____________,23.439,030501011003,35.912982,ADDRESS MATCHING-HOUSE NUMBER,0,ALEXANDER COUNTY,,28681,110012944920,700 LILEDOUN RD,50,ALEXANDER,-81.188677
,,,Y,NC,,$0,1,Transient non-community system,,,,ALEXANDER MISSIONARY BAPT CH,,04,,N,0,0,,,,,NC0111421,_____________,,,35.609371,County Centroid,0,,,,110052917983,,30000,BUNCOMBE,-82.530426
,,,Y,NC,,$0,1,Transient non-community system,1,,,ALEXIS BAPTIST CHURCH,,04,,N,0,0,,,,,NC0136436,_____________,,,35.293344,County Centroid,0,,,,110052958787,,30000,GASTON,-81.177256
,,,Y,NC,,$0,1,Non-Transient non-community system,,,,ALL GOD'S CHILDREN CEC,,04,,N,0,0,,,,,NC1011038,_____________,,,35.609371,County Centroid,0,,,,NC1011038,,30000,Buncombe,-82.530426
,,,Y,NC,,$0,1,Transient non-community system,,,,ALL SAINTS ANGLICAN CHURCH,,04,,N,0,0,,,,,NC0145506,_____________,,,35.336424,County Centroid,0,,,,110052872726,,30000,HENDERSON,-82.479634
37183,1,,Y,NC,03020201,$0,1,Community water system,1,37183,,ALL STAR MHP,27603,04,,N,1,1,CENTER OF A FACILITY OR STATION,RALEIGH,,,NC0392102,_VV__________,43.568,030202011002,35.70363,ADDRESS MATCHING-HOUSE NUMBER,0,WAKE COUNTY,1,27603,110012857471,5538 FAYETTEVILLE RD,30,WAKE,-78.66542
,5,,Y,NC,,$0,1,Non-Transient non-community system,1,,,ALL-SPEC INDUSTRIES INC,,04,,N,5,1,,,,,NC7065051,_VV__________,,,34.177466,County Centroid,0,,7,,110050855801,,30000,NEW HANOVER,-77.871378
,,,Y,NC,,$0,1,Transient non-community system,,,,ALLEN & SONS BBQ,,04,,N,0,0,,,,,NC0368422,_____________,,,36.062499,County Centroid,0,,2,,110050635201,,30000,ORANGE,-79.119355
,,,Y,NC,,$0,1,Transient non-community system,,,,ALLEN CHAPEL BAPTIST CHURCH,,04,,N,0,0,,,,,NC0235415,_____________,,,36.088241,County Centroid,0,,,,110050801183,,30000,FRANKLIN,-78.28309
,,,Y,NC,,$0,1,Transient non-community system,1,,,ALLEN FISHING AREA,,04,,N,0,0,,,,,NC2036009,_____________,,,35.293344,County Centroid,0,,,,110050931970,,30000,GASTON,-81.177256
37071,5,,Y,NC,03050102,$0,1,Community water system,1,37071,,ALLEN MHP,28021,04,,N,5,1,ENTRANCE POINT OF A FACILITY OR STATION,CHERRYVILLE,,,NC0136103,VVVVVVVVVVV__,12.296,030501020502,35.39992,ADDRESS MATCHING-HOUSE NUMBER,0,GASTON COUNTY,11,28021,110012928573,2542 LINCOLNTON HWY,50,GASTON,-81.338201
,,,Y,NC,,$0,1,Community water system,,,,ALLEN WOODS VILLAGE,,04,,N,0,0,,ELKIN,,,NC0286144,_____________,,,36.262768,Place Name Centroid,0,,,,110012873989,,20000,SURRY,-80.846535
,,,Y,NC,,$0,1,Community water system,,,,ALLENDALE HEIGHTS,,04,,N,0,0,,SOPHIA,,,NC0276207,_____________,,,35.800992,Post Office Name Centroid,0,,,,110012875558,,20000,RANDOLPH,-79.893961
,2,,Y,NC,,$0,1,Transient non-community system,1,,,ALLISON WOODS FAMILY PARTNERSHIP,,04,,N,2,0,,,,,NC2049039,_____________,,,35.806356,County Centroid,0,,6,,110064360150,,30000,IREDELL,-80.874545
,1,,Y,NC,,$0,1,Transient non-community system,,,,ALMOND BOAT PARK & RV,,04,,N,1,1,,,,,NC0187556,_VVV_________,,,35.568849,County Centroid,0,,3,,110052784830,,30000,SWAIN,-83.465614
,15,,Y,NC,,$0,1,Transient non-community system,,,,ALSTON CHAPEL UNITED HOLY CHURCH,,04,,Y,15,1,,,,,NC0319489,VVVVVVVVVVVVV,,,35.704994,County Centroid,1,,27,,110049187116,,30000,CHATHAM,-79.251454
,1,,Y,NC,,$0,1,Non-Transient non-community system,,,,ALTAMAHAW BAPTIST DAYCARE,,04,,N,1,0,,,,,NC0201405,_____________,,,36.041974,County Centroid,0,,3,,110051087211,,30000,ALAMANCE,-79.399935
,,,Y,NC,,$0,1,Non-Transient non-community system,,,,ALTAMAHAW-OSSIPEE ELEM SCHOOL,,04,,N,0,0,,,,,NC0201403,_____________,,,36.041974,County Centroid,0,,,,110051026778,,30000,ALAMANCE,-79.399935
,,,Y,NC,,$0,1,Transient non-community system,,,,ALTAMONT METHODIST CHURCH,,04,,N,0,0,,,,,NC0106404,_____________,,,36.072894,County Centroid,0,,,,110050766417,,30000,AVERY,-81.920363
,1,,Y,NC,,$0,1,Transient non-community system,,,,ALTAPASS BAPTIST CHURCH,,04,,N,1,1,,,,,NC0161424,________VV___,,,36.013102,County Centroid,0,,3,,110052843330,,30000,MITCHELL,-82.163554
,,,Y,NC,,$0,1,Community water system,,,,ALTICE ESTATES S/D,,04,,N,0,0,,RALEIGH,,,NC0392323,_____________,,,35.830204,Place Name Centroid,0,,,,110012853803,,20000,WAKE,-78.641439
,30,,Y,NC,,$0,1,Transient non-community system,,,,AMAZING GRACE BAPTIST CHURCH,,04,,N,30,1,,,,,NC3086035,__VVVVVVVV___,,,36.415416,County Centroid,0,,47,,110050857346,,30000,SURRY,-80.686463
,,,Y,NC,,$0,1,Community water system,,,,AMBER ACRES,,04,,Y,0,1,,,,,NC0392236,VVVVVVVVVVVVV,,,35.789846,County Centroid,1,,,,110012915024,,30000,WAKE,-78.650624
,,,Y,NC,,$0,1,Community water system,,,,AMBER ACRES NORTH S/D,,04,,N,0,0,,KNIGHTDALE,,,NC0392346,_____________,,,35.791726,Place Name Centroid,0,,,,110012852261,,20000,WAKE,-78.496457
,,,Y,NC,,$0,1,Community water system,,,,AMBER RIDGE S/D,,04,,N,0,0,,KNIGHTDALE,,,NC4392182,_____________,,,35.791726,Place Name Centroid,0,,,,110013274296,,20000,WAKE,-78.496457
,3,,Y,NC,,$0,1,Non-Transient non-community system,,,,AMERICAN TRUETZSCHLER INC,,04,,N,3,1,,,,,NC0160880,VVVVVVVVVV___,,,35.246862,County Centroid,0,,6,,110052864851,,30000,MECKLENBURG,-80.833832
,,,Y,NC,,$0,1,Community water system,1,,,AMHERST S/D,,04,,N,0,0,,,,,NC0392095,_____________,,,35.789846,County Centroid,0,,,,110012857248,,30000,WAKE,-78.650624
,,,Y,NC,,$0,1,Transient non-community system,,,,AMIS CHAPEL BAPTIST CHURCH,,04,,N,0,0,,,,,NC0239431,_____________,,,36.299884,County Centroid,0,,,,110050968912,,30000,GRANVILLE,-78.657634
,,,Y,NC,,$0,1,Transient non-community system,,,,AMITY BAPTIST CHURCH,,04,,N,0,0,,,,,NC0155520,_____________,,,35.487825,County Centroid,0,,,,110052866939,,30000,LINCOLN,-81.225176
,,,Y,NC,,$0,1,Transient non-community system,,,,AMITY HILLS BAPTIST CHURCH,,04,,N,0,0,,,,,NC0276458,_____________,,,35.709915,County Centroid,0,,,,110049209469,,30000,RANDOLPH,-79.806215
,,,Y,NC,,$0,1,Community water system,3,,,AMY ACRES S/D,,04,,N,0,0,,,,,NC0136339,_____________,,,35.293344,County Centroid,0,,,,110012922613,,30000,GASTON,-81.177256
,3,,Y,NC,,$0,1,Non-Transient non-community system,,,,ANCHOR BAPTIST,,04,,N,3,0,,,,,NC0188444,_____________,,,35.210095,County Centroid,0,,4,,110053009329,,30000,TRANSYLVANIA,-82.816696
,3,,Y,NC,,$0,1,Transient non-community system,,,,ANCHORED IN JESUS BAPTIST,,04,,N,3,1,,,,,NC3086062,__VV___VV____,,,36.415416,County Centroid,0,,4,,110063357353,,30000,SURRY,-80.686463
,6,,Y,NC,,$0,1,Transient non-community system,1,,,ANCHORS BEND YACHT CLUB,,04,,Y,6,1,,,,,NC0465210,VVVVVVVVVVVVV,,,34.177466,County Centroid,1,,10,,110050789740,,30000,NEW HANOVER,-77.871378
,,,Y,NC,,$0,1,Non-Transient non-community system,,,,ANDERSEN ENERGY INC,,04,,N,0,0,,,,,NC0201631,_____________,,,36.041974,County Centroid,0,,,,110050659177,,30000,ALAMANCE,-79.399935
,7,,Y,NC,,$0,1,Transient non-community system,,,,ANDERSON COMMUNITY PARK,,04,,Y,7,1,,,,,NC4068027,_VVVVVV___VVV,,,36.062499,County Centroid,1,,12,,110063373433,,30000,ORANGE,-79.119355
,7,,Y,NC,,$0,1,Transient non-community system,,,,ANDREW TYSON FARMS MLC,,04,,Y,7,1,,,,,NC4064003,VVVVVVVVVVVVV,,,35.965945,County Centroid,1,,17,,110050852975,,30000,NASH,-77.987555
,,,Y,NC,,$0,1,Transient non-community system,,,,ANDREWS MEMORIAL BAPTIST CH,,04,,N,0,0,,,,,NC0241438,_____________,,,36.079065,County Centroid,0,,,,110050772017,,30000,GUILFORD,-79.788665
,,,Y,NC,,$0,1,Community water system,1,,,"ANDREWS, TOWN OF",,04,,N,0,0,,ANDREWS,,,NC0120020,_____________,,,35.199539,Place Name Centroid,0,,,,110012932595,,20000,CHEROKEE,-83.825632
,,,Y,NC,,$0,1,Community water system,1,,,"ANGIER, TOWN OF",,04,,N,0,0,,ANGIER,,,NC0343015,_____________,,,35.506684,Place Name Centroid,0,,,,110012864105,,20000,HARNETT,-78.740202
,2,,Y,NC,,$0,1,Transient non-community system,1,,,ANITOCH BAPTIST CHURCH,,04,,N,2,1,,,,,NC0180634,_____VV______,,,35.639218,County Centroid,0,,3,,110052416658,,30000,ROWAN,-80.525344
,,,Y,NC,,$0,1,Transient non-community system,,,,ANNE LOUISE WILKERSON NATURE PRESERVE,,04,,N,0,0,,,,,NC4092188,_____________,,,35.789846,County Centroid,0,,,,NC4092188,,30000,Wake,-78.650624
,15,,Y,NC,,$0,1,Community water system,4,,,ANSON COUNTY WATER SYSTEM,,04,,Y,15,1,,,,,NC0304010,VVVVVVVVVVVVV,,,34.974996,County Centroid,1,,58,,110012872169,,30000,ANSON,-80.109959
,10,,Y,NC,,$0,1,Community water system,,,,ANSONVILLE WATER SYSTEM,,04,,Y,10,1,,,,,NC0304012,VVVVVVVVVVVVV,,,34.974996,County Centroid,1,,15,,110012919716,,30000,ANSON,-80.109959
,,,Y,NC,,$0,1,Transient non-community system,,,,ANTIOCH BAPTIST CHURCH,,04,,N,0,0,,,,,NC0111439,_____________,,,35.609371,County Centroid,0,,,,110052932323,,30000,BUNCOMBE,-82.530426
,,,Y,NC,,$0,1,Transient non-community system,,,,ANTIOCH BAPTIST CHURCH,,04,,N,0,0,,,,,NC0424777,_____________,,,34.260471,County Centroid,0,,,,110050775443,,30000,COLUMBUS,-78.636378
,,,Y,NC,,$0,1,Transient non-community system,2,,,ANTIOCH BAPTIST CHURCH,,04,,N,0,0,,,,,NC0149570,_____________,,,35.806356,County Centroid,0,,1,,110052830576,,30000,IREDELL,-80.874545
,,,Y,NC,,$0,1,Transient non-community system,,,,ANTIOCH BAPTIST CHURCH,,04,,N,0,0,,,,,NC0239458,_____________,,,36.299884,County Centroid,0,,,,110051091527,,30000,GRANVILLE,-78.657634
,,,Y,NC,,$0,1,Transient non-community system,,,,ANTIOCH BAPTIST CHURCH,,04,,N,0,0,,,,,NC0112557,_____________,,,35.746182,County Centroid,0,,,,110052856254,,30000,BURKE,-81.70618
,2,,Y,NC,,$0,1,Transient non-community system,,,,ANTIOCH BAPTIST CHURCH,,04,,N,2,0,,,,,NC0368423,_____________,,,36.062499,County Centroid,0,,3,,110050635247,,30000,ORANGE,-79.119355
,,,Y,NC,,$0,1,Transient non-community system,,,,ANTIOCH BAPTIST CHURCH,,04,,N,0,0,,,,,NC0144528,_____________,,,35.557097,County Centroid,0,,1,,110050507215,,30000,HAYWOOD,-82.972807
,1,,Y,NC,,$0,1,Community water system,,,,"APEX, TOWN OF",,04,,N,1,1,,APEX,,,NC0392045,__________VV,,,35.728241,Place Name Centroid,0,,1,,110012860127,,20000,WAKE,-78.862489
,,,Y,NC,,$0,1,Transient non-community system,,,,APOSTOLIC LUTHERAN CHURCH,,04,,N,0,0,,,,,NC0241718,_____________,,,36.079065,County Centroid,0,,,,110050902485,,30000,GUILFORD,-79.788665
,7,,Y,NC,,$0,1,Transient non-community system,,,,APPALACHIAN ADVENT CHRIST CG,,04,,Y,7,1,,,,,NC3095005,_VVVVVVVVVVVV,,,36.235371,County Centroid,1,,10,,110050793977,,30000,WATAUGA,-81.709919
,,,Y,NC,,$0,1,Transient non-community system,,,,APPALACHIAN EFFICIENCIES,,04,,N,0,0,,,,,NC0195441,_____________,,,36.235371,County Centroid,0,,,,110050872150,,30000,WATAUGA,-81.709919
,3,,Y,NC,,$0,1,Transient non-community system,,,,APPALACHIAN SKI MTN,,04,,Y,3,1,,,,,NC0195446,VVVVVVVVVVVVV,,,36.235371,County Centroid,1,,4,,110050872258,,30000,WATAUGA,-81.709919
,4,,Y,NC,,$0,1,Community water system,7,,,APPALACHIAN STATE UNIV WTP,,04,,Y,4,1,,,,,NC0195101,VVVVVVVVVVVVV,,,36.235371,County Centroid,1,,12,,110012903313,,30000,WATAUGA,-81.709919
,2,,Y,NC,,$0,1,Non-Transient non-community system,,,,APPALCART TRANSIT FACILITY,,04,,Y,2,1,,,,,NC3095022,VVVVVVVVVVVVV,,,36.235371,County Centroid,1,,2,,110063365807,,30000,WATAUGA,-81.709919
,,,Y,NC,,$0,1,Community water system,,,,APPLEGATE WATER SYSTEM,,04,,N,0,0,,,,,NC0234179,_____________,,,36.131667,County Centroid,0,,,,110012899015,,30000,FORSYTH,-80.257289
,1,,Y,NC,,$0,1,Transient non-community system,,,,APPLETREE GROUP CAMP,,04,,N,1,1,,,,,NC0157553,_________V___,,,35.152959,County Centroid,0,,3,,110050582650,,30000,MACON,-83.421901
,,,Y,NC,,$0,1,Transient non-community system,,,,APPLIED PLASTIC SERVICES INC,,04,,N,0,0,,,,,NC0424844,_____________,,,34.260471,County Centroid,0,,,,110050748232,,30000,COLUMBUS,-78.636378
,,,Y,NC,,$0,1,Community water system,,,,ARBA WATER CORPORATION,,04,,N,0,1,,,,,NC0440025,VVVVVVVV_____,,,35.481933,County Centroid,0,,,,110012912857,,30000,GREENE,-77.681667
,3,,Y,NC,,$0,1,Transient non-community system,,,,ARBOR DALE PRESBYTERIAN CH,,04,,N,3,0,,,,,NC0106406,_____________,,,36.072894,County Centroid,0,,4,,110050766453,,30000,AVERY,-81.920363
37063,3,,Y,NC,03020201,$0,1,Community water system,,37063,,ARBOR HILL MHP,27712,04,,Y,3,1,CENTER OF A FACILITY OR STATION,DURHAM,,,NC0368108,VVVVVVVVVVVVV,46.599,030202010304,36.07464,ADDRESS MATCHING-HOUSE NUMBER,1,DURHAM COUNTY,4,27712,110010642992,4620 REIGALWOOD ROAD,30,DURHAM,-78.94206
,,,Y,NC,,$0,1,Community water system,,,,ARBOR RUN/CHARLES PLACE S/D,,04,,N,0,0,,,,,NC3041039,_____________,,,36.079065,County Centroid,0,,,,110021063285,,30000,GUILFORD,-79.788665
,,,Y,NC,,$0,1,Community water system,,,,"ARCHDALE, CITY OF",,04,,N,0,0,,ARCHDALE,,,NC0276030,_____________,,,35.90454,Place Name Centroid,0,,,,110012878047,,20000,RANDOLPH,-79.965612
,,,Y,NC,,$0,1,Community water system,5,,,ARCHDALE/TRYON MHP,,04,,N,0,0,,,,,NC0136252,_____________,,,35.293344,County Centroid,0,,,,110012926487,,30000,GASTON,-81.177256
,2,,Y,NC,,$0,1,Transient non-community system,4,,,ARDIS CHAPEL AME ZION CHURCH,,04,,N,2,1,,,,,NC0180681,V___V________,,,35.639218,County Centroid,0,,6,,110050542114,,30000,ROWAN,-80.525344
,1,,Y,NC,,$0,1,Non-Transient non-community system,1,,,ARLINGTON BAPTIST CHURCH INC,,04,,N,1,1,,,,,NC0160515,___V_________,,,35.246862,County Centroid,0,,3,,110052790002,,30000,MECKLENBURG,-80.833832
,,,Y,NC,,$0,1,Community water system,,,,ARMFIELD S/D PHASE IA,,04,,N,0,0,,,,,NC3041054,_____________,,,36.079065,County Centroid,0,,,,110021039570,,30000,GUILFORD,-79.788665
,,,Y,NC,,$0,1,Community water system,,,,ARMFIELD S/D PHASE IB,,04,,N,0,0,,,,,NC3041055,_____________,,,36.079065,County Centroid,0,,,,110022499027,,30000,GUILFORD,-79.788665
,,,Y,NC,,$0,1,Community water system,,,,ARROW SPRINGS,,04,,N,0,0,,,,,NC0392374,_____________,,,35.789846,County Centroid,0,,,,110012910378,,30000,WAKE,-78.650624
,1,,Y,NC,,$0,1,Transient non-community system,1,,,ARROWHEAD CAMPGROUND,,04,,N,1,1,,,,,NC0362123,___V_________,,,35.338071,County Centroid,0,,3,,110050727941,,30000,MONTGOMERY,-79.904196
,3,,Y,NC,,$0,1,Non-Transient non-community system,,,,ARTHUR MORGAN SCHOOL,,04,,Y,3,1,,,,,NC0100459,VVV__VVVVVVVV,,,35.889504,County Centroid,1,,5,,110050538520,,30000,YANCEY,-82.30398
,1,,Y,NC,,$0,1,Transient non-community system,,,,ASBURY METHODIST CHURCH,,04,,N,1,0,,,,,NC0299492,_____________,,,36.158765,County Centroid,0,,3,,110050895046,,30000,YADKIN,-80.665164
,,,Y,NC,,$0,1,Community water system,,,,ASHBROOK S/D,,04,,N,0,0,,,,,NC4092081,_____________,,,35.789846,County Centroid,0,,,,110048290693,,30000,WAKE,-78.650624
,,,Y,NC,,$0,1,Transient non-community system,,,,ASHE BAPTIST SUMMER CAMP,,04,,N,0,0,,,,,NC0105413,_____________,,,36.436305,County Centroid,0,,,,110052845720,,30000,ASHE,-81.49877
,,,Y,NC,,$0,1,Non-Transient non-community system,,,,ASHE COUNTY MIDDLE SCHOOL,,04,,N,0,0,,,,,NC0105406,_____________,,,36.436305,County Centroid,0,,,,110052899565,,30000,ASHE,-81.49877
,2,,Y,NC,,$0,1,Transient non-community system,,,,ASHE COUNTY PARK,,04,,N,2,1,,,,,NC0105414,__VVVV_______,,,36.436305,County Centroid,0,,3,,110052845766,,30000,ASHE,-81.49877
,4,,Y,NC,,$0,1,Transient non-community system,,,,ASHEBORO CONG JEHOVAH WITNESS,,04,,N,4,1,,,,,NC3076017,VV___________,,,35.709915,County Centroid,0,,10,,110050908791,,30000,RANDOLPH,-79.806215
,,,Y,NC,,$0,1,Community water system,,,,ASHEBORO COUNTRY CLUB ESTATES,,04,,Y,0,1,,,,,NC3076008,VVVVVVVVVVVVV,,,35.709915,County Centroid,1,,,,110048692205,,30000,RANDOLPH,-79.806215
,2,,Y,NC,,$0,1,Transient non-community system,,,,ASHEBORO COUNTRY CLUB INC,,04,,N,2,1,,,,,NC0276414,VV___________,,,35.709915,County Centroid,0,,3,,110051250409,,30000,RANDOLPH,-79.806215
,1,,Y,NC,,$0,1,Community water system,5,,,"ASHEBORO, CITY OF",,04,,N,1,1,,ASHEBORO,,,NC0276010,___VVVVVV____,,,35.717337,Place Name Centroid,0,,3,,110012877976,,20000,RANDOLPH,-79.814309
,2,,Y,NC,,$0,1,Community water system,1,,,ASHEBROOK PARK,,04,,N,2,1,,,,,NC0136104,VV___________,,,35.293344,County Centroid,0,,4,,110012928699,,30000,GASTON,-81.177256
,,,Y,NC,,$0,1,Community water system,,,,ASHEBROOK WOODS,,04,,N,0,0,,,,,NC0276101,_____________,,,35.709915,County Centroid,0,,,,110012878243,,30000,RANDOLPH,-79.806215
,,,Y,NC,,$0,1,Transient non-community system,,,,ASHEVILLE ACADEMY FOR GIRLS - ED CENTER,,04,,N,0,0,,,,,NC1011028,_____________,,,35.609371,County Centroid,0,,,,110050838037,,30000,BUNCOMBE,-82.530426
,,,Y,NC,,$0,1,Transient non-community system,,,,ASHEVILLE ACADEMY FOR GIRLS -RETREAT CTR,,04,,N,0,0,,,,,NC0111510,_____________,,,35.609371,County Centroid,0,,,,110050481554,,30000,BUNCOMBE,-82.530426
,1,,Y,NC,,$0,1,Community water system,3,,,ASHEVILLE CITY OF,,04,,N,1,0,,,,,NC0111010,_____________,,,35.609371,County Centroid,0,,3,,110012942352,,30000,BUNCOMBE,-82.530426
,6,,Y,NC,,$0,1,Transient non-community system,,,,ASHLEY GROVE BAPTIST CHURCH,,04,,N,6,0,,,,,NC0291535,_____________,,,36.365481,County Centroid,0,,11,,110049175717,,30000,VANCE,-78.405434
,2,,Y,NC,,$0,1,Community water system,,,,ASHLEY HILLS NORTH S/D,,04,,Y,2,1,,,,,NC0392341,VVVV_______VV,,,35.789846,County Centroid,1,,15,,110012854474,,30000,WAKE,-78.650624
,,,Y,NC,,$0,1,Community water system,,,,ASHLEY HILLS S/D,,04,,N,0,0,,,,,NC0392318,_____________,,,35.789846,County Centroid,0,,,,110012853643,,30000,WAKE,-78.650624
,,,Y,NC,,$0,1,Community water system,1,,,ASHLEY WOODS S/D,,04,,N,0,0,,,,,NC0149191,_____________,,,35.806356,County Centroid,0,,,,110012920492,,30000,IREDELL,-80.874545
,,,Y,NC,,$0,1,Non-Transient non-community system,1,,,ASHWORTH ESTATES MHP,28752,04,,Y,0,1,,MARION,,,NC0156113,VVVVVVVVVVVVV,,,35.688037,Zip Code Centroid,1,,6,,110012918307,,10000,MCDOWELL,-82.021844
,,,Y,NC,,$0,1,Transient non-community system,,,,ASHWORTH ROAD BAPTIST CHURCH,,04,,N,0,0,,,,,NC0156429,_____________,,,35.682232,County Centroid,0,,,,110050570903,,30000,MCDOWELL,-82.048029
,,,Y,NC,,$0,1,Transient non-community system,,,,ASPEN GROVE FWB CHURCH,,04,,N,0,0,,,,,NC0498500,_____________,,,35.704125,County Centroid,0,,3,,110050891497,,30000,WILSON,-77.918982
,2,,Y,NC,,$0,1,Community water system,1,,,"ATLANTIC BEACH, TOWN OF",,04,,N,2,1,,ATLANTIC BEACH,,,NC0416035,VV____VV_____,,,34.700682,Place Name Centroid,0,,8,,110012850361,,20000,CARTERET,-76.740937
37031,5,,Y,NC,03020106,$0,1,Non-Transient non-community system,,37031,,ATLANTIC ELEM SCHOOL,28511,04,,N,5,1,CENTER OF A FACILITY OR STATION,ATLANTIC,,,NC0416410,VVV_VVVVVVV__,2.88,030201050402,34.88379,ADDRESS MATCHING-HOUSE NUMBER,0,CARTERET COUNTY,13,28511,110027391837,151 SCHOOL DR,30,CARTERET,-76.34246
,,,Y,NC,,$0,1,Community water system,1,37031,,ATLANTIC MOBILE HOME PARK,28570,04,,N,0,0,,NEWPORT,,,NC0416160,_____________,,,34.74508,Zip Code Centroid,0,CARTERET COUNTY,,,110027405332,N226 OLD AIRPORT RD,10000,CARTERET,-76.929414
,,,Y,NC,,$0,1,Community water system,1,37031,,ATLANTIC MOBILE HOME PARK II,28570,04,,N,0,0,,NEWPORT,,,NC0416166,_____________,,,34.74508,Zip Code Centroid,0,CARTERET COUNTY,,,110027999003,OLD AIRPORT ROAD,10000,CARTERET,-76.929414
37031,4,,Y,NC,03020106,$0,1,Non-Transient non-community system,1,37031,,ATLANTIC VENEER CORPORATION,28516,04,,N,4,1,CENTER OF A FACILITY OR STATION,BEAUFORT,,,NC0416414,VVVVVVVVV____,18.047,030203010704,34.70988,ADDRESS MATCHING-HOUSE NUMBER,0,CARTERET COUNTY,9,28516,110001475886,2457 LENNOXVILLE ROAD,30,CARTERET,-76.62759
,,,Y,NC,,$0,1,Community water system,1,,,ATLANTIC VILLAGE MHP,,04,,N,0,0,,,,,NC0416192,_____________,,,34.858313,County Centroid,0,,,,110012848204,,30000,CARTERET,-76.526967
,,,Y,NC,,$0,1,Community water system,,,,AUBURN ESTATES,,04,,N,0,0,,,,,NC0392344,_____________,,,35.789846,County Centroid,0,,,,110012854492,,30000,WAKE,-78.650624
,,,Y,NC,,$0,1,Community water system,,,,AUBURN HILLS S/D,,04,,N,0,0,,,,,NC4392159,_____________,,,35.789846,County Centroid,0,,,,110012906597,,30000,WAKE,-78.650624
,,,Y,NC,,$0,1,Community water system,2,,,"AULANDER, TOWN OF",,04,,N,0,0,,AULANDER,,,NC0408015,_____________,,,36.228009,Place Name Centroid,0,,,,110012849668,,20000,BERTIE,-77.113599
,,,Y,NC,,$0,1,Community water system,,,,AULDERN ACADEMY,,04,,N,0,0,,,,,NC0319431,_____________,,,35.704994,County Centroid,0,,,,110048698708,,30000,CHATHAM,-79.251454
,3,,Y,NC,,$0,1,Community water system,1,,,AURORA WATER SYSTEM,,04,,N,3,1,,,,,NC0407020,___VVVV______,,,35.482313,County Centroid,0,,10,,110012852298,,30000,BEAUFORT,-76.842014
,2,,Y,NC,,$0,1,Transient non-community system,,,,AUSTIN COMMUNITY CENTER,,04,,N,2,1,,,,,NC0197592,__VV_________,,,36.209303,County Centroid,0,,3,,110050910136,,30000,WILKES,-81.165354
,1,,Y,NC,,$0,1,Community water system,,,,"AUTRYVILLE, TOWN OF",,04,,N,1,1,,AUTRYVILLE,,,NC0382045,VVV__________,,,34.996376,Place Name Centroid,0,,1,,110012859344,,20000,SAMPSON,-78.641259
,,,Y,NC,,$0,1,Community water system,4,,,AUTUMN ACRES S/D,,04,,N,0,0,,,,,NC0136294,_____________,,,35.293344,County Centroid,0,,,,110012927592,,30000,GASTON,-81.177256
,7,,Y,NC,,$0,1,Community water system,,,,AUTUMN FOREST MHP,,04,,Y,7,1,,,,,NC0241103,VVVVVVVVVVVVV,,,36.079065,County Centroid,1,,15,,110012921927,,30000,GUILFORD,-79.788665
,7,,Y,NC,,$0,1,Community water system,,,,AUTUMN WIND ASSISTED LIVING OF LOUISBURG,,04,,Y,7,1,,,,,NC0235118,VVVVVVVVVVVVV,,,36.088241,County Centroid,1,,18,,110012900147,,30000,FRANKLIN,-78.28309
,1,,Y,NC,,$0,1,Community water system,,,,AVALON ACRES MHP,,04,,Y,1,1,,,,,NC0111134,________VVVVV,,,35.609371,County Centroid,1,,5,,110012943182,,30000,BUNCOMBE,-82.530426
,,,Y,NC,,$0,1,Community water system,,37011,,AVERY HEALTH CARE,28646,04,,N,0,0,,LINVILLE,,,NC0106123,_____________,,,36.093319,Zip Code Centroid,0,AVERY COUNTY,,,110012942110,436 HOSPITAL DR # 100,10000,AVERY,-81.861584
37031,,,Y,NC,03020106,$0,1,Transient non-community system,,37031,,AVIATION FUEL TERMINAL,28516,04,,N,0,0,CENTER OF A FACILITY OR STATION,BEAUFORT,,,NC0416401,,24.447,030203010704,34.71676,ADDRESS MATCHING-HOUSE NUMBER,0,CARTERET COUNTY,,28516,110001475920,296 RADIO ISLAND ROAD,30,CARTERET,-76.68777
,,,Y,NC,,$0,1,Transient non-community system,,,,AVILA RETREAT CENTER,,04,,N,0,0,,,,,NC0332588,_____________,,,36.036589,County Centroid,0,,,,110051120167,,30000,DURHAM,-78.877919
,,,Y,NC,,$0,1,Community water system,3,,,AVOCET S/D,,04,,N,0,0,,,,,NC4092107,_____________,,,35.789846,County Centroid,0,,,,110048548363,,30000,WAKE,-78.650624
,2,,Y,NC,,$0,1,Community water system,1,,,"AYDEN, TOWN OF",,04,,N,2,1,,AYDEN,,,NC0474025,______V______,,,35.469854,Place Name Centroid,0,,6,,110012840097,,20000,PITT,-77.418708
37157,,,Y,NC,03010103,$0,1,Transient non-community system,,37157,,AYERSVILLE BAPTIST CHURCH,27027,04,,N,0,0,ENTRANCE POINT OF A FACILITY OR STATION,MAYODAN,,,NC0279569,_____________,9.858,030101030305,36.486344,ADDRESS MATCHING-HOUSE NUMBER,0,ROCKINGHAM COUNTY,,27027,110018747711,310 NC HIGHWAY 770,50,ROCKINGHAM,-80.021975
,6,,Y,NC,,$0,1,Community water system,3,,,AZALEA HILLS MHP,,04,,N,6,0,,,,,NC0136286,_____________,,,35.293344,County Centroid,0,,18,,110012927351,,30000,GASTON,-81.177256
,,,Y,NC,,$0,1,Transient non-community system,,,,AZALEA WALK,,04,,N,0,0,,,,,NC0150452,_____________,,,35.286463,County Centroid,0,,,,110052887667,,30000,JACKSON,-83.130641
,,,Y,NC,,$0,1,Community water system,1,,,B & L TRAILER COURT,,04,,N,0,1,,BURGAW,,,NC0431103,VVVVVVVVVVV__,,,34.55311,Place Name Centroid,0,,1,,110012847214,,20000,DUPLIN,-77.916282
,,,Y,NC,,$0,1,Non-Transient non-community system,,,,B EVERETT JORDAN ELEM SCHOOL,,04,,N,0,0,,,,,NC0201409,_____________,,,36.041974,County Centroid,0,,,,110051087293,,30000,ALAMANCE,-79.399935
,,,Y,NC,,$0,1,Transient non-community system,,,,B H CORPENING TRAINING CENTER,,04,,N,0,0,,,,,NC0106484,_____________,,,36.072894,County Centroid,0,,1,,110050686469,,30000,AVERY,-81.920363
,,,Y,NC,,$0,1,Transient non-community system,,,,B SCOTT WALROND DDS PA,,04,,N,0,0,,,,,NC0241715,_____________,,,36.079065,County Centroid,0,,,,110050902449,,30000,GUILFORD,-79.788665
,3,,Y,NC,,$0,1,Transient non-community system,,,,BACK CREEK FRIENDS MEETING,,04,,Y,3,1,,,,,NC0276416,VVVVVVVVVVVVV,,,35.709915,County Centroid,1,,4,,110051250445,,30000,RANDOLPH,-79.806215
,,,Y,NC,,$0,1,Transient non-community system,2,,,BACK CREEK PRESBYTERIAN CHURCH,,04,,N,0,0,,,,,NC2080002,_____________,,,35.639218,County Centroid,0,,,,110050785726,,30000,ROWAN,-80.525344
,3,,Y,NC,,$0,1,Community water system,,,,BACKWOODS-SADDLEBROOK COMM WS,,04,,N,3,1,,,,,NC6027009,__VVVVV__VV__,,,36.372174,County Centroid,0,,14,,NC6027009,,30000,Currituck,-75.941224
,2,,Y,NC,,$0,1,Transient non-community system,1,,,BADIN GROUP CAMP-REC AREA,,04,,N,2,1,,,,,NC0362592,___V_________,,,35.338071,County Centroid,0,,6,,110050568355,,30000,MONTGOMERY,-79.904196
,1,,Y,NC,,$0,1,Transient non-community system,1,,,BADIN LAKE C.G.-UPPER LOOP,,04,,N,1,1,,,,,NC5062003,___V_________,,,35.338071,County Centroid,0,,3,,110050912205,,30000,MONTGOMERY,-79.904196
,10,,Y,NC,,$0,1,Community water system,,37167,,BADIN SHORES RESORT,28127,04,,Y,10,1,,NEW LONDON,,,NC0362120,VVV_____VV_VV,,,35.44203,Zip Code Centroid,1,STANLY COUNTY,19,,110012917308,BALDWIN LAKE,10000,STANLY,-80.155516
,1,,Y,NC,,$0,1,Transient non-community system,,,,BAHAMA BAPTIST CHURCH,,04,,N,1,1,,,,,NC0332579,___VV________,,,36.036589,County Centroid,0,,3,,110050687832,,30000,DURHAM,-78.877919
,,,Y,NC,,$0,1,Community water system,1,,,BAHIA BAY S/D,,04,,N,0,0,,,,,NC0160203,_____________,,,35.246862,County Centroid,0,,,,110012916238,,30000,MECKLENBURG,-80.833832
,62,,Y,NC,,$0,1,Transient non-community system,,,,BAILEY BROS AG PARTNERSHIP,,04,,Y,62,1,,,,,NC4064011,VVVVVVVVVVVVV,,,35.965945,County Centroid,1,,99,,110050861509,,30000,NASH,-77.987555
,1,,Y,NC,,$0,1,Community water system,1,,,BAILEY FARMS SUBDIVISION,,04,,N,1,1,,,,,NC4035019,_________V___,,,36.088241,County Centroid,0,,1,,NC4035019,,30000,Franklin,-78.28309
,,,Y,NC,,$0,1,Community water system,,,,BAILEY MHP  NO 1,,04,,N,0,0,,,,,NC0286134,_____________,,,36.415416,County Centroid,0,,,,110012918860,,30000,SURRY,-80.686463
,,,Y,NC,,$0,1,Community water system,1,,,"BAILEY, TOWN OF",,04,,N,0,0,,,,,NC0464035,_____________,,,35.965945,County Centroid,0,,,,110012845813,,30000,NASH,-77.987555
,1,,Y,NC,,$0,1,Non-Transient non-community system,,,,BAILEYS GROVE BAPTIST SCHOOL,,04,,N,1,1,,,,,NC0276620,VVV________VV,,,35.709915,County Centroid,0,,2,,110051054069,,30000,RANDOLPH,-79.806215
,2,,Y,NC,,$0,1,Transient non-community system,,,,BAILEYTOWN CHRISTIAN CHURCH,,04,,N,2,1,,,,,NC3085005,__________V__,,,36.404195,County Centroid,0,,2,,110050708579,,30000,STOKES,-80.239271
,,,Y,NC,,$0,1,Community water system,,,,BAILEY`S LANDING S/D,,04,,N,0,0,,,,,NC4392192,_____________,,,35.789846,County Centroid,0,,,,110013274580,,30000,WAKE,-78.650624
,,,Y,NC,,$0,1,Transient non-community system,,,,BAKERS MARKET & TIRE SERVICE,,04,,N,0,0,,,,,NC0156558,_____________,,,35.682232,County Centroid,0,,,,110050617659,,30000,MCDOWELL,-82.048029
,,,Y,NC,,$0,1,Community water system,,,,"BAKERSVILLE, TOWN OF",,04,,N,0,1,,BAKERSVILLE,,,NC0161015,VVVVVVVVVVV__,,,36.015354,Place Name Centroid,0,,1,,110012907872,,20000,MITCHELL,-82.158261
,1,,Y,NC,,$0,1,Non-Transient non-community system,,,,BALD CREEK CHILD DEVELOPMENT,,04,,Y,1,1,,,,,NC0100474,________VVVVV,,,35.889504,County Centroid,1,,3,,110052898771,,30000,YANCEY,-82.30398
,,,Y,NC,,$0,1,Non-Transient non-community system,,,,BALD CREEK ELEM SCHOOL,,04,,N,0,0,,,,,NC0100472,_____________,,,35.889504,County Centroid,0,,,,110052898726,,30000,YANCEY,-82.30398
37019,2,,Y,NC,03030005,$0,1,Community water system,2,37019,,BALD HEAD ISLAND UTILITIES,28461,04,,N,2,1,CENTER OF A FACILITY OR STATION,BALD HEAD ISLAND,,,NC0410130,VVVVVV_______,6.832,030300050803,33.8573,ADDRESS MATCHING-HOUSE NUMBER,0,BRUNSWICK COUNTY,4,28461,110012850192,256 EDWARD TEACH EXT,30,BRUNSWICK,-77.9844
,,,Y,NC,,$0,1,Community water system,,,,BALLARD FARMS S/D,,04,,N,0,0,,,,,NC3041034,_____________,,,36.079065,County Centroid,0,,,,110022499009,,30000,GUILFORD,-79.788665
37031,,,Y,NC,03020106,$0,1,Community water system,1,37031,,BALLOU MHP,28557,04,,N,0,0,CENTER OF A FACILITY OR STATION,MOREHEAD CITY,,,NC0416101,_____________,18.191,030203010406,34.73064,ADDRESS MATCHING-HOUSE NUMBER,0,CARTERET COUNTY,,28557,110018738133,1611 NORTH MORRIS ROAD,30,CARTERET,-76.72307
,1,,Y,NC,,$0,1,Community water system,,,,BALLOUGH HILLS,,04,,N,1,1,,,,,NC0150102,______VV_____,,,35.286463,County Centroid,0,,2,,110012916274,,30000,JACKSON,-83.130641
37031,,,Y,NC,03020106,$0,1,Non-Transient non-community system,,37031,,"BALLY REFRIGERATED BOXES, INC.",28557,04,,N,0,0,PLANT ENTRANCE (GENERAL),MOREHEAD CITY,,,NC0416458,,10.805,030203010406,34.739493,GPS CARRIER PHASE STATIC RELATIVE POSITION,0,CARTERET COUNTY,,28557,110009858038,135 LITTLE NINE DRIVE,99999999,CARTERET,-76.808982
,,,Y,NC,,$0,1,Transient non-community system,,,,BALSAM CENTER FOR HOPE & RECOVERY,,04,,N,0,0,,,,,NC0144516,_____________,,,35.557097,County Centroid,0,,,,110052994355,,30000,HAYWOOD,-82.972807
,2,,Y,NC,,$0,1,Transient non-community system,,,,BALSAM LAKE DAY USE AREA,,04,,N,2,1,,,,,NC1050056,__VVVV_______,,,35.286463,County Centroid,0,,6,,110050897295,,30000,JACKSON,-83.130641
,2,,Y,NC,,$0,1,Transient non-community system,,,,BALSAM MISSIONARY BAPTIST CH,,04,,N,2,1,,,,,NC0150545,________VV___,,,35.286463,County Centroid,0,,3,,110052872557,,30000,JACKSON,-83.130641
,1,,Y,NC,,$0,1,Transient non-community system,,,,BALSAM MOUNTAIN CAMPGROUND,,04,,N,1,1,,,,,NC0187517,__________V__,,,35.568849,County Centroid,0,,3,,110052825430,,30000,SWAIN,-83.465614
,5,,Y,NC,,$0,1,Transient non-community system,1,,,BALSAM MOUNTAIN INN,,04,,N,5,1,,,,,NC0150400,___VV________,,,35.286463,County Centroid,0,,12,,110052930922,,30000,JACKSON,-83.130641
,2,,Y,NC,,$0,1,Transient non-community system,,,,BALTIMORE METHODIST CHURCH,,04,,N,2,1,,,,,NC0299520,______V___V__,,,36.158765,County Centroid,0,,2,,110050728557,,30000,YADKIN,-80.665164
,,,Y,NC,,$0,1,Transient non-community system,,,,BANDITS ROOST PARK AREA A,,04,,N,0,0,,,,,NC0197522,_____________,,,36.209303,County Centroid,0,,,,110050771081,,30000,WILKES,-81.165354
,40,,Y,NC,,$0,1,Non-Transient non-community system,,,,BANK OF OAK RIDGE OPERATIONS CENTER,,04,,Y,40,1,,,,,NC3041084,VVVVVVVVVVVVV,,,36.079065,County Centroid,1,,75,,110063369082,,30000,GUILFORD,-79.788665
,,,Y,NC,,$0,1,Transient non-community system,,,,BANKS UNITED METHODIST CHURCH,,04,,N,0,0,,,,,NC0239445,_____________,,,36.299884,County Centroid,0,,,,110051091251,,30000,GRANVILLE,-78.657634
,,,Y,NC,,$0,1,Community water system,,,,"BANNER ELK, TOWN OF",,04,,N,0,0,,,,,NC0106015,_____________,,,36.072894,County Centroid,0,,,,110012933326,,30000,AVERY,-81.920363
,,,Y,NC,,$0,1,Non-Transient non-community system,,,,BANNER GREENHOUSES,,04,,N,0,0,,,,,NC1056011,_____________,,,35.682232,County Centroid,0,,,,110050863491,,30000,MCDOWELL,-82.048029
,,,Y,NC,,$0,1,Community water system,,,,BANNERTOWN HILLS S/D,,04,,N,0,0,,,,,NC0286101,_____________,,,36.415416,County Centroid,0,,,,110012873435,,30000,SURRY,-80.686463
,4,,Y,NC,,$0,1,Transient non-community system,,,,BAPTIST GROVE CHURCH,,04,,N,4,1,,,,,NC0392809,_______VV____,,,35.789846,County Centroid,0,,13,,110050776772,,30000,WAKE,-78.650624
,9,,Y,NC,,$0,1,Transient non-community system,1,,,BAPTIST UNION MISSIONARY BAPTIST CHURCH,,04,,N,9,1,,,,,NC0326572,VV___VV______,,,35.050192,County Centroid,0,,17,,110051008306,,30000,CUMBERLAND,-78.828719
,,,Y,NC,,$0,1,Transient non-community system,,,,BAR S RANCH,,04,,N,0,0,,,,,NC3079019,_____________,,,36.380927,County Centroid,0,,,,110050904376,,30000,ROCKINGHAM,-79.782889
,25,,Y,NC,,$0,1,Transient non-community system,,,,BARBARA`S LOVING SPOONFULS,,04,,Y,25,1,,,,,NC4035001,VV_VV_VVVV__V,,,36.088241,County Centroid,1,,52,,110050921366,,30000,FRANKLIN,-78.28309
,,,Y,NC,,$0,1,Transient non-community system,2,,,BARBEE`S GROVE CHURCH,,04,,N,0,0,,,,,NC0184407,_____________,,,35.310523,County Centroid,0,,,,110050583178,,30000,STANLY,-80.254355
,,,Y,NC,,$0,1,Community water system,,,,BARCLAY DOWNS S/D,,04,,N,0,0,,,,,NC0392211,_____________,,,35.789846,County Centroid,0,,,,110012855829,,30000,WAKE,-78.650624
,,,Y,NC,,$0,1,Transient non-community system,,,,BAREFOOT LANDING CAMPGROUND,,04,,N,0,0,,,,,NC0156138,_____________,,,35.682232,County Centroid,0,,,,110052902212,,30000,MCDOWELL,-82.048029
,,,Y,NC,,$0,1,Community water system,13,,,BARGER PARK,,04,,N,0,0,,,,,NC0180501,_____________,,,35.639218,County Centroid,0,,,,110012905712,,30000,ROWAN,-80.525344
,,,Y,NC,,$0,1,Transient non-community system,,,,BARKERS GROVE BAPTIST CHURCH,,04,,N,0,0,,,,,NC0149478,_____________,,,35.806356,County Centroid,0,,,,110052810712,,30000,IREDELL,-80.874545
,,,Y,NC,,$0,1,Non-Transient non-community system,,,,BARNARDSVILLE ELEM SCHOOL,,04,,N,0,0,,,,,NC0111472,_____________,,,35.609371,County Centroid,0,,,,110052877721,,30000,BUNCOMBE,-82.530426
,,,Y,NC,,$0,1,Transient non-community system,,,,BARNARDSVILLE FWB CHURCH,,04,,N,0,0,,,,,NC0111478,_____________,,,35.609371,County Centroid,0,,,,110052877856,,30000,BUNCOMBE,-82.530426
,47,,Y,NC,,$0,1,Transient non-community system,,,,BARNES FARMING CORP MLC  NO 1,,04,,Y,47,1,,,,,NC0464414,VVVVVVVVVVVVV,,,35.965945,County Centroid,1,,69,,110051007227,,30000,NASH,-77.987555
,49,,Y,NC,,$0,1,Transient non-community system,,,,BARNES FARMING CORP MLC  NO 6,,04,,Y,49,1,,,,,NC0464420,VVVVVVVVVVVVV,,,35.965945,County Centroid,1,,71,,110051007361,,30000,NASH,-77.987555
,44,,Y,NC,,$0,1,Transient non-community system,,,,BARNES FARMING CORP MLC  NO 9,,04,,Y,44,1,,,,,NC0498589,VVVVVVVVVVVVV,,,35.704125,County Centroid,1,,64,,110050890489,,30000,WILSON,-77.918982
,,,Y,NC,,$0,1,Transient non-community system,,,,BARNES HILL FWB CHURCH,,04,,N,0,0,,,,,NC0464536,_____________,,,35.965945,County Centroid,0,,,,110050973728,,30000,NASH,-77.987555
,,,Y,NC,,$0,1,Community water system,,,,BARRINGTON HILLS S/D,,04,,N,0,0,,,,,NC4092066,_____________,,,35.789846,County Centroid,0,,,,110048456693,,30000,WAKE,-78.650624
,,,Y,NC,,$0,1,Transient non-community system,,,,BASCOMS CHAPEL CHURCH,,04,,N,0,0,,,,,NC0363418,_____________,,,35.310163,County Centroid,0,,,,110050756366,,30000,MOORE,-79.480664
,,,Y,NC,,$0,1,Transient non-community system,1,,,BASS LAKE RESORT WELL SYSTEM 1,,04,,N,0,0,,,,,NC0180197,_____________,,,35.639218,County Centroid,0,,,,110052864263,,30000,ROWAN,-80.525344
,,,Y,NC,,$0,1,Transient non-community system,,,,BASS LAKE RESORT WELL SYSTEM 2,,04,,N,0,1,,,,,NC0180770,VVVVVVVV_____,,,35.639218,County Centroid,0,,,,110052880156,,30000,ROWAN,-80.525344
,,,Y,NC,,$0,1,Transient non-community system,,,,BASS LAKE RESORT WELL SYSTEM 3,,04,,N,0,1,,,,,NC2080011,VVVVVVVV_____,,,35.639218,County Centroid,0,,,,110050848712,,30000,ROWAN,-80.525344
,,,Y,NC,,$0,1,Transient non-community system,1,,,BASS LAKE RESORT WELL SYSTEM 4,,04,,N,0,0,,,,,NC2080010,_____________,,,35.639218,County Centroid,0,,,,110050848696,,30000,ROWAN,-80.525344
,15,,Y,NC,,$0,1,Community water system,,,,BASS MH COURT,,04,,Y,15,1,,,,,NC0464101,VVVVVVVVVVVVV,,,35.965945,County Centroid,1,,51,,110012845895,,30000,NASH,-77.987555
,,,Y,NC,,$0,1,Transient non-community system,1,,,BAT CAVE BAPTIST CHURCH,,04,,N,0,0,,,,,NC0145510,_____________,,,35.336424,County Centroid,0,,,,110052829980,,30000,HENDERSON,-82.479634
,1,,Y,NC,,$0,1,Community water system,,,,BATH WATER SYSTEM,,04,,N,1,1,,,,,NC0407030,__________V__,,,35.482313,County Centroid,0,,1,,110012852500,,30000,BEAUFORT,-76.842014
,,,Y,NC,,$0,1,Community water system,,,,BATON WATER CORPORATION,,04,,N,0,0,,,,,NC0114025,_____________,,,35.957857,County Centroid,0,,,,110012938090,,30000,CALDWELL,-81.530076
,4,,Y,NC,,$0,1,Transient non-community system,,,,BATTLE BRANCH CAFE,,04,,Y,4,1,,,,,NC0299547,V_VV____VVVVV,,,36.158765,County Centroid,1,,11,,110050805394,,30000,YADKIN,-80.665164
,,,Y,NC,,$0,1,Non-Transient non-community system,,,,BAXTER HEALTH CARE CORP,,04,,N,0,0,,,,,NC0156492,_____________,,,35.682232,County Centroid,0,,,,110052882065,,30000,MCDOWELL,-82.048029
,,,Y,NC,,$0,1,Community water system,,,,BAY LAUREL S/D,,04,,N,0,0,,,,,NC4392109,_____________,,,35.789846,County Centroid,0,,,,110012837172,,30000,WAKE,-78.650624
,,,Y,NC,,$0,1,Community water system,1,,,BAY POINTE S/D,,04,,N,0,0,,,,,NC0118118,_____________,,,35.663182,County Centroid,0,,,,110012939320,,30000,CATAWBA,-81.214151
37053,3,,Y,NC,03010205,$0,1,Transient non-community system,,37053,,BAY VILLA RESTAURANT,27950,04,,N,3,0,ENTRANCE POINT OF A FACILITY OR STATION,KNOTTS ISLAND,,,NC0427452,_____________,3.967,030102051304,36.50809,ADDRESS MATCHING-HOUSE NUMBER,0,CURRITUCK COUNTY,4,27950,110050758337,112 BAY VILLA LN,50,CURRITUCK,-75.911266
,,,Y,NC,,$0,1,Community water system,1,,,BAYBERRY S/D,,04,,N,0,0,,,,,NC0136364,_____________,,,35.293344,County Centroid,0,,,,110012923319,,30000,GASTON,-81.177256
,,,Y,NC,,$0,1,Community water system,19,,,BAYLEAF MASTER,,04,,N,0,0,,,,,NC0392373,_____________,,,35.789846,County Centroid,0,,,,110012851592,,30000,WAKE,-78.650624
,3,,Y,NC,,$0,1,Community water system,,,,BAYWOOD FOREST S/D,,04,,N,3,1,,,,,NC0392218,VVVVVVVVVVVV,,,35.789846,County Centroid,0,,11,,110012856052,,30000,WAKE,-78.650624
37133,3,12/08/2017,Y,NC,03030001,"$2,108",1,Community water system,,37133,$803,BEACHAM APARTMENTS #1,28540,04,,Y,6,1,CENTER OF A FACILITY OR STATION,JACKSONVILLE,Y,3,NC0467103,__V____VV_VVV,33.155,030203020105,34.73629,ADDRESS MATCHING-HOUSE NUMBER,1,ONSLOW COUNTY,5,28540,110006710586,1820 WILMINGTON HIGHWAY,30,ONSLOW,-77.46833
,,,Y,NC,,$0,1,Community water system,,,,BEACON HILL S/D,,04,,N,0,0,,,,,NC3041086,_____________,,,36.079065,County Centroid,0,,,,110046855015,,30000,GUILFORD,-79.788665
,2,,Y,NC,,$0,1,Community water system,9,,,BEACON HILLS SD,,04,,N,2,0,,,,,NC0136389,_____________,,,35.293344,County Centroid,0,,4,,110012924416,,30000,GASTON,-81.177256
37097,,,Y,NC,03050101,$0,1,Community water system,1,37097,,BEACON POINTE SUBDIVISION,28117,04,,N,0,1,CENTER OF A FACILITY OR STATION,MOORESVILLE,,,NC0149186,VVV__________,9.647,030501011106,35.64118,ADDRESS MATCHING-HOUSE NUMBER,0,IREDELL COUNTY,1,28117,110010621309,220 BULLFINCH RD,30,IREDELL,-80.91354
,,,Y,NC,,$0,1,Transient non-community system,,,,BEAMS MARKET,,04,,N,0,0,,,,,NC0187580,_____________,,,35.568849,County Centroid,0,,,,110052787105,,30000,SWAIN,-83.465614
,,,Y,NC,,$0,1,Transient non-community system,,,,BEAR CREEK BAPTIST CHURCH,,04,,N,0,0,,,,,NC3086040,_____________,,,36.415416,County Centroid,0,,,,110050857426,,30000,SURRY,-80.686463
,,,Y,NC,,$0,1,Transient non-community system,,,,BEAR CREEK CHURCH,,04,,N,0,0,,,,,NC0138437,_____________,,,35.348111,County Centroid,0,,,,110052797880,,30000,GRAHAM,-83.830909
,2,,Y,NC,,$0,1,Transient non-community system,,,,BEAR CREEK PRIMITIVE BAPT CH,,04,,N,2,0,,,,,NC0184544,V____________,,,35.310523,County Centroid,0,,3,,110052935712,,30000,STANLY,-80.254355
,,,Y,NC,,$0,1,Community water system,,37111,,BEAR DEN ACRES,28777,04,,N,0,0,,SPRUCE PINE,,,NC0156129,_____________,,,35.898235,Zip Code Centroid,0,MCDOWELL COUNTY,,,110027413163,RT 3 BOX 284,10000,MITCHELL,-82.073777
,1,,Y,NC,,$0,1,Transient non-community system,,,,BEAR DEN CAMPGROUND,,04,,N,1,1,,,,,NC0156130,________V____,,,35.682232,County Centroid,0,,3,,110052902150,,30000,MCDOWELL,-82.048029
,5,,Y,NC,,$0,1,Community water system,1,,,BEAR LAKE RESERVE 1B,,04,,Y,5,1,,,,,NC1050057,V__VVVVVVVVVV,,,35.286463,County Centroid,1,,5,,110048687569,,30000,JACKSON,-83.130641
,6,,Y,NC,,$0,1,Community water system,,,,BEAR LAKE RESERVE GOLDEN FARMS,,04,,Y,6,1,,,,,NC1050034,V__VVVVVVVVVV,,,35.286463,County Centroid,1,,6,,110022981200,,30000,JACKSON,-83.130641
,,,Y,NC,,$0,1,Community water system,1,,,BEAR PAW RESORT,,04,,N,0,0,,,,,NC0120103,_____________,,,35.136233,County Centroid,0,,,,110012932737,,30000,CHEROKEE,-84.061308
37089,,06/09/2006,Y,NC,06010105,$0,1,Community water system,,37089,$350,BEAR WALLOW VALLEY MHP WWTP,28727,04,,N,0,1,,EDNEYVILLE,,,NC0145178,_____________,19.401,060101050302,35.4142,,0,HENDERSON COUNTY,,28792,110006804066,BEARWALLOW ROAD (NCSR 1587),35972,HENDERSON,-82.3611
,,,Y,NC,,$0,1,Community water system,,,,BEARD ACRES,,04,,N,0,0,,,,,NC0276158,_____________,,,35.709915,County Centroid,0,,,,110012875424,,30000,RANDOLPH,-79.806215
,1,,Y,NC,,$0,1,Transient non-community system,,,,BEARD`S CHAPEL BAPTIST CHURCH,,04,,Y,1,1,,,,,NC0309560,___________VV,,,34.591949,County Centroid,1,,2,,110050898953,,30000,BLADEN,-78.539513
,,,Y,NC,,$0,1,Transient non-community system,,,,BEARWALLOW BAPTIST CHURCH,,04,,N,0,0,,,,,NC0145511,_____________,,,35.336424,County Centroid,0,,,,110052830004,,30000,HENDERSON,-82.479634
,,,Y,NC,,$0,1,Community water system,,,,BEAUFORT CO NORTHSIDE REGIONAL WATER,,04,,N,0,0,,,,,NC0407035,_____________,,,35.482313,County Centroid,0,,,,110012852537,,30000,BEAUFORT,-76.842014
,,,Y,NC,,$0,1,Community water system,,,,BEAUFORT CO SOUTHSIDE,,04,,N,0,0,,,,,NC0407040,_____________,,,35.482313,County Centroid,0,,,,110012852555,,30000,BEAUFORT,-76.842014
37013,,,Y,NC,03020104,$0,1,Non-Transient non-community system,,37079,,BEAUFORT COUNTY COMMUNITY COLLEGE,27889,04,,N,0,0,,WASHINGTON,,,NC0407434,,44.564,030201040101,35.542088,ADDRESS MATCHING-HOUSE NUMBER,0,GREENE COUNTY,,27889,110006550348,5337 HWY 264 E,180,BEAUFORT,-77.006752
,3,,Y,NC,,$0,1,Community water system,1,,,"BEAUFORT, TOWN OF",,04,,N,3,0,,BEAUFORT,,,NC0416010,_____________,,,34.727656,Place Name Centroid,0,,9,,110012911180,,20000,CARTERET,-76.652722
,,,Y,NC,,$0,1,Transient non-community system,,,,BEAVER CREEK GOLF COURSE,,04,,N,0,0,,,,,NC0286402,_____________,,,36.415416,County Centroid,0,,,,110050856285,,30000,SURRY,-80.686463
,,,Y,NC,,$0,1,Transient non-community system,1,,,BEAVER DAM BAPTIST CHURCH,,04,,N,0,0,,,,,NC0326741,_____________,,,35.050192,County Centroid,0,,,,110050908522,,30000,CUMBERLAND,-78.828719
,,,Y,NC,,$0,1,Non-Transient non-community system,,,,BEAVER DAM ELEM SCHOOL,,04,,N,0,0,,,,,NC0326401,_____________,,,35.050192,County Centroid,0,,,,110050821116,,30000,CUMBERLAND,-78.828719
,,,Y,NC,,$0,1,Transient non-community system,,,,BEAVER DAM STATE PARK,,04,,N,0,0,,,,,NC4392121,_____________,,,35.789846,County Centroid,0,,,,110050783826,,30000,WAKE,-78.650624
37157,,,Y,NC,03010103,$0,1,Transient non-community system,,37157,,BEAVER ISLAND BAPTIST CHURCH,27027,04,,N,0,0,CENTER OF A FACILITY OR STATION,MAYODAN,,,NC0279608,_____________,7.957,030101030409,36.45741,ADDRESS MATCHING-HOUSE NUMBER,0,ROCKINGHAM COUNTY,6,27027,110018585501,3111 AYERSVILLE ROAD,30,ROCKINGHAM,-79.98832
,,,Y,NC,,$0,1,Transient non-community system,,,,BEAVERDAM FWB CHURCH,,04,,N,0,0,,,,,NC0424538,_____________,,,34.260471,County Centroid,0,,,,110050712582,,30000,COLUMBUS,-78.636378
,,,Y,NC,,$0,1,Transient non-community system,,,,BECKY'S COUNTRY STORE & GRILL,,04,,N,0,0,,,,,NC0181622,_____________,,,35.402747,County Centroid,0,,,,110050559784,,30000,RUTHERFORD,-81.919583
,,,Y,NC,,$0,1,Transient non-community system,,,,BEECH GLEN COMMUNITY CENTER,,04,,N,0,0,,,,,NC0158415,_____________,,,35.86408,County Centroid,0,,,,110052418852,,30000,MADISON,-82.712731
,1,,Y,NC,,$0,1,Community water system,7,,,"BEECH MOUNTAIN, TOWN OF",,04,,N,1,1,,BEECH MOUNTAIN,,,NC0195104,_VVVVVVVVV___,,,36.211707,Place Name Centroid,0,,12,,110012903395,,20000,WATAUGA,-81.891175
,,,Y,NC,,$0,1,Community water system,1,,,BEECHBROOK S/D,,04,,N,0,0,,,,,NC0136106,_____________,,,35.293344,County Centroid,0,,,,110012931738,,30000,GASTON,-81.177256
,4,,Y,NC,,$0,1,Transient non-community system,,,,BEECHNUT FAMILY CAMPGROUND,,04,,N,4,1,,,,,NC0286556,VVV_V________,,,36.415416,County Centroid,0,,7,,110051072405,,30000,SURRY,-80.686463
,,,Y,NC,,$0,1,Community water system,,,,BEECHWOOD COVE/POLKS LANDING,,04,,N,0,0,,CHAPEL HILL,,,NC0319110,_____________,,,35.925942,Place Name Centroid,0,,,,110012869235,,20000,CHATHAM,-79.038271
37157,,,Y,NC,03010103,$0,1,Community water system,,37157,,BELEWS LANDING,27357,04,,N,0,0,ENTRANCE POINT OF A FACILITY OR STATION,STOKESDALE,,,NC3079023,_____________,10.685,030101030304,36.29736,ADDRESS MATCHING-BLOCK FACE,0,ROCKINGHAM COUNTY,,27357,110048683947,CROWS NEST DR,1000,ROCKINGHAM,-80.01072
,,,Y,NC,,$0,1,Community water system,,,,BELHAVEN WATER SYSTEM,,04,,N,0,0,,,,,NC0407015,_____________,,,35.482313,County Centroid,0,,,,110012852216,,30000,BEAUFORT,-76.842014
,4,,Y,NC,,$0,1,Transient non-community system,,,,BELK BUILDING SUPPLY LLC,,04,,N,4,1,,,,,NC5063016,__________VV,,,35.310163,County Centroid,0,,8,,110050984752,,30000,MOORE,-79.480664
,1,,Y,NC,,$0,1,Community water system,,,,BELL ARTHUR WATER CORP,,04,,N,1,0,,,,,NC0474045,_____________,,,35.591065,County Centroid,0,,1,,110012840220,,30000,PITT,-77.372404
,,,Y,NC,,$0,1,Community water system,,,,BELLA VISTA S/D,,04,,N,0,0,,,,,NC4092128,_____________,,,35.789846,County Centroid,0,,,,NC4092128,,30000,Wake,-78.650624
,,,Y,NC,,$0,1,Community water system,,,,BELLE MEADE S/D,,04,,N,0,0,,,,,NC0118101,_____________,,,35.663182,County Centroid,0,,,,110012939008,,30000,CATAWBA,-81.214151
,,,Y,NC,,$0,1,Community water system,,,,BELLE RIDGE S/D,,04,,N,0,0,,,,,NC0392358,_____________,,,35.789846,County Centroid,0,,,,110012851280,,30000,WAKE,-78.650624
,2,,Y,NC,,$0,1,Transient non-community system,,,,BELLEMONT FOOD STORE,,04,,N,2,1,,,,,NC0201589,VV___________,,,36.041974,County Centroid,0,,7,,110050843575,,30000,ALAMANCE,-79.399935
,2,,Y,NC,,$0,1,Transient non-community system,,,,BELLEMONT UMC,,04,,N,2,0,,,,,NC0201516,_____________,,,36.041974,County Centroid,0,,3,,110051028927,,30000,ALAMANCE,-79.399935
37053,,,Y,NC,03010205,$0,1,Transient non-community system,,37053,,BELLS ISLAND CAMPGROUND,27929,04,,N,0,0,CENTER OF A FACILITY OR STATION,CURRITUCK,,,NC0427424,_____________,6.321,030102051304,36.42162,ADDRESS MATCHING-HOUSE NUMBER,0,CURRITUCK COUNTY,,27929,110050513413,769 BELLS ISLAND RD,30,CURRITUCK,-75.96763
,,,Y,NC,,$0,1,Community water system,1,37071,,BELMONT ABBEY COLLEGE  **INACTIVE**,28012,04,,N,0,0,,BELMONT,,,NC0136107,_____________,,,35.220955,Zip Code Centroid,0,GASTON COUNTY,,,110012145197,BELMONT - MT HOLLY ROAD,10000,GASTON,-81.043405
,,,Y,NC,,$0,1,Transient non-community system,1,,,BELMONT MOOSE LODGE,,04,,N,0,0,,,,,NC0136936,_____________,,,35.293344,County Centroid,0,,,,110050573599,,30000,GASTON,-81.177256
,,,Y,NC,,$0,1,Community water system,12,,,"BELMONT, CITY OF",,04,,N,0,0,,BELMONT,,,NC0136015,_____________,,,35.23109,Place Name Centroid,0,,,,110012933709,,20000,GASTON,-81.037951
,7,,Y,NC,,$0,1,Transient non-community system,,,,BELVEDERE COUNTRY CLUB,,04,,Y,7,1,,,,,NC7071033,____VVVVV_VVV,,,34.512581,County Centroid,1,,7,,110050647494,,30000,PENDER,-77.888029
,,,Y,NC,,$0,1,Community water system,7,,,BELVEDERE PLANTATION,,04,,N,0,0,,,,,NC0471111,_____________,,,34.512581,County Centroid,0,,,,110012842950,,30000,PENDER,-77.888029
,2,,Y,NC,,$0,1,Community water system,,,,BENAJA CROSSING MH S/D,,04,,Y,2,1,,,,,NC0279161,VVVVVVVVVVVVV,,,36.380927,County Centroid,1,,3,,110012872659,,30000,ROCKINGHAM,-79.782889
,2,,Y,NC,,$0,1,Transient non-community system,,,,BENEFICIAL FOODS,,04,,Y,2,1,,,,,NC1075012,___VV___VVVVV,,,35.278928,County Centroid,1,,3,,110050817023,,30000,POLK,-82.167667
,,,Y,NC,,$0,1,Transient non-community system,,,,BENHAM BAPTIST CHURCH,,04,,N,0,0,,,,,NC0197412,_____________,,,36.209303,County Centroid,0,,,,110049198471,,30000,WILKES,-81.165354
,15,,Y,NC,,$0,1,Transient non-community system,,,,BENNY T`S PLACE INC,,04,,Y,15,1,,,,,NC3086028,VVVVVVVVVVVVV,,,36.415416,County Centroid,1,,32,,110050857195,,30000,SURRY,-80.686463
,,,Y,NC,,$0,1,Transient non-community system,1,,,BENSALEM PRESBYTERIAN CHURCH,,04,,N,0,0,,,,,NC0363515,_____________,,,35.310163,County Centroid,0,,1,,110050616721,,30000,MOORE,-79.480664
,5,,Y,NC,,$0,1,Community water system,,,,"BENSON, TOWN OF",,04,,N,5,0,,,,,NC0351025,_____________,,,35.513405,County Centroid,0,,11,,110012865079,,30000,JOHNSTON,-78.367267
,,,Y,NC,,$0,1,Community water system,,,,BENT CREEK WATER SYSTEM,,04,,N,0,0,,,,,NC0111102,_____________,,,35.609371,County Centroid,0,,,,110012942691,,30000,BUNCOMBE,-82.530426
,,,Y,NC,,$0,1,Transient non-community system,,,,BENTWINDS GOLF COURSE & CC,,04,,N,0,0,,,,,NC4392516,_____________,,,35.789846,County Centroid,0,,,,110051030683,,30000,WAKE,-78.650624
,,,Y,NC,,$0,1,Transient non-community system,,,,BENTWINDS GOLF COURSE-WELL  NO 3,,04,,N,0,0,,,,,NC4392518,_____________,,,35.789846,County Centroid,0,,,,110051030745,,30000,WAKE,-78.650624
,,,Y,NC,,$0,1,Transient non-community system,,,,BENTWINDS GOLF COURSE-WELL  NO 4,,04,,N,0,0,,,,,NC4392519,_____________,,,35.789846,County Centroid,0,,,,110051030763,,30000,WAKE,-78.650624
,,,Y,NC,,$0,1,Transient non-community system,,,,BEREA BAPTIST CHURCH,,04,,N,0,0,,,,,NC0145512,_____________,,,35.336424,County Centroid,0,,,,110052830040,,30000,HENDERSON,-82.479634
,,,Y,NC,,$0,1,Transient non-community system,,,,BEREA BAPTIST CHURCH,,04,,N,0,0,,,,,NC0136583,_____________,,,35.293344,County Centroid,0,,,,110052926839,,30000,GASTON,-81.177256
,1,,Y,NC,,$0,1,Transient non-community system,,,,BEREA BRANCH LIBRARY,,04,,N,1,1,,,,,NC0239493,________VVVVV,,,36.299884,County Centroid,0,,3,,110050853527,,30000,GRANVILLE,-78.657634
,,,Y,NC,,$0,1,Transient non-community system,,,,BEREA MINI MART,,04,,N,0,0,,,,,NC0239492,_____________,,,36.299884,County Centroid,0,,,,110050853493,,30000,GRANVILLE,-78.657634
,,,Y,NC,,$0,1,Community water system,1,,,BERKLEY OAKS LLC,,04,,N,0,0,,,,,NC0136360,_____________,,,35.293344,County Centroid,0,,,,110012923220,,30000,GASTON,-81.177256
,,,Y,NC,,$0,1,Community water system,,,,BERKSHIRE DOWNS,,04,,N,0,0,,,,,NC0392320,_____________,,,35.789846,County Centroid,0,,,,110012853689,,30000,WAKE,-78.650624
,,,Y,NC,,$0,1,Transient non-community system,,,,BERRONG RIDGE  RV PARK,,04,,N,0,0,,,,,NC0122123,_____________,,,35.052997,County Centroid,0,,,,110052877160,,30000,CLAY,-83.752264
,,,Y,NC,,$0,1,Non-Transient non-community system,,,,BERRYHILL ELEM SCHOOL,,04,,N,0,0,,,,,NC0160605,_____________,,,35.246862,County Centroid,0,,,,110052938005,,30000,MECKLENBURG,-80.833832
,36,,Y,NC,,$0,1,Community water system,4,,,"BERRYHILL,WESTWOOD MHP",,04,,Y,36,1,,,,,NC0160196,VVVVVVVVVVVVV,,,35.246862,County Centroid,1,,79,,110012916130,,30000,MECKLENBURG,-80.833832
,6,,Y,NC,,$0,1,Transient non-community system,,,,BERRY`S GROVE BAPTIST CHURCH,,04,,N,6,1,,,,,NC0368483,___________VV,,,36.062499,County Centroid,0,,12,,110052964707,,30000,ORANGE,-79.119355
,3,,Y,NC,,$0,1,Community water system,3,,,BERTIE COUNTY REGIONAL WATER,,04,,N,3,1,,,,,NC0408085,VVVV_________,,,36.06133,County Centroid,0,,9,,110012911046,,30000,BERTIE,-76.962367
,2,,Y,NC,,$0,1,Transient non-community system,6,,,BESS CHAPEL UMC,,04,,N,2,0,,,,,NC0155571,_____________,,,35.487825,County Centroid,0,,6,,110052748942,,30000,LINCOLN,-81.225176
37071,2,,Y,NC,03050102,$0,1,Community water system,36,37071,,"BESSEMER CITY, TOWN OF",28016,04,,N,2,1,ENTRANCE POINT OF A FACILITY OR STATION,BESSEMER CITY,,,NC0136025,_____VV______,20.043,030501020602,35.28464,ADDRESS MATCHING-HOUSE NUMBER,0,GASTON COUNTY,15,28016,110012933745,298 LOGAN ST,50,GASTON,-81.29711
,,,Y,NC,,$0,1,Transient non-community system,,,,BEST WESTERN-MOUNTAIN LODGE,,04,,N,0,0,,,,,NC0106427,_____________,,,36.072894,County Centroid,0,,,,110050574856,,30000,AVERY,-81.920363
,,,Y,NC,,$0,1,Transient non-community system,,,,BETH HAVEN BAPTIST CHURCH,,04,,N,0,0,,,,,NC0155517,_____________,,,35.487825,County Centroid,0,,,,110052866868,,30000,LINCOLN,-81.225176
,2,,Y,NC,,$0,1,Transient non-community system,,,,BETH SHALOM,,04,,N,2,1,,,,,NC4092036,_______VV____,,,35.789846,County Centroid,0,,7,,110050916871,,30000,WAKE,-78.650624
,,,Y,NC,,$0,1,Non-Transient non-community system,,,,BETHANY BAPT CHURCH & SCHOOL,,04,,N,0,0,,,,,NC0188593,_____________,,,35.210095,County Centroid,0,,,,110053005877,,30000,TRANSYLVANIA,-82.816696
,13,,Y,NC,,$0,1,Transient non-community system,,,,BETHANY BAPTIST CH & COMM CNTR,,04,,N,13,1,,,,,NC0197559,VVV__________,,,36.209303,County Centroid,0,,31,,110051042340,,30000,WILKES,-81.165354
,,,Y,NC,,$0,1,Non-Transient non-community system,3,,,BETHANY COMMUNITY SCHOOL,,04,,N,0,0,,,,,NC3079033,_____________,,,36.380927,County Centroid,0,,,,NC3079033,,30000,Rockingham,-79.782889
,,,Y,NC,,$0,1,Transient non-community system,,,,BETHANY LUTHERAN CHURCH,,04,,N,0,0,,,,,NC0195474,_____________,,,36.235371,County Centroid,0,,,,110050903965,,30000,WATAUGA,-81.709919
,1,,Y,NC,,$0,1,Transient non-community system,,,,BETHANY MISSIONARY BAPTIST,,04,,N,1,1,,,,,NC4073003,_______VV____,,,36.386387,County Centroid,0,,3,,110050894500,,30000,PERSON,-78.965471
,,,Y,NC,,$0,1,Transient non-community system,,,,BETHANY UNITED CH OF CHRIST,,04,,N,0,0,,,,,NC0118585,_____________,,,35.663182,County Centroid,0,,,,110050533240,,30000,CATAWBA,-81.214151
,,,Y,NC,,$0,1,Community water system,,,,BETHAVEN WATER SYSTEM,,04,,N,0,0,,,,,NC0180186,_____________,,,35.639218,County Centroid,0,,,,110012904615,,30000,ROWAN,-80.525344
,,,Y,NC,,$0,1,Transient non-community system,,,,BETHEL BAPTIST CHURCH,,04,,N,0,0,,,,,NC0144408,_____________,,,35.557097,County Centroid,0,,,,110050608785,,30000,HAYWOOD,-82.972807
,,,Y,NC,,$0,1,Transient non-community system,,,,BETHEL BAPTIST CHURCH,,04,,N,0,0,,,,,NC0156414,_____________,,,35.682232,County Centroid,0,,,,110050570627,,30000,MCDOWELL,-82.048029
,2,,Y,NC,,$0,1,Transient non-community system,,,,BETHEL BAPTIST CHURCH,,04,,N,2,1,,,,,NC0201620,_______VV____,,,36.041974,County Centroid,0,,2,,110050658917,,30000,ALAMANCE,-79.399935
,,,Y,NC,,$0,1,Transient non-community system,3,,,BETHEL BAPTIST CHURCH,,04,,N,0,0,,,,,NC0149580,_____________,,,35.806356,County Centroid,0,,1,,110052830772,,30000,IREDELL,-80.874545
,4,,Y,NC,,$0,1,Transient non-community system,,,,BETHEL BAPTIST CHURCH,,04,,Y,4,1,,,,,NC0299403,VVVVVVVVVVVVV,,,36.158765,County Centroid,1,,9,,110051029677,,30000,YADKIN,-80.665164
,,,Y,NC,,$0,1,Transient non-community system,,,,BETHEL BAPTIST CHURCH_1058026,,04,,N,0,0,,,,,NC1058026,_____________,,,35.86408,County Centroid,0,,,,110063355275,,30000,MADISON,-82.712731
,3,,Y,NC,,$0,1,Transient non-community system,,,,BETHEL CHURCH OF GOD,,04,,N,3,1,,,,,NC0363412,__________VV,,,35.310163,County Centroid,0,,10,,110053015955,,30000,MOORE,-79.480664
,,,Y,NC,,$0,1,Non-Transient non-community system,,,,BETHEL ELEMENTARY SCHOOL,,04,,N,0,0,,,,,NC0195421,_____________,,,36.235371,County Centroid,0,,,,110050888599,,30000,WATAUGA,-81.709919
,,,Y,NC,,$0,1,Non-Transient non-community system,,,,BETHEL ELEMENTARY SCHOOL,,04,,N,0,1,,,,,NC1044013,VVVVVVVVVVV__,,,35.557097,County Centroid,0,,1,,110050829537,,30000,HAYWOOD,-82.972807
,,,Y,NC,,$0,1,Transient non-community system,,,,BETHEL EVANGELICAL LUTH CH,,04,,N,0,0,,,,,NC0136901,_____________,,,35.293344,County Centroid,0,,,,110052785116,,30000,GASTON,-81.177256
,,,Y,NC,,$0,1,Transient non-community system,,,,BETHEL FWB CHURCH,,04,,N,0,0,,,,,NC0156427,_____________,,,35.682232,County Centroid,0,,,,110050570869,,30000,MCDOWELL,-82.048029
,3,,Y,NC,,$0,1,Transient non-community system,,,,BETHEL HILL BAPTIST CHURCH,,04,,N,3,1,,,,,NC0273410,V_______VVV__,,,36.386387,County Centroid,0,,8,,110050804947,,30000,PERSON,-78.965471
,1,,Y,NC,,$0,1,Non-Transient non-community system,,,,BETHEL JR HIGH SCHOOL,,04,,N,1,0,,,,,NC0144418,_____________,,,35.557097,County Centroid,0,,3,,110050609034,,30000,HAYWOOD,-82.972807
,,,Y,NC,,$0,1,Transient non-community system,,,,BETHEL LUTHERAN CHURCH,,04,,N,0,0,,,,,NC0118778,_____________,,,35.663182,County Centroid,0,,,,110052854390,,30000,CATAWBA,-81.214151
,4,,Y,NC,,$0,1,Transient non-community system,3,,,BETHEL LUTHERAN CHURCH,,04,,N,4,0,,,,,NC0180598,_____________,,,35.639218,County Centroid,0,,12,,110052792448,,30000,ROWAN,-80.525344
,,,Y,NC,,$0,1,Transient non-community system,2,,,BETHEL MISSIONARY BAPTIST CH,,04,,N,0,0,,,,,NC0102584,_____________,,,35.920951,County Centroid,0,,,,110052967884,,30000,ALEXANDER,-81.177467
,2,,Y,NC,,$0,1,Transient non-community system,,,,BETHEL PRESBYTERIAN CHURCH,,04,,N,2,0,,,,,NC0241422,_____________,,,36.079065,County Centroid,0,,3,,110050762803,,30000,GUILFORD,-79.788665
,,,Y,NC,,$0,1,Transient non-community system,,,,BETHEL UMC,,04,,N,0,0,,,,,NC0144439,_____________,,,35.557097,County Centroid,0,,,,110052780745,,30000,HAYWOOD,-82.972807
,,,Y,NC,,$0,1,Transient non-community system,,,,BETHEL UMC,,04,,N,0,0,,,,,NC0241697,_____________,,,36.079065,County Centroid,0,,,,110050718229,,30000,GUILFORD,-79.788665
,,,Y,NC,,$0,1,Transient non-community system,2,,,BETHEL UMC CHURCH,,04,,N,0,0,,,,,NC0149595,_____________,,,35.806356,County Centroid,0,,,,110053036102,,30000,IREDELL,-80.874545
,1,,Y,NC,,$0,1,Transient non-community system,,,,BETHEL UNITED CHURCH OF CHRIST,,04,,N,1,0,,,,,NC3017020,_____________,,,36.393097,County Centroid,0,,3,,110050793110,,30000,CASWELL,-79.332546
,,,Y,NC,,$0,1,Transient non-community system,,,,BETHEL UNITED METHODIST CHURCH,,04,,N,0,0,,,,,NC0201532,_____________,,,36.041974,County Centroid,0,,,,110051019768,,30000,ALAMANCE,-79.399935
,,,Y,NC,,$0,1,Transient non-community system,,,,BETHEL UNITED METHODIST CHURCH,,04,,N,0,0,,,,,NC0424516,_____________,,,34.260471,County Centroid,0,,,,110050548234,,30000,COLUMBUS,-78.636378
,1,,Y,NC,,$0,1,Transient non-community system,,,,BETHEL WESLEYAN CHURCH,,04,,Y,1,1,,,,,NC0145513,_______VVVVVV,,,35.336424,County Centroid,1,,3,,110052830120,,30000,HENDERSON,-82.479634
,,,Y,NC,,$0,1,Transient non-community system,1,,,BETHEL WESLYAN CHURCH,,04,,N,0,0,,,,,NC2013010,_____________,,,35.387845,County Centroid,0,,,,110050792941,,30000,CABARRUS,-80.552868
,4,,Y,NC,,$0,1,Community water system,,,,"BETHEL, TOWN OF",,04,,N,4,1,,,,,NC0474030,VVVVVVV______,,,35.591065,County Centroid,0,,9,,110012840131,,30000,PITT,-77.372404
,,,Y,NC,,$0,1,Transient non-community system,,,,BETHESDA FULL GOSPEL TABERNACL,,04,,N,0,0,,,,,NC0136606,_____________,,,35.293344,County Centroid,0,,,,110050503745,,30000,GASTON,-81.177256
,,,Y,NC,,$0,1,Transient non-community system,,,,BETHESDA UMC,,04,,N,0,0,,,,,NC0285401,_____________,,,36.404195,County Centroid,0,,,,110051138504,,30000,STOKES,-80.239271
,2,,Y,NC,,$0,1,Transient non-community system,,,,BETHLEHEM BAPTIST CHURCH,,04,,N,2,1,,,,,NC0363500,VVVVVVVVVVV__,,,35.310163,County Centroid,0,,4,,110053010308,,30000,MOORE,-79.480664
,2,,Y,NC,,$0,1,Transient non-community system,,,,BETHLEHEM BAPTIST CHURCH,,04,,N,2,1,,,,,NC0156438,___VV________,,,35.682232,County Centroid,0,,3,,110052864192,,30000,MCDOWELL,-82.048029
,2,,Y,NC,,$0,1,Transient non-community system,,,,BETHLEHEM BAPTIST CHURCH,,04,,N,2,1,,,,,NC0235447,_VV__________,,,36.088241,County Centroid,0,,3,,110050925610,,30000,FRANKLIN,-78.28309
,,,Y,NC,,$0,1,Non-Transient non-community system,,,,BETHLEHEM CHILD CARE CENTER,,04,,N,0,0,,,,,NC0241660,_____________,,,36.079065,County Centroid,0,,,,110050898436,,30000,GUILFORD,-79.788665
,2,,Y,NC,,$0,1,Transient non-community system,,,,BETHLEHEM FAMILY LIFE CENTER_4092116,,04,,N,2,1,,,,,NC4092116,____VV_______,,,35.789846,County Centroid,0,,3,,110050857603,,30000,WAKE,-78.650624
,5,,Y,NC,,$0,1,Transient non-community system,,,,BETHLEHEM MISSIONARY BAPT CH,,04,,N,5,1,,,,,NC7010020,_V__VVVVVVV__,,,34.038708,County Centroid,0,,9,,110050700719,,30000,BRUNSWICK,-78.227688
,,,Y,NC,,$0,1,Transient non-community system,,,,BETHLEHEM UMC,,04,,N,0,0,,,,,NC0190498,_____________,,,34.991501,County Centroid,0,,,,110053007802,,30000,UNION,-80.530131
,,,Y,NC,,$0,1,Transient non-community system,,,,BETHPAGE LUTHERAN CHURCH,,04,,N,0,0,,,,,NC0155529,_____________,,,35.487825,County Centroid,0,,,,110050524321,,30000,LINCOLN,-81.225176
,,,Y,NC,,$0,1,Transient non-community system,1,,,BETHPAGE UMC,,04,,N,0,0,,,,,NC0180682,_____________,,,35.639218,County Centroid,0,,,,110050542150,,30000,ROWAN,-80.525344
,10,,Y,NC,,$0,1,Transient non-community system,,,,BETSEY`S OLE COUNTRY STORE,,04,,Y,10,1,,,,,NC1014003,____VVVVVVVVV,,,35.957857,County Centroid,1,,19,,110063369901,,30000,CALDWELL,-81.530076
,,,Y,NC,,$0,1,Community water system,,,,BETTS BROOKE S/D WATER SYSTEM,,04,,N,0,0,,,,,NC0118284,_____________,,,35.663182,County Centroid,0,,,,110012931104,,30000,CATAWBA,-81.214151
37019,12,,Y,NC,03040207,$0,1,Transient non-community system,3,37019,,BETTY'S WATERFRONT RESTAURANT,28462,04,,Y,12,1,CENTER OF A FACILITY OR STATION,SUPPLY,,,NC0410522,VVVVVVVVVVVVV,8.09,030402080107,33.91973,ADDRESS MATCHING-HOUSE NUMBER,1,BRUNSWICK COUNTY,26,28462,110018712883,1045 B-VAR ROAD SOUTH WEST,30,BRUNSWICK,-78.25833
,,,Y,NC,,$0,1,Transient non-community system,,,,BEULAH BAPTIST CHURCH,,04,,N,0,0,,,,,NC3017007,_____________,,,36.393097,County Centroid,0,,,,110050867870,,30000,CASWELL,-79.332546
,,,Y,NC,,$0,1,Transient non-community system,,,,BEULAH BAPTIST CHURCH,,04,,N,0,0,,,,,NC0276421,_____________,,,35.709915,County Centroid,0,,,,110051250524,,30000,RANDOLPH,-79.806215
,2,,Y,NC,,$0,1,Transient non-community system,,,,BEULAH BAPTIST CHURCH,,04,,N,2,1,,,,,NC4392466,_______VV____,,,35.789846,County Centroid,0,,4,,110050637138,,30000,WAKE,-78.650624
,,,Y,NC,,$0,1,Transient non-community system,,,,BEULAH BAPTIST CHURCH,,04,,N,0,0,,,,,NC0145514,_____________,,,35.336424,County Centroid,0,,,,110052830148,,30000,HENDERSON,-82.479634
,,,Y,NC,,$0,1,Transient non-community system,,,,BEULAH BAPTIST CHURCH,,04,,N,0,0,,,,,NC0175432,_____________,,,35.278928,County Centroid,0,,,,110052900278,,30000,POLK,-82.167667
,,,Y,NC,,$0,1,Transient non-community system,,,,BEULAH BAPTIST CHURCH  NO 2,,04,,N,0,1,,,,,NC3017012,VVVVVVVVVVV__,,,36.393097,County Centroid,0,,1,,110050877501,,30000,CASWELL,-79.332546
,,,Y,NC,,$0,1,Transient non-community system,,,,BEULAH COMMUNITY CENTER,,04,,N,0,0,,,,,NC0286403,_____________,,,36.415416,County Centroid,0,,,,110050856301,,30000,SURRY,-80.686463
,,,Y,NC,,$0,1,Transient non-community system,1,,,BEULAH HEIGHT WESLEYAN CH,,04,,N,0,0,,,,,NC0149424,_____________,,,35.806356,County Centroid,0,,,,110052851099,,30000,IREDELL,-80.874545
,,,Y,NC,,$0,1,Community water system,3,,,"BEULAVILLE, TOWN OF",,04,,N,0,0,,,,,NC0431020,_____________,,,34.934403,County Centroid,0,,,,110012846876,,30000,DUPLIN,-77.933543
,,,Y,NC,,$0,1,Community water system,1,,,BEVERLY ACRES.,,04,,N,0,0,,,,,NC0136108,_____________,,,35.293344,County Centroid,0,,,,110012928822,,30000,GASTON,-81.177256
,14,,Y,NC,,$0,1,Non-Transient non-community system,1,,,BFN OPERATIONS LLC-POT SHED B,,04,,Y,14,1,,,,,NC0498596,VVVVVVVVVVVVV,,,35.704125,County Centroid,1,,23,,110050890540,,30000,WILSON,-77.918982
,11,,Y,NC,,$0,1,Non-Transient non-community system,1,,,BFN OPERATIONS-DECOM SITE,,04,,Y,11,1,,,,,NC0498595,V__VVVVVVVVVV,,,35.704125,County Centroid,1,,22,,110050890531,,30000,WILSON,-77.918982
,8,,Y,NC,,$0,1,Non-Transient non-community system,1,,,BFN OPERATIONS-MAIN OFF,,04,,Y,8,1,,,,,NC0498594,VVVVVVVVVVVVV,,,35.704125,County Centroid,1,,15,,110050890522,,30000,WILSON,-77.918982
,1,,Y,NC,,$0,1,Transient non-community system,,,,BIBLE BAPTIST CHURCH,,04,,N,1,1,,,,,NC0279739,________VVVVV,,,36.380927,County Centroid,0,,2,,110050953009,,30000,ROCKINGHAM,-79.782889
,,,Y,NC,,$0,1,Transient non-community system,,,,BIBLE BAPTIST CHURCH,,04,,N,0,0,,,,,NC0118412,_____________,,,35.663182,County Centroid,0,,,,110050594433,,30000,CATAWBA,-81.214151
,,,Y,NC,,$0,1,Non-Transient non-community system,5,,,BIBLE MISSIONARY BAPT CHURCH,,04,,N,0,0,,,,,NC0180761,_____________,,,35.639218,County Centroid,0,,,,110052819759,,30000,ROWAN,-80.525344
,,,Y,NC,,$0,1,Non-Transient non-community system,,,,BIBLE WESLEYAN CHRISTIAN CH & SCHOOL,,04,,N,0,0,,,,,NC0201475,_____________,,,36.041974,County Centroid,0,,,,110051169329,,30000,ALAMANCE,-79.399935
,,,Y,NC,,$0,1,Transient non-community system,,,,BIG CREEK CAMPGROUND,,04,,N,0,0,,,,,NC0144539,_____________,,,35.557097,County Centroid,0,,,,110052816262,,30000,HAYWOOD,-82.972807
,5,,Y,NC,,$0,1,Non-Transient non-community system,,,,BIG DADDY`S RESTAURANT,,04,,Y,5,1,,,,,NC0149511,VVVVVVVVVVVVV,,,35.806356,County Centroid,1,,5,,110052852775,,30000,IREDELL,-80.874545
,,,Y,NC,,$0,1,Transient non-community system,,,,BIG IVY COM DEVELOPMENT C,,04,,N,0,0,,,,,NC0111443,_____________,,,35.609371,County Centroid,0,,,,110052861168,,30000,BUNCOMBE,-82.530426
,1,,Y,NC,,$0,1,Transient non-community system,1,,,BIG LAUREL BAPTIST CHURCH,,04,,N,1,0,,,,,NC0158481,_____________,,,35.86408,County Centroid,0,,3,,110052914575,,30000,MADISON,-82.712731
,3,,Y,NC,,$0,1,Transient non-community system,,,,BIG LEAGUE CAMP,,04,,N,3,1,,,,,NC1056043,____VVVVVVV__,,,35.682232,County Centroid,0,,4,,NC1056043,,30000,McDowell,-82.048029
,,,Y,NC,,$0,1,Transient non-community system,,,,BIG LEVEL BAPTIST CHURCH,,04,,N,0,0,,,,,NC0175416,_____________,,,35.278928,County Centroid,0,,1,,110052899805,,30000,POLK,-82.167667
,,,Y,NC,,$0,1,Transient non-community system,1,,,BIG LYNN LODGE,,04,,N,0,0,,,,,NC0156536,_____________,,,35.682232,County Centroid,0,,,,110052419290,,30000,MCDOWELL,-82.048029
,,,Y,NC,,$0,1,Transient non-community system,,,,BIG MACEDONIA MISS BAPT CHURCH,,04,,N,0,0,,,,,NC7010016,_____________,,,34.038708,County Centroid,0,,,,110050930757,,30000,BRUNSWICK,-78.227688
,1,,Y,NC,,$0,1,Transient non-community system,,,,BIG MEADOWS BAPTIST CHURCH,,04,,Y,1,1,,,,,NC0106410,________VVVVV,,,36.072894,County Centroid,1,,2,,110050766532,,30000,AVERY,-81.920363
,2,,Y,NC,,$0,1,Transient non-community system,,,,BIG PINEY GROVE MISS BAPT CH,,04,,N,2,0,,,,,NC0382420,V____________,,,34.990575,County Centroid,0,,4,,110050580368,,30000,SAMPSON,-78.371382
,1,,Y,NC,,$0,1,Community water system,,,,BIG RIDGE S/D,,04,,N,1,0,,,,,NC0150170,_____________,,,35.286463,County Centroid,0,,3,,110050524287,,30000,JACKSON,-83.130641
,,,Y,NC,,$0,1,Community water system,1,,,BIG SHEEP CLIFF,,04,,Y,0,1,,,,,NC0150169,VVVVVVVVVVVVV,,,35.286463,County Centroid,1,,,,110047708851,,30000,JACKSON,-83.130641
,2,,Y,NC,,$0,1,Transient non-community system,,,,BIG SPRINGS BAPTIST CHURCH,,04,,N,2,1,,,,,NC0181590,_____V__VVVVV,,,35.402747,County Centroid,0,,5,,110052752972,,30000,RUTHERFORD,-81.919583
,5,,Y,NC,,$0,1,Transient non-community system,1,,,BIGFORD`S CAMPGROUND,,04,,N,5,1,,,,,NC0471118,___VV________,,,34.512581,County Centroid,0,,8,,110050861386,,30000,PENDER,-77.888029
,,,Y,NC,,$0,1,Transient non-community system,,,,BILLS CREEK BAPTIST CHURCH,,04,,N,0,0,,,,,NC0181483,_____________,,,35.402747,County Centroid,0,,,,110052915716,,30000,RUTHERFORD,-81.919583
,,,Y,NC,,$0,1,Transient non-community system,1,,,BILLS MARINA INC,,04,,N,0,0,,,,,NC0118609,_____________,,,35.663182,County Centroid,0,,,,110050650489,,30000,CATAWBA,-81.214151
,,,Y,NC,,$0,1,Transient non-community system,,,,BILLS PIZZA,,04,,N,0,0,,,,,NC3041059,_____________,,,36.079065,County Centroid,0,,,,110050894289,,30000,GUILFORD,-79.788665
,,,Y,NC,,$0,1,Transient non-community system,,,,BILLY K CAMPGROUND,,04,,N,0,0,,,,,NC0407501,_____________,,,35.482313,County Centroid,0,,,,110050655876,,30000,BEAUFORT,-76.842014
,1,,Y,NC,,$0,1,Non-Transient non-community system,,,,BILTMORE ESTATES,,04,,N,1,1,,,,,NC0111103,______VVV____,,,35.53971,State Centroid,0,,3,,110047036872,,100000,,-79.130864
,,,Y,NC,,$0,1,Community water system,,,,"BILTMORE FORREST,  TOWN OF",,04,,N,0,0,,ASHEVILLE,,,NC0111030,_____________,,,35.570977,Place Name Centroid,0,,,,110012933371,,20000,BUNCOMBE,-82.552738
,2,,Y,NC,,$0,1,Community water system,2,,,BINGHAM WOODS MHP,,04,,N,2,0,,,,,NC0368188,_____________,,,36.062499,County Centroid,0,,4,,110012915079,,30000,ORANGE,-79.119355
,,,Y,NC,,$0,1,Community water system,,,,BIRCH FALLS S/D,,04,,N,0,0,,,,,NC0392325,_____________,,,35.789846,County Centroid,0,,,,110012853867,,30000,WAKE,-78.650624
,,,Y,NC,,$0,1,Community water system,2,,,BIRCHWOOD MHP,,04,,N,0,0,,,,,NC0368105,_____________,,,36.062499,County Centroid,0,,,,110012860966,,30000,ORANGE,-79.119355
,,,Y,NC,,$0,1,Community water system,1,,,BIRKLANDS S/D,,04,,N,0,0,,,,,NC4092020,_____________,,,35.789846,County Centroid,0,,,,110020597816,,30000,WAKE,-78.650624
,4,,Y,NC,,$0,1,Community water system,,,,"BISCOE, TOWN OF",,04,,Y,4,1,,,,,NC0362035,__________VVV,,,35.338071,County Centroid,1,,10,,110012917282,,30000,MONTGOMERY,-79.904196
,,,Y,NC,,$0,1,Community water system,,,,BISHOPS RIDGE S/D,,04,,N,0,0,,,,,NC0234197,_____________,,,36.131667,County Centroid,0,,,,110012899578,,30000,FORSYTH,-80.257289
,3,,Y,NC,,$0,1,Transient non-community system,,,,BJ`S COMMUNITY GROCERY STORE,,04,,N,3,1,,,,,NC0392646,_VV___VVV____,,,35.789846,County Centroid,0,,5,,110050701987,,30000,WAKE,-78.650624
,,,Y,NC,,$0,1,Transient non-community system,,,,BJ`S GAS & FOOD,,04,,N,0,0,,,,,NC1011017,_____________,,,35.609371,County Centroid,0,,,,110050827986,,30000,BUNCOMBE,-82.530426
,1,,Y,NC,,$0,1,Community water system,,,,BLACK BEAR DEVELOPMENT,,04,,Y,1,1,,,,,NC1056031,________VVVVV,,,35.682232,County Centroid,1,,2,,NC1056031,,30000,McDowell,-82.048029
,,,Y,NC,,$0,1,Community water system,,,,"BLACK CREEK, TOWN OF",,04,,N,0,0,,BLACK CREEK,,,NC0498035,_____________,,,35.63683,Place Name Centroid,0,,,,110012841185,,20000,WILSON,-77.932613
,,,Y,NC,,$0,1,Transient non-community system,,,,BLACK FOREST FAMILY CAMPGROUND,,04,,N,0,0,,,,,NC0188137,_____________,,,35.210095,County Centroid,0,,6,,110052893954,,30000,TRANSYLVANIA,-82.816696
,4,,Y,NC,,$0,1,Transient non-community system,,,,BLACK HORSE RUN,,04,,N,4,1,,,,,NC0392824,__VVVVV______,,,35.789846,County Centroid,0,,6,,110050674640,,30000,WAKE,-78.650624
,2,,Y,NC,,$0,1,Community water system,,,,"BLACK MOUNTAIN, TOWN OF",,04,,N,2,0,,BLACK MOUNTAIN,,,NC0111020,_____________,,,35.615192,Place Name Centroid,0,,6,,110012942389,,20000,BUNCOMBE,-82.327844
,4,,Y,NC,,$0,1,Transient non-community system,,,,BLACKMANS GROVE CHURCH,,04,,N,4,1,,,,,NC0382425,_VV_____VVVVV,,,34.990575,County Centroid,0,,9,,110050580493,,30000,SAMPSON,-78.371382
,25,,Y,NC,,$0,1,Community water system,,,,BLACKMON`S MHP,,04,,Y,25,1,,,,,NC0351107,VVVVVVVVVVVVV,,,35.513405,County Centroid,1,,47,,110012865328,,30000,JOHNSTON,-78.367267
,,,Y,NC,,$0,1,Community water system,,,,BLACKSTONE MEADOWS,,04,,N,0,0,,,,,NC4092091,_____________,,,35.789846,County Centroid,0,,,,110063343948,,30000,WAKE,-78.650624
,1,,Y,NC,,$0,1,Non-Transient non-community system,1,,,BLADEN BLUFFS WATER SYSTEM,,04,,N,1,0,,,,,NC5009012,_____________,,,34.591949,County Centroid,0,,4,,110050761341,,30000,BLADEN,-78.539513
,2,,Y,NC,,$0,1,Community water system,2,,,BLADEN CO WTR DIST-EAST BLADEN,,04,,N,2,1,,,,,NC0309060,___VVV_______,,,34.591949,County Centroid,0,,4,,110012868824,,30000,BLADEN,-78.539513
,4,,Y,NC,,$0,1,Community water system,5,,,BLADEN CO WTR DIST-WEST BLADEN,,04,,N,4,1,,,,,NC0309055,VVVVVVVVVVVVV,,,34.591949,County Centroid,0,,8,,110012868717,,30000,BLADEN,-78.539513
,5,,Y,NC,,$0,1,Community water system,1,,,"BLADENBORO, TOWN OF",,04,,N,5,1,,BLADENBORO,,,NC0309015,V_________VV,,,34.54087,Place Name Centroid,0,,15,,110012872409,,20000,BLADEN,-78.79466
,,,Y,NC,,$0,1,Transient non-community system,1,,,BLAIR FARM #1,,04,,N,0,0,,,,,NC7071055,_____________,,,34.512581,County Centroid,0,,,,110050912287,,30000,PENDER,-77.888029
,,,Y,NC,,$0,1,Transient non-community system,2,,,BLAIR FARM #2,,04,,N,0,0,,,,,NC7071056,_____________,,,34.512581,County Centroid,0,,,,110050912303,,30000,PENDER,-77.888029
,,,Y,NC,,$0,1,Community water system,1,,,BLALOCK FOREST S/D,,04,,N,0,0,,,,,NC4092097,_____________,,,35.789846,County Centroid,0,,,,110063343957,,30000,WAKE,-78.650624
,1,,Y,NC,,$0,1,Community water system,1,,,BLANEY FARMS S/D,,04,,Y,1,1,,,,,NC4092134,___VVVVVVVVVV,,,35.789846,County Centroid,1,,1,,NC4092134,,30000,Wake,-78.650624
,,,Y,NC,,$0,1,Transient non-community system,,,,BLANTYRE BAPTIST CHURCH,,04,,N,0,0,,,,,NC0188494,_____________,,,35.210095,County Centroid,0,,,,110052955174,,30000,TRANSYLVANIA,-82.816696
,4,,Y,NC,,$0,1,Community water system,,,,BLAWELL S/D,,04,,Y,4,1,,,,,NC0326118,__V__VVVVVVVV,,,35.050192,County Centroid,1,,6,,110012870009,,30000,CUMBERLAND,-78.828719
,,,Y,NC,,$0,1,Transient non-community system,,,,BLESSED HOPE BAPTIST CHURCH,,04,,N,0,0,,,,,NC0291533,_____________,,,36.365481,County Centroid,0,,,,110049175673,,30000,VANCE,-78.405434
,1,,Y,NC,,$0,1,Transient non-community system,,,,BLOOD CREEK OVERLOOK,,04,,N,1,1,,,,,NC0197540,_________V___,,,36.209303,County Centroid,0,,3,,110050797535,,30000,WILKES,-81.165354
,1,,Y,NC,,$0,1,Community water system,,,,BLOOMFIELD APARTMENTS,,04,,N,1,0,,,,,NC0195136,_____________,,,36.235371,County Centroid,0,,1,,110012903867,,30000,WATAUGA,-81.709919
,,,Y,NC,,$0,1,Transient non-community system,,,,BLOWING ROCK CONFERENCE CENTER,,04,,N,0,0,,,,,NC0195566,_____________,,,36.235371,County Centroid,0,,,,110050979205,,30000,WATAUGA,-81.709919
,,,Y,NC,,$0,1,Community water system,5,,,"BLOWING ROCK, TOWN OF",,04,,N,0,0,,BLOWING ROCK,,,NC0195020,_____________,,,36.129282,Place Name Centroid,0,,,,110012924577,,20000,WATAUGA,-81.670544
,3,,Y,NC,,$0,1,Transient non-community system,,,,BLUE BOAR RETREAT,,04,,Y,3,1,,,,,NC0138411,_________VVVV,,,35.348111,County Centroid,1,,5,,110050523046,,30000,GRAHAM,-83.830909
,2,,Y,NC,,$0,1,Transient non-community system,,,,BLUE CLAY RD BUSINESS PARK,,04,,N,2,1,,,,,NC0465625,_________VV__,,,34.177466,County Centroid,0,,2,,110050831258,,30000,NEW HANOVER,-77.871378
,,,Y,NC,,$0,1,Transient non-community system,,,,BLUE CREEK BAPTIST CHURCH,,04,,N,0,0,,,,,NC0114571,_____________,,,35.957857,County Centroid,0,,,,110050579450,,30000,CALDWELL,-81.530076
,,,Y,NC,,$0,1,Transient non-community system,,,,BLUE MOUNTAIN NO 2,,04,,N,0,0,,,,,NC0286600,_____________,,,36.415416,County Centroid,0,,,,110051093464,,30000,SURRY,-80.686463
,,,Y,NC,,$0,1,Transient non-community system,,,,BLUE RIDGE BAPTIST CHURCH,,04,,N,0,0,,,,,NC0286620,_____________,,,36.415416,County Centroid,0,,,,110051018910,,30000,SURRY,-80.686463
,2,,Y,NC,,$0,1,Transient non-community system,,,,BLUE RIDGE CHRISTIAN CHURCH,,04,,N,2,1,,,,,NC1045024,____VVVVV____,,,35.336424,County Centroid,0,,6,,110050701308,,30000,HENDERSON,-82.479634
,2,,Y,NC,,$0,1,Non-Transient non-community system,,,,BLUE RIDGE DEVELOPMENTAL DAY,,04,,N,2,1,,,,,NC3003003,___________VV,,,36.489356,County Centroid,0,,4,,110050817531,,30000,ALLEGHANY,-81.132299
,2,,Y,NC,,$0,1,Transient non-community system,,,,BLUE RIDGE DINER,,04,,N,2,1,,,,,NC0195508,__VV___VV____,,,36.235371,County Centroid,0,,5,,110051016020,,30000,WATAUGA,-81.709919
,,,Y,NC,,$0,1,Non-Transient non-community system,,,,BLUE RIDGE ELEM SCHOOL,,04,,N,0,0,,,,,NC0105503,_____________,,,36.436305,County Centroid,0,,,,110053006466,,30000,ASHE,-81.49877
,,,Y,NC,,$0,1,Community water system,,,,BLUE RIDGE ESTATES,,04,,N,0,1,,,,,NC3095004,__V_______VV,,,36.235371,County Centroid,0,,,,110013751706,,30000,WATAUGA,-81.709919
,,,Y,NC,,$0,1,Transient non-community system,,,,BLUE RIDGE FUNERAL SERVICE,,04,,N,0,0,,,,,NC1058002,_____________,,,35.86408,County Centroid,0,,,,110050859013,,30000,MADISON,-82.712731
,8,,Y,NC,,$0,1,Community water system,,,,BLUE RIDGE MANOR ASH LAKE-HOLIDAY LN SEC,,04,,N,8,0,,,,,NC0105101,_____________,,,36.436305,County Centroid,0,,15,,110012945616,,30000,ASHE,-81.49877
37009,8,,Y,NC,05050001,$0,1,Community water system,,37009,,BLUE RIDGE MANOR-NIKANOR SECT,28694,04,,N,8,0,CENTER OF FACILITY,WEST JEFFERSON,,,NC0105104,_____________,3.918,050500010206,36.337461,INTERPOLATION-MAP,0,,15,28694,110012945803,,50,ASHE,-81.424999
,7,,Y,NC,,$0,1,Community water system,,,,BLUE RIDGE MNR ASHE LAKE BEAVER CRK SEC,,04,,N,7,0,,,,,NC0105109,_____________,,,36.436305,County Centroid,0,,11,,110012933246,,30000,ASHE,-81.49877
,,,Y,NC,,$0,1,Transient non-community system,,,,BLUE RIDGE MOTORCYCLE CAMPGRD,,04,,N,0,0,,,,,NC0144594,_____________,,,35.557097,County Centroid,0,,,,110052777580,,30000,HAYWOOD,-82.972807
,,,Y,NC,,$0,1,Community water system,,,,BLUE RIDGE PRESERVATION INC,,04,,N,0,0,,,,,NC0195169,_____________,,,36.235371,County Centroid,0,,,,110012924826,,30000,WATAUGA,-81.709919
,,,Y,NC,,$0,1,Non-Transient non-community system,,,,BLUE RIDGE SCHOOL,,04,,N,0,0,,,,,NC0150461,_____________,,,35.286463,County Centroid,0,,,,110052902034,,30000,JACKSON,-83.130641
,3,,Y,NC,,$0,1,Community water system,,,,BLUE RIDGE VILLAGE,,04,,Y,3,1,,,,,NC0106116,VVVVVVVVVVVVV,,,36.072894,County Centroid,1,,3,,110012946731,,30000,AVERY,-81.920363
,,,Y,NC,,$0,1,Community water system,,,,BLUE RIDGE WATER ASSOCIATION,,04,,N,0,0,,,,,NC0197030,_____________,,,36.209303,County Centroid,0,,,,110012925040,,30000,WILKES,-81.165354
,7,,Y,NC,,$0,1,Community water system,,,,BLUE SKIES MH LIVING,,04,,N,7,1,,,,,NC0392321,____VVVVV____,,,35.789846,County Centroid,0,,12,,110012853714,,30000,WAKE,-78.650624
,,,Y,NC,,$0,1,Community water system,,,,BLUE WATER COVE S/D,,04,,N,0,0,,,,,NC3034012,_____________,,,36.131667,County Centroid,0,,,,110048468528,,30000,FORSYTH,-80.257289
,,,Y,NC,,$0,1,Transient non-community system,1,,,BLUE WATERS POOL,,04,,N,0,0,,,,,NC0180406,_____________,,,35.639218,County Centroid,0,,,,110052808869,,30000,ROWAN,-80.525344
,,,Y,NC,,$0,1,Transient non-community system,,,,BLUE WING BAPTIST CHURCH,,04,,N,0,0,,,,,NC0239488,_____________,,,36.299884,County Centroid,0,,,,110050844164,,30000,GRANVILLE,-78.657634
,,,Y,NC,,$0,1,Transient non-community system,,,,BLUES GROVE BAPTIST CHURCH INC,,04,,N,0,0,,,,,NC0286622,_____________,,,36.415416,County Centroid,0,,,,110051018956,,30000,SURRY,-80.686463
,1,,Y,NC,,$0,1,Transient non-community system,,,,BLUFF`S LODGE & COFFEE SHOP,,04,,N,1,1,,,,,NC0103445,_________V___,,,36.489356,County Centroid,0,,2,,110052822512,,30000,ALLEGHANY,-81.132299
,2,,Y,NC,,$0,1,Community water system,1,,,"BOARDMAN, TOWN OF",,04,,N,2,1,,,,,NC0424075,VVVVV________,,,34.260471,County Centroid,0,,4,,110012911938,,30000,COLUMBUS,-78.636378
,1,,Y,NC,,$0,1,Transient non-community system,,,,BOBS CREEK BAPTIST CHURCH,,04,,N,1,1,,,,,NC0145516,________VV___,,,35.336424,County Centroid,0,,3,,110052830184,,30000,HENDERSON,-82.479634
,5,,Y,NC,,$0,1,Transient non-community system,1,,,BOGER REFORMED CHURCH,,04,,N,5,1,,,,,NC0113415,___VV________,,,35.387845,County Centroid,0,,9,,110050776442,,30000,CABARRUS,-80.552868
37031,3,,Y,NC,03020106,$0,1,Community water system,1,37031,,BOGUE BANKS WATER CORP WTP,28594,04,,N,3,1,CENTER OF A FACILITY OR STATION,EMERALD ISLE,,,NC0416028,VVVV______VVV,5.309,030203010304,34.65937,ADDRESS MATCHING-HOUSE NUMBER,0,CARTERET COUNTY,5,28594,110006707509,9204 COAST GUARD ROAD,30,CARTERET,-77.06208
,1,,Y,NC,,$0,1,Community water system,7,,,"BOILING SPRINGS, TOWN OF",,04,,N,1,0,,,,,NC0123025,_____________,,,35.33463,County Centroid,0,,3,,110012933335,,30000,CLEVELAND,-81.557115
,,,Y,NC,,$0,1,Transient non-community system,,,,BOLEN`S CREEK BAPTIST CHURCH,,04,,N,0,0,,,,,NC0100449,_____________,,,35.889504,County Centroid,0,,,,110050538343,,30000,YANCEY,-82.30398
,8,,Y,NC,,$0,1,Community water system,4,,,"BOLTON, TOWN OF",,04,,Y,8,1,,BOLTON,,,NC0424050,VVVVVVVVVVVVV,,,34.317182,Place Name Centroid,1,,14,,110012848543,,20000,COLUMBUS,-78.395626
,,,Y,NC,,$0,1,Community water system,,,,BON AIRE ACRES,,04,,N,0,0,,,,,NC0241193,_____________,,,36.079065,County Centroid,0,,,,110012880150,,30000,GUILFORD,-79.788665
,,,Y,NC,,$0,1,Transient non-community system,,,,BONNIE & CLYDE`S RESTAURANT,,04,,N,0,0,,,,,NC0161430,_____________,,,36.013102,County Centroid,0,,3,,110052843508,,30000,MITCHELL,-82.163554
,,,Y,NC,,$0,1,Transient non-community system,,,,BOOMER PARK BP-9 SCOTT DAM,,04,,N,0,0,,,,,NC0197524,_____________,,,36.209303,County Centroid,0,,,,110050771125,,30000,WILKES,-81.165354
,1,,Y,NC,,$0,1,Non-Transient non-community system,,,,BOOMER-FERGUSON ELEM SCHOOL,,04,,N,1,1,,,,,NC0197452,________VV___,,,36.209303,County Centroid,0,,1,,110051018297,,30000,WILKES,-81.165354
,1,,Y,NC,,$0,1,Community water system,10,,,"BOONE, TOWN OF",,04,,N,1,1,,BOONE,,,NC0195010,_______V_____,,,36.212829,Place Name Centroid,0,,3,,110012903224,,20000,WATAUGA,-81.668935
,,,Y,NC,,$0,1,Community water system,3,,,"BOONVILLE, TOWN OF",,04,,N,0,1,,,,,NC0299020,VVVVVVVVVVV__,,,36.158765,County Centroid,0,,1,,110012919459,,30000,YADKIN,-80.665164
,,,Y,NC,,$0,1,Non-Transient non-community system,2,,,BOSTIAN ELEM SCHOOL,,04,,N,0,0,,,,,NC0180649,_____________,,,35.639218,County Centroid,0,,,,110052416998,,30000,ROWAN,-80.525344
,,,Y,NC,,$0,1,Community water system,3,,,BOSTIAN HEIGHTS WTR SYSTEM,,04,,N,0,0,,,,,NC0180104,_____________,,,35.639218,County Centroid,0,,,,110012908407,,30000,ROWAN,-80.525344
,1,,Y,NC,,$0,1,Community water system,,,,"BOSTIC,  TOWN OF",,04,,N,1,1,,,,,NC0181040,__V__________,,,35.402747,County Centroid,0,,3,,110012905972,,30000,RUTHERFORD,-81.919583
,2,,Y,NC,,$0,1,Community water system,,,,BOTTOMS FARM MHP,,04,,N,2,1,,,,,NC0464132,VVV______VVV,,,35.965945,County Centroid,0,,3,,110012846304,,30000,NASH,-77.987555
,,,Y,NC,,$0,1,Transient non-community system,,,,BOWDITCH UNION CHURCH,,04,,N,0,0,,,,,NC1000013,_____________,,,35.889504,County Centroid,0,,,,110050730697,,30000,YANCEY,-82.30398
,16,,Y,NC,,$0,1,Transient non-community system,,,,BOYETTE BROS PRODUCE LLC,,04,,N,16,1,,,,,NC4098018,VVVV_________,,,35.704125,County Centroid,0,,27,,110063368966,,30000,WILSON,-77.918982
,6,,Y,NC,,$0,1,Transient non-community system,1,,,BOYETTE FARMS,,04,,N,6,1,,,,,NC0498581,VVV_VVVVV____,,,35.704125,County Centroid,0,,19,,110050792665,,30000,WILSON,-77.918982
,3,,Y,NC,,$0,1,Transient non-community system,,,,BOYLSTON BAPTIST CHURCH,,04,,N,3,0,,,,,NC0145517,V____________,,,35.336424,County Centroid,0,,6,,110052830219,,30000,HENDERSON,-82.479634
,,,Y,NC,,$0,1,Transient non-community system,,,,BO`S FOODS GROCERY STORE,,04,,N,0,0,,,,,NC0465588,_____________,,,34.177466,County Centroid,0,,,,110050974503,,30000,NEW HANOVER,-77.871378
,,,Y,NC,,$0,1,Community water system,,,,BRACKENRIDGE ESTATES S/D,,04,,N,0,0,,,,,NC4092080,_____________,,,35.789846,County Centroid,0,,,,110048290666,,30000,WAKE,-78.650624
,,,Y,NC,,$0,1,Transient non-community system,2,,,BRACKETT`S CEDAR PARK,,04,,N,0,0,,,,,NC2023008,_____________,,,35.33463,County Centroid,0,,,,110050931907,,30000,CLEVELAND,-81.557115
,,,Y,NC,,$0,1,Community water system,,,,BRADFIELD FARMS S/D,,04,,N,0,0,,,,,NC0160264,_____________,,,35.246862,County Centroid,0,,,,110012912376,,30000,MECKLENBURG,-80.833832
,1,,Y,NC,,$0,1,Community water system,,,,BRADFORD PARK,,04,,N,1,1,,,,,NC0195106,VVV__________,,,36.235371,County Centroid,0,,1,,110012903411,,30000,WATAUGA,-81.709919
,,,Y,NC,,$0,1,Community water system,,,,BRADFORD S/D,27606,04,,N,0,0,,GARNER,,,NC4392145,_____________,,,35.74223,Zip Code Centroid,0,,,,110012838046,,10000,WAKE,-78.722304
,,,Y,NC,,$0,1,Transient non-community system,,,,BRADLEY CREEK BOATAMINIUM,,04,,N,0,0,,,,,NC7065011,_____________,,,34.177466,County Centroid,0,,,,110051030987,,30000,NEW HANOVER,-77.871378
,,,Y,NC,,$0,1,Community water system,1,,,BRAFFORD FARMS WATER SYSTEM,,04,,N,0,0,,,,,NC0113148,_____________,,,35.387845,County Centroid,0,,,,110012941709,,30000,CABARRUS,-80.552868
,1,,Y,NC,,$0,1,Community water system,,,,BRAGG COMMUNITIES/NTA,,04,,N,1,1,,,,,NC5043001,__________VV,,,35.368635,County Centroid,0,,1,,110048699690,,30000,HARNETT,-78.87161
,,,Y,NC,,$0,1,Community water system,,,,BRAGG ESTATES WATER SYSTEM,,04,,N,0,0,,,,,NC0326122,_____________,,,35.050192,County Centroid,0,,,,110012870027,,30000,CUMBERLAND,-78.828719
,2,,Y,NC,,$0,1,Community water system,4,37031,,BRANDYWINE BAY INCORPORATED,28557,04,,Y,2,1,,MOREHEAD CITY,,,NC0416163,____________V,,,34.737328,Zip Code Centroid,1,CARTERET COUNTY,8,,110018844991,RT 2 BRANDYWINE BAY,10000,CARTERET,-76.772835
,3,,Y,NC,,$0,1,Transient non-community system,,,,BRANON FRIENDS MEETING,,04,,N,3,1,,,,,NC0299436,__VV_VV______,,,36.158765,County Centroid,0,,6,,110050879876,,30000,YADKIN,-80.665164
,,,Y,NC,,$0,1,Community water system,,,,BRANSTON S/D,,04,,N,0,0,,,,,NC4092076,_____________,,,35.789846,County Centroid,0,,,,110048290522,,30000,WAKE,-78.650624
,,,Y,NC,,$0,1,Transient non-community system,,,,BRASSFIELD BAPTIST CHURCH,,04,,N,0,0,,,,,NC0239432,_____________,,,36.299884,County Centroid,0,,,,110050968930,,30000,GRANVILLE,-78.657634
,3,,Y,NC,,$0,1,Non-Transient non-community system,,,,BRAXTON CULLER,,04,,N,3,1,,,,,NC0276435,__VV_________,,,35.709915,County Centroid,0,,9,,110050979615,,30000,RANDOLPH,-79.806215
,,,Y,NC,,$0,1,Community water system,,,,BRAXTON HILLS/SIMMONS HEIGHTS,,04,,N,0,0,,,,,NC0326124,_____________,,,35.050192,County Centroid,0,,,,110012917521,,30000,CUMBERLAND,-78.828719
,,,Y,NC,,$0,1,Community water system,,,,BRAXTON POINTE S/D,,04,,N,0,0,,,,,NC4092110,_____________,,,35.789846,County Centroid,0,,,,110063343975,,30000,WAKE,-78.650624
,,,Y,NC,,$0,1,Community water system,1,,,BRAYTON PARK S/D,,04,,N,0,0,,,,,NC4392164,_____________,,,35.789846,County Centroid,0,,,,110012906631,,30000,WAKE,-78.650624
,,,Y,NC,,$0,1,Community water system,,,,BRENNAN PLACE MHP,,04,,N,0,0,,,,,NC0276449,_____________,,,35.709915,County Centroid,0,,,,110012875665,,30000,RANDOLPH,-79.806215
,,,Y,NC,,$0,1,Community water system,3,,,BRENTWOOD MHP,,04,,N,0,0,,,,,NC0136235,_____________,,,35.293344,County Centroid,0,,,,110012925905,,30000,GASTON,-81.177256
,,,Y,NC,,$0,1,Community water system,,,,BRENTWOOD S/D,,04,,N,0,0,,,,,NC0332117,_____________,,,36.036589,County Centroid,0,,,,110012916185,,30000,DURHAM,-78.877919
,,,Y,NC,,$0,1,Community water system,,,,BRENTWOOD WATER ASSOCIATION,,04,,N,0,0,,,,,NC0112103,_____________,,,35.746182,County Centroid,0,,,,110012940309,,30000,BURKE,-81.70618
,,,Y,NC,,$0,1,Community water system,,,,BRENTWOOD-JAMESTOWN ROAD,,04,,N,0,0,,,,,NC0112104,_____________,,,35.746182,County Centroid,0,,,,110012940354,,30000,BURKE,-81.70618
,,,Y,NC,,$0,1,Community water system,,,,BRETTONWOOD HILLS S/D,,04,,N,0,0,,,,,NC0326286,_____________,,,35.050192,County Centroid,0,,,,110012866274,,30000,CUMBERLAND,-78.828719
,,,Y,NC,,$0,1,Transient non-community system,,,,BREVARD CHURCH OF CHRIST,,04,,N,0,1,,,,,NC0188496,VVVVVVVVVVV__,,,35.210095,County Centroid,0,,1,,110052955245,,30000,TRANSYLVANIA,-82.816696
,,,Y,NC,,$0,1,Community water system,1,,,"BREVARD, CITY OF",,04,,N,0,0,,BREVARD,,,NC0188010,_____________,,,35.243589,Place Name Centroid,0,,,,110012902261,,20000,TRANSYLVANIA,-82.726275
,,,Y,NC,,$0,1,Transient non-community system,,,,BREVOFIELD GOLF LINKS,,04,,N,0,0,,,,,NC4392486,_____________,,,35.789846,County Centroid,0,,,,110050797839,,30000,WAKE,-78.650624
,2,,Y,NC,,$0,1,Transient non-community system,,,,BRIAR BRANCH BAPTIST CHURCH,,04,,N,2,1,,,,,NC0309542,__________VV,,,34.591949,County Centroid,0,,3,,110050932997,,30000,BLADEN,-78.539513
,,,Y,NC,,$0,1,Community water system,7,,,BRIAR CREEK S/D,,04,,N,0,0,,,,,NC0136262,_____________,,,35.293344,County Centroid,0,,,,110012926851,,30000,GASTON,-81.177256
,,,Y,NC,,$0,1,Community water system,1,,,BRIARWOOD FARMS I,,04,,N,0,0,,,,,NC0392330,_____________,,,35.789846,County Centroid,0,,,,110012853947,,30000,WAKE,-78.650624
,,,Y,NC,,$0,1,Community water system,,,,BRIARWOOD/KILDAIRE,,04,,N,0,0,,,,,NC0392383,_____________,,,35.789846,County Centroid,0,,,,110012910573,,30000,WAKE,-78.650624
,,,Y,NC,,$0,1,Community water system,,,,BRIDGE CREEK,,04,,N,0,0,,,,,NC1050040,_____________,,,35.286463,County Centroid,0,,,,110063367075,,30000,JACKSON,-83.130641
,,,Y,NC,,$0,1,Community water system,,,,BRIDGES S/D,,04,,N,0,0,,,,,NC0181103,_____________,,,35.402747,County Centroid,0,,,,110012906025,,30000,RUTHERFORD,-81.919583
,,,Y,NC,,$0,1,Community water system,,,,BRIDLE WOOD S/D,,04,,N,0,0,,,,,NC0279174,_____________,,,36.380927,County Centroid,0,,,,110012872784,,30000,ROCKINGHAM,-79.782889
,,,Y,NC,,$0,1,Transient non-community system,,,,BRIGHT HOPE LAUREL UMC,,04,,N,0,0,,,,,NC0158458,_____________,,,35.86408,County Centroid,0,,,,110052896363,,30000,MADISON,-82.712731
,,,Y,NC,,$0,1,Transient non-community system,1,,,BRIGHT LIGHT BAPTIST CHURCH,,04,,N,0,0,,,,,NC0149589,_____________,,,35.806356,County Centroid,0,,,,110052905415,,30000,IREDELL,-80.874545
,,,Y,NC,,$0,1,Community water system,,,,BRIGHTS CREEK WATER SYSTEM,,04,,N,0,0,,,,,NC1075006,_____________,,,35.278928,County Centroid,0,,,,110048445928,,30000,POLK,-82.167667
,1,,Y,NC,,$0,1,Transient non-community system,,,,BRIGHTWOOD CHRISTIAN CHURCH,,04,,Y,1,1,,,,,NC0241667,___________VV,,,36.079065,County Centroid,1,,2,,110050887288,,30000,GUILFORD,-79.788665
,2,,Y,NC,,$0,1,Transient non-community system,,,,BRIMS GROVE BAPT CH,,04,,N,2,0,,,,,NC0285476,_____________,,,36.404195,County Centroid,0,,6,,110050803261,,30000,STOKES,-80.239271
,,,Y,NC,,$0,1,Community water system,1,,,BRITISH WOODS,,04,,N,0,0,,,,,NC0286148,_____________,,,36.415416,County Centroid,0,,,,110012874096,,30000,SURRY,-80.686463
,,,Y,NC,,$0,1,Transient non-community system,,,,BRITTAIN PRESBYTERIAN CHURCH,,04,,N,0,0,,,,,NC0181461,_____________,,,35.402747,County Centroid,0,,,,110052897745,,30000,RUTHERFORD,-81.919583
,1,,Y,NC,,$0,1,Transient non-community system,,,,BRITTAIN'S COVE PRESBYTERIAN CHURCH,,04,,N,1,1,,,,,NC0111485,___________VV,,,35.609371,County Centroid,0,,2,,110053006554,,30000,BUNCOMBE,-82.530426
,,,Y,NC,,$0,1,Transient non-community system,,,,BROAD RIVER BAPTIST CHURCH,,04,,N,0,0,,,,,NC0181512,_____________,,,35.402747,County Centroid,0,,,,110050506984,,30000,RUTHERFORD,-81.919583
,,,Y,NC,,$0,1,Transient non-community system,,,,BROAD RIVER BAPTIST CHURCH,,04,,N,0,0,,,,,NC0111409,_____________,,,35.609371,County Centroid,0,,,,110052791760,,30000,BUNCOMBE,-82.530426
,,,Y,NC,,$0,1,Community water system,,,,BROAD RIVER WATER AUTHORITY,,04,,N,0,0,,,,,NC0181035,_____________,,,35.402747,County Centroid,0,,,,110012905954,,30000,RUTHERFORD,-81.919583
,,,Y,NC,,$0,1,Community water system,,,,BROADHURST/TURNER DOWNS S/D,,04,,N,0,0,,,,,NC4392129,_____________,,,35.789846,County Centroid,0,,,,110012837706,,30000,WAKE,-78.650624
,1,,Y,NC,,$0,1,Community water system,,,,BROADWAY WATER ASSOCIATION,,04,,N,1,1,,,,,NC0197035,VV___________,,,36.209303,County Centroid,0,,3,,110012900423,,30000,WILKES,-81.165354
,1,,Y,NC,,$0,1,Community water system,,,,"BROADWAY, TOWN OF",,04,,N,1,1,,BROADWAY,,,NC0353015,__VV_________,,,35.45825,Place Name Centroid,0,,1,,110012862848,,20000,LEE,-79.054804
,,,Y,NC,,$0,1,Non-Transient non-community system,,,,BROOK COVE STEMMERY-RJREYNOLDS,,04,,N,0,0,,,,,NC0285447,_____________,,,36.404195,County Centroid,0,,,,110051178998,,30000,STOKES,-80.239271
,4,,Y,NC,,$0,1,Community water system,1,,,BROOKDALE DEVELOPMENT,,04,,N,4,0,,,,,NC2013008,_____________,,,35.387845,County Centroid,0,,9,,110020598067,,30000,CABARRUS,-80.552868
,,,Y,NC,,$0,1,Community water system,,,,BROOKDALE S/D,,04,,N,0,0,,,,,NC0286158,_____________,,,36.415416,County Centroid,0,,,,110012874657,,30000,SURRY,-80.686463
,,,Y,NC,,$0,1,Transient non-community system,,,,BROOKSIDE BAPTIST CHURCH,,04,,N,0,0,,,,,NC1056005,_____________,,,35.682232,County Centroid,0,,,,110050863393,,30000,MCDOWELL,-82.048029
,,,Y,NC,,$0,1,Transient non-community system,,,,BROOKSTON BAPTIST CHURCH,,04,,N,0,0,,,,,NC0291470,_____________,,,36.365481,County Centroid,0,,,,110050856542,,30000,VANCE,-78.405434
