FacDerivedStctyFIPS,SDWAFormalActionCount,FacDateLastPenalty,SDWISFlag,FacState,FacDerivedHuc,FacTotalPenalties,Score,SDWASystemTypes,SDWAInspections5yr,FacFIPSCode,FacLastPenaltyAmt,FacName,FacZip,FacEPARegion,FacMajorFlag,NC,FacFormalActionCount,ViolFlag,FacReferencePoint,FacCity,FacImpWaterFlg,FacPenaltyCount,SDWAIDs,SDWA3yrComplQtrsHistory,FacPercentMinority,FacDerivedWBD,FacLat,FacCollectionMethod,CurrVioFlag,FacStdCountyName,SDWAInformalCount,FacDerivedZip,RegistryID,FacStreet,FacAccuracyMeters,FacCounty,FacLong
,1,,Y,PA,,$0,1,Transient non-community system,,,,1483 NORTH CHARLOTTE STREET,,03,,Y,2,1,,,,,PA1461180,VSVVV_VVV_VVV,,,40.209999,County Centroid,1,,27,,110051644182,,30000,MONTGOMERY,-75.370201
,,,Y,PA,,$0,1,Transient non-community system,,,,1740 HOUSE,,03,,N,0,0,,,,,PA1090982,_____________,,,40.336887,County Centroid,0,,,,110051543497,,30000,BUCKS,-75.10706
42077,,,Y,PA,02040106,$0,1,Transient non-community system,,42077,,1760 PUB N GRILLE,18087,03,,N,0,1,ENTRANCE POINT OF A FACILITY OR STATION,TREXLERTOWN,,,PA3390410,_V___________,16.645,020401060701,40.547506,ADDRESS MATCHING-HOUSE NUMBER,0,LEHIGH COUNTY,1,18087,110052251040,1176 TREXLERTOWN RD,50,LEHIGH,-75.605707
,,,Y,PA,,$0,1,Transient non-community system,,,,183 PLAZA,,03,,N,0,1,,,,,PA3540926,_VVVVV_______,,,40.70369,County Centroid,0,,2,,110051783110,,30000,SCHUYLKILL,-76.2178
,,,Y,PA,,$0,1,Transient non-community system,,,,1836 SALOON AND SERVICE CTR,,03,,N,0,0,,,,,PA2450899,_____________,,,41.056233,County Centroid,0,,2,,110051808102,,30000,MONROE,-75.329037
,,,Y,PA,,$0,1,Transient non-community system,,,,1ST BAPT CH COATES CORNERSTONE,,03,,N,0,1,,,,,PA1150747,__VVVVV__VVV,,,39.973965,County Centroid,0,,5,,110051576380,,30000,CHESTER,-75.749732
,,,Y,PA,,$0,1,Transient non-community system,,,,2 TS MINI GOLF DRIVING RANGE,,03,,N,0,0,,,,,PA3480965,_____________,,,40.752791,County Centroid,0,,,,110051861909,,30000,NORTHAMPTON,-75.307447
,,,Y,PA,,$0,1,Transient non-community system,,,,2047 BUILDING,,03,,N,0,0,,,,,PA3390309,_____________,,,40.614241,County Centroid,0,,,,PA3390309,,30000,Lehigh,-75.590627
,,,Y,PA,,$0,1,Transient non-community system,,,,3 B ICE CREAM,,03,,N,0,1,,,,,PA7220846,_________V___,,,40.412565,County Centroid,0,,5,,110052733592,,30000,DAUPHIN,-76.792634
,,,Y,PA,,$0,1,Transient non-community system,,,,309 FAMILY RESTAURANT,,03,,Y,0,1,,,,,PA1091384,VVVVVVV___VVV,,,40.336887,County Centroid,1,,16,,110051660421,,30000,BUCKS,-75.10706
,,,Y,PA,,$0,1,Community water system,,42079,,4 SEASONS ESTATES MHP,,03,,Y,0,1,,,,,PA2400031,VVVVVVVVVVVVV,,,41.172787,County Centroid,1,LUZERNE COUNTY,36,,110010198918,,30000,LUZERNE,-75.976035
,,,Y,PA,,$0,1,Transient non-community system,,,,4101 SKIPPACK PIKE,,03,,N,0,1,,,,,PA1460426,_VVVVV_______,,,40.209999,County Centroid,0,,1,,110051715177,,30000,MONTGOMERY,-75.370201
42011,,,Y,PA,02050305,$0,1,Transient non-community system,,42011,,501 BAR & GRILLE,19544,03,,N,0,1,ENTRANCE POINT OF A FACILITY OR STATION,MT AETNA,,,PA3060525,VV______VVV__,4.88,020503050702,40.417416,ADDRESS MATCHING-HOUSE NUMBER,0,BERKS COUNTY,5,17067,110001096242,7646 LANCASTER AVE,50,BERKS,-76.296708
,,,Y,PA,,$0,1,Transient non-community system,,,,501 MARKET,,03,,N,0,1,,,,,PA3060972,_VV__________,,,40.413957,County Centroid,0,,2,,110051844386,,30000,BERKS,-75.92686
,,,Y,PA,,$0,1,Transient non-community system,,,,6 WEST,,03,,N,0,0,,,,,PA2520386,_____________,,,41.325949,County Centroid,0,,,,110051785831,,30000,PIKE,-75.031514
,,,Y,PA,,$0,1,Transient non-community system,,,,611 QUICK STOP,,03,,N,0,1,,,,,PA1091343,_VVVVVV______,,,40.336887,County Centroid,0,,5,,110051613777,,30000,BUCKS,-75.10706
,,,Y,PA,,$0,1,Transient non-community system,,,,7 11 2405 17660,,03,,N,0,1,,,,,PA1091063,_VVV___VV____,,,40.336887,County Centroid,0,,9,,110051690906,,30000,BUCKS,-75.10706
,,,Y,PA,,$0,1,Transient non-community system,,,,7 11 STORE NEW BRITAIN,,03,,N,0,0,,,,,PA1090805,_____________,,,40.336887,County Centroid,0,,,,110051693084,,30000,BUCKS,-75.10706
,,,Y,PA,,$0,1,Transient non-community system,,,,84 AUTO TRUCK GAS STATION,,03,,N,0,0,,,,,PA2640558,_____________,,,41.646589,County Centroid,0,,,,110051575292,,30000,WAYNE,-75.292485
,,,Y,PA,,$0,1,Non-Transient non-community system,,,,84 AUTO-TRUCK PLAZA,,03,,N,0,0,,,,,PA2640523,_____________,,,41.646589,County Centroid,0,,,,110051808683,,30000,WAYNE,-75.292485
,1,,Y,PA,,$0,1,Transient non-community system,,,,903 SCOOPS,,03,,Y,1,1,,,,,PA3130981,_____VVVVVVVV,,,40.917833,County Centroid,1,,7,,PA3130981,,30000,Carbon,-75.709428
,,,Y,PA,,$0,1,Transient non-community system,,,,940 PIZZERIA,,03,,N,0,1,,,,,PA3130304,VV___________,,,40.917833,County Centroid,0,,7,,110051659718,,30000,CARBON,-75.709428
,,,Y,PA,,$0,1,Non-Transient non-community system,,,,994 PENN BANK OPERATIONS CENT,,03,,Y,0,1,,,,,PA7220819,VVVVVVVVVVVVV,,,40.412565,County Centroid,1,,2,,110052742305,,30000,DAUPHIN,-76.792634
,,,Y,PA,,$0,1,Community water system,,42081,,A B C #2 MOBILE HOME PARK,,03,,Y,0,1,,,,,PA4410010,_VVVVVVVVVVVV,,,41.343624,County Centroid,1,LYCOMING COUNTY,6,,110010201316,,30000,LYCOMING,-77.055253
,,,Y,PA,,$0,1,Non-Transient non-community system,,,,A C VALLEY DEVELOPMENT CORP,,03,,Y,0,1,,,,,PA5101010,VVVVVV___VVSV,,,40.913834,County Centroid,1,,24,,110051860955,,30000,BUTLER,-79.91896
,,,Y,PA,,$0,1,Non-Transient non-community system,,,,A CHILDS FUTURE ELC,,03,,N,0,1,,,,,PA3390367,__________VV,,,40.614241,County Centroid,0,,6,,PA3390367,,30000,Lehigh,-75.590627
,,,Y,PA,,$0,1,Non-Transient non-community system,,,,A CLEAR ALTERNATIVE,,03,,N,0,1,,,,,PA9996585,_V__VV_______,,,40.904249,State Centroid,0,,4,,110063369019,,100000,,-77.828062
,,,Y,PA,,$0,1,Transient non-community system,,,,A OK MARKET,,03,,N,0,0,,,,,PA2451327,_____________,,,41.056233,County Centroid,0,,4,,110051812623,,30000,MONROE,-75.329037
,,,Y,PA,,$0,1,Transient non-community system,,,,A PLUS 2345,,03,,N,0,1,,,,,PA4550812,___________VV,,,40.755348,County Centroid,0,,3,,110051609185,,30000,SNYDER,-77.072954
,,,Y,PA,,$0,1,Non-Transient non-community system,,,,A STEP AHEAD,,03,,N,0,0,,,,,PA3540953,_____________,,,40.70369,County Centroid,0,,,,110051572883,,30000,SCHUYLKILL,-76.2178
,,,Y,PA,,$0,1,Transient non-community system,,,,A TASTE FOR SOMETHING MOORE,,03,,Y,0,1,,,,,PA5040323,________VVVVV,,,40.68414,County Centroid,1,,4,,110051854953,,30000,BEAVER,-80.350721
,,,Y,PA,,$0,1,Transient non-community system,,,,A TO Z LANDOWNERS,,03,,N,0,1,,,,,PA6200007,VV___V_______,,,40.904249,State Centroid,0,,3,,110048551526,,100000,,-77.828062
,,,Y,PA,,$0,1,Transient non-community system,,,,ABBOTTSTOWN PLAZA,,03,,N,0,0,,,,,PA7010984,_____________,,,39.869471,County Centroid,0,,,,110052604437,,30000,ADAMS,-77.21773
,,,Y,PA,,$0,1,Transient non-community system,,,,ABC MOBILEHOME PARK #3,,03,,N,0,0,,,,,PA4410309,_____________,,,40.904249,State Centroid,0,,,,110047133767,,100000,,-77.828062
,,,Y,PA,,$0,1,Community water system,,,,ABRAXAS ACADEMY,,03,,Y,0,1,,,,,PA3060127,VV____VV__VVV,,,40.413957,County Centroid,1,,4,,110047507676,,30000,BERKS,-75.92686
,,,Y,PA,,$0,1,Non-Transient non-community system,,,,ABRAXAS YOUTH AND FAMILY,,03,,N,0,1,,,,,PA6270005,___VV________,,,41.513304,County Centroid,0,,1,,110052858350,,30000,FOREST,-79.249705
42049,,,Y,PA,04120101,$0,1,Non-Transient non-community system,,42049,,ACCU SPEC ELECTRONICS LLC,16426,03,,N,0,0,CENTER OF A FACILITY OR STATION,MC KEAN,,,PA6250990,,3.455,041201010501,41.99843,ADDRESS MATCHING-HOUSE NUMBER,0,ERIE COUNTY,,16426,110046123306,8835 WALMER DR,30,ERIE,-80.15741
,,,Y,PA,,$0,1,Transient non-community system,,,,ACOPIAN CENTER,,03,,N,0,0,,,,,PA3540942,_____________,,,40.70369,County Centroid,0,,,,110051572669,,30000,SCHUYLKILL,-76.2178
,,,Y,PA,,$0,1,Transient non-community system,,,,ACORDS DAIRY QUEEN,,03,,N,0,1,,,,,PA5100442,VV___________,,,40.913834,County Centroid,0,,1,,110051746875,,30000,BUTLER,-79.91896
42071,,,Y,PA,02050306,$0,1,Community water system,,42071,,ACORN ACRES,,03,,N,0,1,ENTRANCE POINT OF A FACILITY OR STATION,,,,PA7360020,______VV_____,8.632,020503061106,40.07718,ADDRESS MATCHING-HOUSE NUMBER,0,LANCASTER COUNTY,1,17557,110010221349,,50,LANCASTER,-76.08063
,,,Y,PA,,$0,1,Transient non-community system,,,,ACORN ACRES CAMPGROUND,,03,,N,0,1,,,,,PA4190917,VVVVVVVV_____,,,41.045517,County Centroid,0,,,,110051742058,,30000,COLUMBIA,-76.40426
,,,Y,PA,,$0,1,Transient non-community system,,,,ACORN MARKET #  21,,03,,N,0,1,,,,,PA2590903,VVVV_________,,,41.766859,County Centroid,0,,,,110051728010,,30000,TIOGA,-77.257288
,,,Y,PA,,$0,1,Transient non-community system,,,,ACORN MARKET #30,,03,,N,0,1,,,,,PA2590895,VVVV_________,,,41.766859,County Centroid,0,,,,110051575096,,30000,TIOGA,-77.257288
42011,,,Y,PA,02040203,$0,1,Community water system,,42011,,ACORNS MHP,,03,,Y,0,1,ENTRANCE POINT OF A FACILITY OR STATION,,,,PA3060015,VVVSSVVVSSSSV,3.044,020402030503,40.35203,ADDRESS MATCHING-HOUSE NUMBER,1,BERKS COUNTY,14,19512,110000950052,,50,BERKS,-75.6959
,,,Y,PA,,$0,1,Non-Transient non-community system,,,,ACORNS TO OAKS DAY CARE,,03,,Y,0,1,,,,,PA2451184,VVVVVVVVVVVVV,,,41.056233,County Centroid,1,,10,,110051709576,,30000,MONROE,-75.329037
,,,Y,PA,,$0,1,Transient non-community system,,42115,,ACRE LAKE GENERAL STORE,18826,03,,N,0,1,,KINGSLEY,,,PA2580873,VVV__________,,,41.755966,Zip Code Centroid,0,SUSQUEHANNA COUNTY,11,,110010253199,RTE 106,10000,SUSQUEHANNA,-75.738822
,,,Y,PA,,$0,1,Transient non-community system,,,,ACTION IMPACT,,03,,N,0,1,,,,,PA3060985,_VV__________,,,40.413957,County Centroid,0,,10,,110051784299,,30000,BERKS,-75.92686
,,,Y,PA,,$0,1,Non-Transient non-community system,,,,ADAMS CNTY CHRISTIAN ACADEMY,,03,,N,0,0,,,,,PA7010964,_____________,,,39.869471,County Centroid,0,,,,110052666067,,30000,ADAMS,-77.21773
,,,Y,PA,,$0,1,Community water system,,,,ADAMS CNTY FAC CTR,,03,,N,0,1,,,,,PA7010056,VV______VVVVV,,,39.869471,County Centroid,0,,4,,110022501773,,30000,ADAMS,-77.21773
,,,Y,PA,,$0,1,Non-Transient non-community system,,,,ADAMS MFG CORP PLANT #1,,03,,N,0,1,,,,,PA5101049,VVVVVVV__VVV,,,40.913834,County Centroid,0,,16,,110063334967,,30000,BUTLER,-79.91896
,,,Y,PA,,$0,1,Non-Transient non-community system,,,,ADAMS MFG CORP PLANT 2,,03,,N,0,1,,,,,PA5101035,VVVVVV__VVVVV,,,40.913834,County Centroid,0,,24,,110063341174,,30000,BUTLER,-79.91896
,,,Y,PA,,$0,1,Transient non-community system,,,,ADAMS RESCUE MISSION,,03,,N,0,0,,,,,PA7010924,_____________,,,39.869471,County Centroid,0,,,,110052602689,,30000,ADAMS,-77.21773
,,,Y,PA,,$0,1,Community water system,,42109,,ADAMS TWP MUNICIPAL AUTHORITY,,03,,N,0,1,,,,,PA4550006,VVVVVV____V__,,,40.755348,County Centroid,0,SNYDER COUNTY,4,,110010190220,,30000,SNYDER,-77.072954
,,,Y,PA,,$0,1,Community water system,,42021,,ADAMS TWP WATER AUTH WATER SUPPLY,15952,03,,Y,0,1,,SALIX,,,PA4110033,V__________VV,,,40.303307,Zip Code Centroid,1,CAMBRIA COUNTY,5,,110010226512,PO BOX 89,10000,CAMBRIA,-78.77833
,,,Y,PA,,$0,1,Transient non-community system,,,,ADAMSTOWN ROD & GUN CLUB,,03,,N,0,1,,,,,PA7360488,_VV__VV______,,,40.041992,County Centroid,0,,7,,110052433274,,30000,LANCASTER,-76.250198
42071,,,Y,PA,02050306,$0,1,Community water system,,42071,,ADAMSTOWN STP,17517,03,,Y,0,1,CENTER OF A FACILITY OR STATION,DENVER,Y,,PA7360001,______V______,6.12,020503061101,40.22794,ADDRESS MATCHING-HOUSE NUMBER,1,LANCASTER COUNTY,1,17517,110025319091,235 E SWARTZVILLE RD,30,LANCASTER,-76.06702
,,,Y,PA,,$0,1,Community water system,,42111,,ADDISON AREA WATER AUTH,,03,,N,0,1,,,,,PA4560028,_VVVVSVV_____,,,39.981297,County Centroid,0,SOMERSET COUNTY,14,,110010193110,,30000,SOMERSET,-79.028486
,,,Y,PA,,$0,1,Transient non-community system,,,,ADESA AUTO EXCHANGE,,03,,N,0,0,,,,,PA7671188,_____________,,,39.921839,County Centroid,0,,,,110051889505,,30000,YORK,-76.728446
,,,Y,PA,,$0,1,Non-Transient non-community system,,,,ADESA FLEET LEASING,,03,,N,0,1,,,,,PA7670315,___VV________,,,39.921839,County Centroid,0,,2,,110050501328,,30000,YORK,-76.728446
,,,Y,PA,,$0,1,Non-Transient non-community system,,,,ADESA PITTSBURGH,,03,,N,0,1,,,,,PA6430824,_VVVVVV______,,,41.300014,County Centroid,0,,6,,110052780013,,30000,MERCER,-80.252786
42133,,12/22/2016,Y,PA,02050306,"$232,720",1,Non-Transient non-community system,,42133,"$116,360",ADHESIVES RESEARCH INC,17327,03,Y,Y,2,1,,GLEN ROCK,,2,PA7670910,,6.719,020503060602,39.8268,,1,YORK COUNTY,,17327,110000333103,400 SEAKS RUN RD,17466,YORK,-76.6928
,,,Y,PA,,$0,1,Non-Transient non-community system,,,,ADVANCED SCIENTIFICS INC,,03,,N,0,0,,,,,PA7220490,_____________,,,40.412565,County Centroid,0,,,,110052861060,,30000,DAUPHIN,-76.792634
,,,Y,PA,,$0,1,Transient non-community system,,,,ADVENTURE SPORTS IN HERSHEY,,03,,N,0,0,,,,,PA7220935,V____________,,,40.412565,County Centroid,0,,3,,110052797853,,30000,DAUPHIN,-76.792634
,,,Y,PA,,$0,1,Transient non-community system,,,,AGAPE FARM,,03,,Y,0,1,,,,,PA4310338,VVVVVV____VVV,,,40.422321,County Centroid,1,,6,,110051772792,,30000,HUNTINGDON,-77.968584
,,,Y,PA,,$0,1,Non-Transient non-community system,,,,AHLSTROM FILTRATION LLC,,03,,Y,0,1,,,,,PA7210344,_________VVVV,,,40.164782,County Centroid,1,,2,,110052686571,,30000,CUMBERLAND,-77.26344
42083,,,Y,PA,05010001,$0,1,Community water system,,42083,,AIKEN WTP,16732,03,,N,0,1,ENTRANCE POINT OF A FACILITY OR STATION,GIFFORD,,,PA6420010,VV__VVV______,1.076,050100010104,41.8639,ADDRESS MATCHING-HOUSE NUMBER,0,MCKEAN COUNTY,8,16732,110010243600,"1 AQUA DRIVE, P O BOX 208",50,MCKEAN,-78.59743
,,,Y,PA,,$0,1,Non-Transient non-community system,,,,AIR LIQUIDE,,03,,N,0,0,,,,,PA1090931,_____________,,,40.336887,County Centroid,0,,,,110051611546,,30000,BUCKS,-75.10706
,,,Y,PA,,$0,1,Non-Transient non-community system,,,,AIR LIQUIDE MEDICAL,,03,,N,0,1,,,,,PA1090928,____VVV______,,,40.336887,County Centroid,0,,3,,110051602333,,30000,BUCKS,-75.10706
,,,Y,PA,,$0,1,Non-Transient non-community system,,,,AIR PRODUCTS AND CHEMICALS INC,,03,,N,0,0,,,,,PA3540445,_____________,,,40.70369,County Centroid,0,,,,110051742682,,30000,SCHUYLKILL,-76.2178
,,,Y,PA,,$0,1,Transient non-community system,,,,AJS DAIRYLAND,,03,,N,0,1,,,,,PA6160830,_V________VV,,,41.198239,County Centroid,0,,2,,110052821979,,30000,CLARION,-79.420404
42071,,,Y,PA,02050306,$0,1,Community water system,,42071,,AKRON BOROUGH,,03,,N,0,1,CENTER OF A FACILITY OR STATION,,,,PA7360128,______VV_____,7.872,020503060904,40.15503,ADDRESS MATCHING-HOUSE NUMBER,0,LANCASTER COUNTY,2,17501,110000937005,,30,LANCASTER,-76.20586
,,,Y,PA,,$0,1,Transient non-community system,,,,AL S KWIK MART #120 PA0210,,03,,N,0,1,,,,,PA2350921,___V_________,,,41.44025,County Centroid,0,,3,,110051383971,,30000,LACKAWANNA,-75.609587
,,,Y,PA,,$0,1,Transient non-community system,,,,ALAHO PARK,,03,,N,0,1,,,,,PA6330808,V____VV______,,,41.130287,County Centroid,0,,9,,110052804667,,30000,JEFFERSON,-78.999044
42095,,,Y,PA,02040106,$0,1,Community water system,,42095,,ALAN MOBILE HOME PARK,,03,,N,0,1,CENTER OF A FACILITY OR STATION,,,,PA3480013,____VV_______,7.755,020401060808,40.72481,ADDRESS MATCHING-HOUSE NUMBER,0,NORTHAMPTON COUNTY,6,18014,110000957304,,30,NORTHAMPTON,-75.41862
,,,Y,PA,,$0,1,Transient non-community system,,,,ALASKA PETES,,03,,Y,0,1,,,,,PA2450951,_V________VVV,,,41.056233,County Centroid,1,,3,,110051828126,,30000,MONROE,-75.329037
,,,Y,PA,,$0,1,Transient non-community system,,,,ALBATROSS RESORT,,03,,N,0,1,,,,,PA2520391,SVVSVVVVVVVVV,,,41.325949,County Centroid,0,,16,,110051785920,,30000,PIKE,-75.031514
,,,Y,PA,,$0,1,Transient non-community system,,,,ALBERDEEN INN,,03,,N,0,1,,,,,PA2400343,_VV_______VVV,,,41.172787,County Centroid,0,,7,,110051665550,,30000,LUZERNE,-75.976035
,,,Y,PA,,$0,1,Community water system,,42051,,ALBERT GALLATIN MUNI AUTH,,03,,N,0,1,,,,,PA5260027,SSVVV_VV_____,,,39.914115,County Centroid,0,FAYETTE COUNTY,16,,110000955440,,30000,FAYETTE,-79.644586
42049,,,Y,PA,04120101,$0,1,Community water system,,42049,,ALBION - STP,16401,03,,Y,0,1,CENTER OF A FACILITY OR STATION,ALBION,,,PA6250007,VVVVVVVV_____,22.842,041201010604,41.89141,ADDRESS MATCHING-HOUSE NUMBER,1,ERIE COUNTY,16,16401,110000978210,15 SMOCK AVENUE,30,ERIE,-80.36506
,,,Y,PA,,$0,1,Transient non-community system,,,,ALBRIGHTSVILLE FIRE COMPANY,,03,,N,0,1,,,,,PA3130982,__VVVVVVVV___,,,40.917833,County Centroid,0,,19,,PA3130982,,30000,Carbon,-75.709428
42077,,,Y,PA,02040106,$0,1,Community water system,,42077,,ALBURTIS BORO WATER SYS,18011,03,,N,1,1,CENTER OF A FACILITY OR STATION,ALBURTIS,,,PA3390045,_________VV__,16.304,020401060702,40.50999,ADDRESS MATCHING-HOUSE NUMBER,0,LEHIGH COUNTY,1,18011,110000942428,260 FRANKLIN ST,30,LEHIGH,-75.60132
,,,Y,PA,,$0,1,Transient non-community system,,,,ALBURTIS ROD AND GUN CLUB,,03,,N,0,1,,,,,PA3390368,_V_VV________,,,40.614241,County Centroid,0,,9,,110051741335,,30000,LEHIGH,-75.590627
,1,,Y,PA,,$0,1,Transient non-community system,,,,ALCAMO PIZZERIA & RESTAURANT,,03,,N,2,1,,,,,PA1090312,_VVV_________,,,40.336887,County Centroid,0,,19,,110051522303,,30000,BUCKS,-75.10706
,,,Y,PA,,$0,1,Transient non-community system,,,,ALDENTES PIZZA,,03,,N,0,0,,,,,PA2640904,_____________,,,41.646589,County Centroid,0,,,,110051769118,,30000,WAYNE,-75.292485
42107,,,Y,PA,02050305,$0,1,Community water system,,42107,,ALDICK ASSOC INC,17963,03,,Y,0,1,CENTER OF A FACILITY OR STATION,PINE GROVE,,,PA3540062,VVVVVVVVVVVVV,3.012,020503050605,40.528621,INTERPOLATION-MAP,1,SCHUYLKILL COUNTY,27,17963,110010970627,101 SWATARA DRIVE,99999999,SCHUYLKILL,-76.422704
42003,,,Y,PA,05030101,$0,1,Community water system,,42003,,ALEPPO TWP AUTH,15143,03,,N,0,0,CENTER OF A FACILITY OR STATION,SEWICKLEY,,,PA5020070,_____________,11.372,050301010303,40.53186,ADDRESS MATCHING-HOUSE NUMBER,0,ALLEGHENY COUNTY,,15143,110010964812,100 NORTH DRIVE,30,ALLEGHENY,-80.13968
42043,,,Y,PA,02050301,$0,1,Community water system,,42043,,ALEX ACRES MHP,17032,03,,N,0,1,ENTRANCE POINT OF A FACILITY OR STATION,HALIFAX,,,PA7220007,_____________,3.479,020503011006,40.4943,ADDRESS MATCHING-HOUSE NUMBER,0,DAUPHIN COUNTY,3,17032,110010976088,DAWN RD,50,DAUPHIN,-76.93464
,,,Y,PA,,$0,1,Transient non-community system,,,,ALEXANDERS AT NEW JERUSELEM,,03,,N,0,1,,,,,PA3060312,_______VV____,,,40.413957,County Centroid,0,,3,,110051762865,,30000,BERKS,-75.92686
,,,Y,PA,,$0,1,Community water system,,42061,,ALEXANDRIA BORO WATER AUTH,,03,,N,0,0,,,,,PA4310021,V____________,,,40.422321,County Centroid,0,HUNTINGDON COUNTY,1,,110010214865,,30000,HUNTINGDON,-77.968584
,,,Y,PA,,$0,1,Transient non-community system,,,,ALEXS TAVERN,,03,,N,0,1,,,,,PA1460417,_VVVV_VVVV___,,,40.209999,County Centroid,0,,3,,110051845875,,30000,MONTGOMERY,-75.370201
42007,,08/22/2018,Y,PA,05030101,"$2,000",1,Community water system,,42007,"$2,000",ALIQUIPPA MUNI WATER AUTH,15001,03,Y,Y,2,1,CENTER OF A FACILITY OR STATION,ALIQUIPPA,Y,1,PA5040006,__V___VVV____,18.781,050301010309,40.62126,ADDRESS MATCHING-HOUSE NUMBER,1,BEAVER COUNTY,9,15001,110001090435,160 HOPEWELL AVE.,30,BEAVER,-80.24376
,,,Y,PA,,$0,1,Transient non-community system,,,,ALL SAINTS CAMP,,03,,Y,0,1,,,,,PA6610827,VVSSVVVVVVVVV,,,41.40198,County Centroid,1,,21,,110052866252,,30000,VENANGO,-79.754418
,,,Y,PA,,$0,1,Transient non-community system,,,,ALL SAINTS CATHOLIC CHURCH,,03,,N,0,1,,,,,PA6250996,_V___________,,,42.117952,County Centroid,0,,1,,110052641094,,30000,ERIE,-80.096386
,,,Y,PA,,$0,1,Transient non-community system,,,,ALL STAR CAFE,,03,,N,0,1,,,,,PA1461133,________VVVV,,,40.209999,County Centroid,0,,11,,110051594477,,30000,MONTGOMERY,-75.370201
,,,Y,PA,,$0,1,Transient non-community system,,,,ALLCORN PLAZA,,03,,N,0,1,,,,,PA2451380,_V___________,,,41.056233,County Centroid,0,,4,,110050499769,,30000,MONROE,-75.329037
,,,Y,PA,,$0,1,Transient non-community system,,,,ALLEGHENY COUNTRY RIFLE CLUB,,03,,N,0,1,,,,,PA5020832,__V_______VV,,,40.46892,County Centroid,0,,7,,110051814266,,30000,ALLEGHENY,-79.98092
,,,Y,PA,,$0,1,Non-Transient non-community system,,,,ALLEGHENY EAST CONF,,03,,Y,0,1,,,,,PA3060984,VVVVVVVVVVVVV,,,40.413957,County Centroid,1,,35,,110051784271,,30000,BERKS,-75.92686
42003,,02/09/2018,Y,PA,05010009,"$5,750",1,Transient non-community system,,42003,"$4,350",ALLEGHENY ENERGY SPRINGDALE POWER STATION,15144,03,Y,N,2,1,CENTER OF A FACILITY OR STATION,SPRINGDALE,,2,PA5020068 PA5020807,,12.316,050100090304,40.54417,INTERPOLATION-PHOTO,0,ALLEGHENY COUNTY,,15144,110001103010,198 BUTLER ST EXT,10,ALLEGHENY,-79.76722
42005,,03/28/2013,Y,PA,05010006,$0,1,Non-Transient non-community system,,42005,"$1,000",ALLEGHENY ENERGY SUPPLY  - ARMSTRONG POWER STATION,16210,03,Y,N,0,1,POINT WHERE SUBSTANCE IS RELEASED,ADRIAN,,,PA5030815,,1.37,050100061105,40.9294,INTERPOLATION-MAP,0,ARMSTRONG COUNTY,,16210,110000583618,STATE ROUTE 4006,50,ARMSTRONG,-79.4671
,,,Y,PA,,$0,1,Transient non-community system,,,,ALLEGHENY EVAN LUTH CH,,03,,Y,0,1,,,,,PA3061101,_V____VVVVVVV,,,40.413957,County Centroid,1,,6,,110051827779,,30000,BERKS,-75.92686
,,,Y,PA,,$0,1,Transient non-community system,,,,ALLEGHENY HIGHLANDS EASTSYSTEM,,03,,N,0,1,,,,,PA6420832,__VVVVVV_____,,,41.81459,County Centroid,0,,10,,110052768974,,30000,MCKEAN,-78.572463
,,,Y,PA,,$0,1,Transient non-community system,,,,ALLEGHENY HIGLANDS WEST SYSTEM,,03,,N,0,1,,,,,PA6420324,__VVVVVV_____,,,41.81459,County Centroid,0,,6,,110052679712,,30000,MCKEAN,-78.572463
,,,Y,PA,,$0,1,Transient non-community system,,,,ALLEGHENY RIVER CAMPGROUND,,03,,N,0,1,,,,,PA6530827,VVVV___V_____,,,41.748222,County Centroid,0,,3,,110052707567,,30000,POTTER,-77.894735
,1,,Y,PA,,$0,1,Non-Transient non-community system,,,,ALLENBERRY RESORT,,03,,N,2,1,,,,,PA7210323,_VVV_VV___VV,,,40.164782,County Centroid,0,,11,,110052775136,,30000,CUMBERLAND,-77.26344
,,,Y,PA,,$0,1,Transient non-community system,,,,ALLENS EATERY,,03,,Y,0,1,,,,,PA7671121,VVVVVVVVVVVVV,,,39.921839,County Centroid,1,,5,,110052652688,,30000,YORK,-76.728446
42087,,,Y,PA,02050304,$0,1,Community water system,,42087,,ALLENSVILLE WATER SYSTEMS,17002,03,,Y,0,1,CENTER OF A FACILITY OR STATION,ALLENSVILLE,,,PA4440008,VVVVVVVVVVVVV,1.479,020503040101,40.53641,ADDRESS MATCHING-HOUSE NUMBER,1,MIFFLIN COUNTY,18,17002,110001106918,65 WATER STREET,30,MIFFLIN,-77.81927
42077,,,Y,PA,02040106,$0,1,Community water system,,42077,,ALLENTOWN CITY WATER SYS,18102,03,,N,0,1,ENTRANCE POINT OF A FACILITY OR STATION,ALLENTOWN,,,PA3390024,_VV__________,50.36,020401060703,40.594654,ADDRESS MATCHING-HOUSE NUMBER,0,LEHIGH COUNTY,6,18102,110000950141,1300 MARTIN LUTHER KING JR DRIVE,50,LEHIGH,-75.481487
,,,Y,PA,,$0,1,Transient non-community system,,,,ALLENTOWN LEHIGH VALLEY KOA,,03,,N,0,1,,,,,PA3390312,_VVV__VVV____,,,40.614241,County Centroid,0,,12,,110051840834,,30000,LEHIGH,-75.590627
42081,,,Y,PA,02050206,$0,1,Community water system,,42081,,ALLENWOOD FED PRISON CAMP,17752,03,,N,0,0,,MONTGOMERY,,,PA4410163,,4.545,020502061202,41.17,,0,LYCOMING COUNTY,,17752,110006366388,17752 ALLENWOOD CAMP LANE,17466,LYCOMING,-76.876667
42007,,,Y,PA,05030101,$0,1,Non-Transient non-community system,,42007,,ALLIANCE TUBULAR HOLDINGS LLC,16115,03,,N,0,0,CENTER OF A FACILITY OR STATION,DARLINGTON,,,PA5040851,V____________,2.128,050301010607,40.79878,ADDRESS MATCHING-HOUSE NUMBER,0,BEAVER COUNTY,5,16115,110000818009,305 CANNELTON ROAD,30,BEAVER,-80.46125
,,,Y,PA,,$0,1,Non-Transient non-community system,,,,ALLIED SERVICES CORPORATE CTR,,03,,N,0,1,,,,,PA2350404,VVV_______VV,,,41.44025,County Centroid,0,,16,,110051579314,,30000,LACKAWANNA,-75.609587
,,,Y,PA,,$0,1,Transient non-community system,,,,ALMOST HEAVEN CAMPGROUND,,03,,Y,0,1,,,,,PA2570337,VVVSSSVVVVVSV,,,41.43979,County Centroid,1,,14,,110051756186,,30000,SULLIVAN,-76.511525
,,,Y,PA,,$0,1,Non-Transient non-community system,,,,ALMOST HOME CHILDRENS CENTER,,03,,N,0,0,,,,,PA3061095,_____________,,,40.413957,County Centroid,0,,3,,110051827653,,30000,BERKS,-75.92686
,,,Y,PA,,$0,1,Transient non-community system,,,,ALPARON COMMUNITY PARK,,03,,N,0,1,,,,,PA2080385,VVVV___VV____,,,41.791495,County Centroid,0,,9,,110051760732,,30000,BRADFORD,-76.502124
42133,1,,Y,PA,02050305,$0,1,Transient non-community system,,42133,,ALPINE INN & MOTEL,17339,03,,N,2,1,CENTER OF A FACILITY OR STATION,LEWISBERRY,,,PA7670869,VVVVVVV__VVV,6.203,020503051009,40.16086,ADDRESS MATCHING-HOUSE NUMBER,0,YORK COUNTY,18,17339,110000977907,691 YORKTOWN RD,30,YORK,-76.82607
,,,Y,PA,,$0,1,Transient non-community system,,,,ALPINE MEADOWS LAKE CAMPGROUND,,03,,N,0,0,,,,,PA2080809,_____________,,,41.791495,County Centroid,0,,,,110051851046,,30000,BRADFORD,-76.502124
,,,Y,PA,,$0,1,Transient non-community system,,,,ALPINE PLAZA,,03,,N,0,1,,,,,PA2640444,_VV_VVVVV____,,,41.646589,County Centroid,0,,11,,110051766629,,30000,WAYNE,-75.292485
,,,Y,PA,,$0,1,Transient non-community system,,,,ALPINE TAVERN,,03,,Y,0,1,,,,,PA2520393,_V__VVVVVVVVV,,,41.325949,County Centroid,1,,10,,110051831489,,30000,PIKE,-75.031514
,,,Y,PA,,$0,1,Transient non-community system,,,,ALS ACRES DEVELOPMENT ASSOC,,03,,Y,0,1,,,,,PA2520802,_VV__VVVVVVSV,,,41.325949,County Centroid,1,,7,,110051815210,,30000,PIKE,-75.031514
,,,Y,PA,,$0,1,Transient non-community system,,,,ALS MELONS CONNEAUT LAKE,,03,,N,0,1,,,,,PA6201200,VV___VV______,,,41.68684,County Centroid,0,,5,,110052717084,,30000,CRAWFORD,-80.107811
,,,Y,PA,,$0,1,Transient non-community system,,,,ALSACE MANOR FIRE CO,,03,,N,0,1,,,,,PA3060369,_V___________,,,40.413957,County Centroid,0,,1,,110051721348,,30000,BERKS,-75.92686
42013,,04/04/2011,Y,PA,02050302,$0,1,Community water system,,42013,"$16,250",ALTOONA C A / BELLWOOD WS,16602,03,,Y,0,1,ENTRANCE POINT OF A FACILITY OR STATION,ALTOONA,,,PA4070023,VVVVVVVVVVVVV,7.017,020503020502,40.534129,ADDRESS MATCHING-HOUSE NUMBER,1,BLAIR COUNTY,9,16602,110000926375,20 GREENWOOD RD,50,BLAIR,-78.37466
,,,Y,PA,,$0,1,Transient non-community system,,,,ALVIN E LONG POST 504,,03,,N,0,1,,,,,PA4490365,___VVVV______,,,40.851524,County Centroid,0,,13,,110051617693,,30000,NORTHUMBERLAND,-76.709877
,,,Y,PA,,$0,1,Transient non-community system,,,,AMADEOS,,03,,N,0,1,,,,,PA2451163,____VV_SVVVVV,,,41.056233,County Centroid,0,,15,,110051777902,,30000,MONROE,-75.329037
,,,Y,PA,,$0,1,Transient non-community system,,,,AMATOS PIZZA,,03,,N,0,1,,,,,PA3061167,_V____VV___V,,,40.413957,County Centroid,0,,5,,110051711983,,30000,BERKS,-75.92686
,,,Y,PA,,$0,1,Transient non-community system,,,,AMATOS PIZZA,,03,,N,0,1,,,,,PA4550823,_VVV_________,,,40.755348,County Centroid,0,,1,,110051618282,,30000,SNYDER,-77.072954
,,,Y,PA,,$0,1,Transient non-community system,,,,AMBASSADORS FOR CHRIST,,03,,N,0,1,,,,,PA7360800,_____VVVVV___,,,40.041992,County Centroid,0,,19,,110052523257,,30000,LANCASTER,-76.250198
42133,,,Y,PA,02050306,$0,1,"Transient non-community system, Community water system",,42133,,AMBER HILL MHP,17370,03,,N,0,1,ENTRANCE POINT OF A FACILITY OR STATION,YORK HAVEN,,,PA7670125 PA7670868,VV_VV____VVV,5.341,020503060504,40.128538,ADDRESS MATCHING-HOUSE NUMBER,0,YORK COUNTY,15,17370,110051896613,2440 OLD SUSQUEHANNA TRL,50,YORK,-76.789144
42133,,,Y,PA,02050306,$0,1,Transient non-community system,,42133,,AMBER LIGHT INN,17314,03,,N,0,1,ENTRANCE POINT OF A FACILITY OR STATION,DELTA,,,PA7671343,_V_______VV__,4.028,020503061304,39.756951,ADDRESS MATCHING-HOUSE NUMBER,0,YORK COUNTY,9,17314,110000977890,517 AUBEL RD,50,YORK,-76.378539
42091,,05/08/2015,Y,PA,02040203,"$2,873",1,Community water system,,42091,"$2,873",AMBLER BORO MS4 UA,19002,03,Y,Y,1,1,CENTER OF A FACILITY OR STATION,AMBLER,Y,1,PA1460020,VVVVVVV_VVVVV,17.403,020402030901,40.15504,ADDRESS MATCHING-HOUSE NUMBER,1,MONTGOMERY COUNTY,19,19002,110000942623,122 EAST BUTLER AVENUE,30,MONTGOMERY,-75.22074
,,,Y,PA,,$0,1,Community water system,,42007,,AMBRIDGE WATER AUTH,,03,,Y,0,1,,,,,PA5040008,__VVVVV____VV,,,40.68414,County Centroid,1,BEAVER COUNTY,9,,110002445925,,30000,BEAVER,-80.350721
42079,,08/22/2008,Y,PA,02050107,$0,1,Non-Transient non-community system,,42079,"$1,400",AMER ASPHALT CHASE QUARRY,18708,03,,N,0,0,ENTRANCE POINT OF A FACILITY OR STATION,SHAVERTOWN,,,PA2400474,,5.143,020501070203,41.29131,GPS CODE (PSEUDO RANGE) DIFFERENTIAL,0,LUZERNE COUNTY,,18708,110010242665,500 CHASE ROAD,5,LUZERNE,-75.95558
,,,Y,PA,,$0,1,Transient non-community system,,,,AMER HOUSE OF FRITZTOWN,,03,,N,0,0,,,,,PA3061055,_____________,,,40.413957,County Centroid,0,,,,110051910429,,30000,BERKS,-75.92686
,,,Y,PA,,$0,1,Transient non-community system,,,,AMER HUNGARIAN SPORTS CLUB,,03,,N,0,0,,,,,PA3060836,_____________,,,40.413957,County Centroid,0,,3,,110051766923,,30000,BERKS,-75.92686
,,,Y,PA,,$0,1,Transient non-community system,,,,AMER LEGION 910,,03,,N,0,0,,,,,PA7381058,_____________,,,40.904249,State Centroid,0,,,,110052684350,,100000,,-77.828062
,,,Y,PA,,$0,1,Transient non-community system,,,,AMER LEGION MTN POST 781,,03,,N,0,1,,,,,PA2400351,_V___________,,,41.172787,County Centroid,0,,10,,110051665649,,30000,LUZERNE,-75.976035
,,,Y,PA,,$0,1,Transient non-community system,,,,AMER LEGION POST 177,,03,,N,0,1,,,,,PA7500326,_VVV_____VVV,,,40.39778,County Centroid,0,,3,,110052479894,,30000,PERRY,-77.266328
,,,Y,PA,,$0,1,Transient non-community system,,,,AMER LEGION POST 243,,03,,N,0,1,,,,,PA5100894,_VV__________,,,40.913834,County Centroid,0,,6,,110051717834,,30000,BUTLER,-79.91896
,,,Y,PA,,$0,1,Transient non-community system,,,,AMER LEGION POST 272,,03,,N,0,1,,,,,PA7220424,______VV_____,,,40.412565,County Centroid,0,,4,,110052687384,,30000,DAUPHIN,-76.792634
42107,,,Y,PA,02040203,$0,1,Non-Transient non-community system,,42107,,AMERICAN ARGO CORP,17972,03,,N,0,0,ENTRANCE POINT OF A FACILITY OR STATION,SCHUYLKILL HAVEN,,,PA3540414,,5.904,020402030207,40.62937,ADDRESS MATCHING-NEAREST INTERSECTION,0,SCHUYLKILL COUNTY,,17972,110007753680,MARKET & MARGARETTA STS,100,SCHUYLKILL,-76.16759
,,,Y,PA,,$0,1,Transient non-community system,,,,AMERICAN HOTEL (KRESGEVILLE),,03,,N,0,1,,,,,PA2450382,_V___________,,,41.056233,County Centroid,0,,,,110051765381,,30000,MONROE,-75.329037
,,,Y,PA,,$0,1,Non-Transient non-community system,,,,AMERICAN I FOR P&L UNDERWRITER,,03,,N,0,1,,,,,PA1150809,___VVVVVVVV__,,,39.973965,County Centroid,0,,8,,110051661000,,30000,CHESTER,-75.749732
,,,Y,PA,,$0,1,Transient non-community system,,,,AMERICAN LEGION POST #510,,03,,N,0,1,,,,,PA2660838,_VV___V______,,,41.525137,County Centroid,0,,10,,110051842486,,30000,WYOMING,-76.00878
,,,Y,PA,,$0,1,Transient non-community system,,,,AMERICAN LEGION POST 257,,03,,N,0,1,,,,,PA4560355,_V___V_______,,,39.981297,County Centroid,0,,4,,110051858833,,30000,SOMERSET,-79.028486
,,,Y,PA,,$0,1,Transient non-community system,,,,AMERICAN LEGION POST 274,,03,,N,0,1,,,,,PA2640547,_VV__________,,,41.646589,County Centroid,0,,5,,110051575229,,30000,WAYNE,-75.292485
,,,Y,PA,,$0,1,Transient non-community system,,,,AMERICAN LEGION POST 495,,03,,N,0,1,,,,,PA2400393,VV___________,,,41.172787,County Centroid,0,,12,,110051646377,,30000,LUZERNE,-75.976035
,,,Y,PA,,$0,1,Transient non-community system,,,,AMERICAN LEGION POST 512,,03,,N,0,0,,,,,PA5040398,_____________,,,40.68414,County Centroid,0,,,,110051856354,,30000,BEAVER,-80.350721
,,,Y,PA,,$0,1,Transient non-community system,,,,AMERICAN LEGION POST 537,,03,,N,0,1,,,,,PA3060403,_VVVVVV_VV___,,,40.413957,County Centroid,0,,18,,110051758040,,30000,BERKS,-75.92686
,,,Y,PA,,$0,1,Transient non-community system,,,,AMERICAN LEGION POST 606,,03,,N,0,0,,,,,PA7280898,_____________,,,39.926686,County Centroid,0,,,,110052735643,,30000,FRANKLIN,-77.724485
,,,Y,PA,,$0,1,Transient non-community system,,,,AMERICAN LEGION POST 683,,03,,N,0,1,,,,,PA5100425,_______V_____,,,40.913834,County Centroid,0,,1,,110051796963,,30000,BUTLER,-79.91896
,1,,Y,PA,,$0,1,Transient non-community system,,,,AMERICAN LEGION POST 907,,03,,N,2,1,,,,,PA5630429,VVVVSSSSSSVV,,,40.200005,County Centroid,0,,44,,110052747435,,30000,WASHINGTON,-80.252132
,,,Y,PA,,$0,1,Transient non-community system,,,,AMERICAN LEGION POST 919,,03,,N,0,1,,,,,PA6431061,VVVVVVVVV_VV,,,41.300014,County Centroid,0,,20,,110052631014,,30000,MERCER,-80.252786
,1,,Y,PA,,$0,1,Transient non-community system,,,,AMERICAN LEGION POST 927,,03,,N,2,1,,,,,PA2450353,_VV__________,,,41.056233,County Centroid,0,,6,,110051573392,,30000,MONROE,-75.329037
,,,Y,PA,,$0,1,Community water system,,42081,,AMERICAN MODERN HOMES,,03,,Y,0,1,,,,,PA2080013,VVVVVVVVVVVVV,,,41.343624,County Centroid,1,LYCOMING COUNTY,1,,110010195289,,30000,BRADFORD,-77.055253
42081,,,Y,PA,02050206,$0,1,Community water system,,42081,,AMERICAN TEMPO VILLAGE PARK,,03,,N,0,0,ENTRANCE POINT OF A FACILITY OR STATION,,,,PA4410002,_____________,2.72,020502060208,41.327053,ADDRESS MATCHING-HOUSE NUMBER,0,LYCOMING COUNTY,,17728,110000947101,,50,LYCOMING,-77.087226
,,,Y,PA,,$0,1,Transient non-community system,,,,AMERICANA DINER,,03,,N,0,1,,,,,PA3060566,VV___________,,,40.413957,County Centroid,0,,4,,110051745698,,30000,BERKS,-75.92686
,,,Y,PA,,$0,1,Transient non-community system,,,,AMERICAS BEST VALUE INN,,03,,N,0,1,,,,,PA6250392,VV___________,,,42.117952,County Centroid,0,,10,,110052845597,,30000,ERIE,-80.096386
42069,,,Y,PA,02040106,$0,1,Non-Transient non-community system,,42069,,AMERICOLD,18424,03,,N,0,1,CENTER OF FACILITY,GOULDSBORO,,,PA2350320,VVVVVVVVVVVV,7.706,020401060201,41.264808,INTERPOLATION-PHOTO,0,LACKAWANNA COUNTY,5,18424,110027254959,91 1ST AVE,64238,LACKAWANNA,-75.499291
,1,,Y,PA,,$0,1,Transient non-community system,,42039,,AMERLEGION POST 381 JOHN S MCD,16403,03,,N,2,1,,CAMBRIDGE SPRINGS,,,PA6201198,_VV__VVV_VV__,,,41.866752,Zip Code Centroid,0,CRAWFORD COUNTY,14,,110052717057,24642 HIGHWAY 408,10000,CRAWFORD,-80.035032
,,,Y,PA,,$0,1,Non-Transient non-community system,,,,AMES REESE INC,,03,,N,0,1,,,,,PA7361114,___V_VVVV____,,,40.041992,County Centroid,0,,9,,110050501122,,30000,LANCASTER,-76.250198
,,,Y,PA,,$0,1,Community water system,,,,AMES TRAILER COURT,,03,,N,0,0,,,,,PA6200054,_____________,,,41.68684,County Centroid,0,,1,,110048351029,,30000,CRAWFORD,-80.107811
,,,Y,PA,,$0,1,Non-Transient non-community system,,,,AMFIRE BARRETT MINE,,03,,N,0,1,,,,,PA5320382,VVV__________,,,40.651432,County Centroid,0,,1,,110052740352,,30000,INDIANA,-79.087545
,,,Y,PA,,$0,1,Transient non-community system,,,,AMICIS PIZZA,,03,,Y,0,1,,,,,PA7671040,_VVVVVVVVVVVV,,,39.921839,County Centroid,1,,8,,110052551172,,30000,YORK,-76.728446
,,,Y,PA,,$0,1,Transient non-community system,,,,AMISH COUNTRY MOTEL,,03,,N,0,1,,,,,PA7361051,_V______VV___,,,40.041992,County Centroid,0,,7,,110052441149,,30000,LANCASTER,-76.250198
,,,Y,PA,,$0,1,Transient non-community system,,,,AMISH RESTAURANT AND BAKERY,,03,,N,0,0,,,,,PA6330854,_____________,,,41.130287,County Centroid,0,,,,110052889727,,30000,JEFFERSON,-78.999044
,,,Y,PA,,$0,1,Transient non-community system,,,,AMITY AC SWIMMING POOL,,03,,N,0,1,,,,,PA3060321,_V___________,,,40.413957,County Centroid,0,,1,,110051568317,,30000,BERKS,-75.92686
,,,Y,PA,,$0,1,Transient non-community system,,,,AMITY FIRE COMPANY,,03,,N,0,1,,,,,PA3060377,_VVV_________,,,40.413957,County Centroid,0,,5,,110051721482,,30000,BERKS,-75.92686
,,,Y,PA,,$0,1,Transient non-community system,,,,AMR TRADING CORP,,03,,N,0,1,,,,,PA3061010,_VV__________,,,40.413957,County Centroid,0,,2,,110051756603,,30000,BERKS,-75.92686
,,,Y,PA,,$0,1,Transient non-community system,,,,AMVETS POST 172,,03,,Y,0,1,,,,,PA7010384,________VVVVV,,,39.869471,County Centroid,1,,2,,110052626850,,30000,ADAMS,-77.21773
,,,Y,PA,,$0,1,Transient non-community system,,,,AMVETS POST 50,,03,,N,0,0,,,,,PA6620848,_____________,,,41.843669,County Centroid,0,,,,110052613677,,30000,WARREN,-79.313173
,,,Y,PA,,$0,1,Transient non-community system,,,,AMWELL TOWNSHIP PARK,,03,,Y,0,1,,,,,PA5630440,VVVVVVVVVVVVV,,,40.200005,County Centroid,1,,12,,110052747658,,30000,WASHINGTON,-80.252132
,,,Y,PA,,$0,1,Non-Transient non-community system,,,,AMY PYSHERS CHILDCARE,,03,,N,0,0,,,,,PA3480903,_____________,,,40.752791,County Centroid,0,,,,PA3480903,,30000,Northampton,-75.307447
,,,Y,PA,,$0,1,Transient non-community system,,,,AMYS COFFEE CONNECTION,,03,,N,0,1,,,,,PA3480945,_VV__________,,,40.752791,County Centroid,0,,6,,110051554037,,30000,NORTHAMPTON,-75.307447
,,,Y,PA,,$0,1,Non-Transient non-community system,,,,ANCHOR CROSSING SHOPPING CTR,,03,,N,0,1,,,,,PA1091085,VVVV_________,,,40.336887,County Centroid,0,,1,,110051522633,,30000,BUCKS,-75.10706
42001,,,Y,PA,02070009,$0,1,Community water system,,42001,,ANCHOR EST MHP,17325,03,,N,0,0,CENTER OF A FACILITY OR STATION,GETTYSBURG,,,PA7010017,_____________,11.533,020700090203,39.88997,ADDRESS MATCHING-HOUSE NUMBER,0,ADAMS COUNTY,3,17325,110000942491,2215 BIGLERVILLE RD,30,ADAMS,-77.24572
,,,Y,PA,,$0,1,Transient non-community system,,,,ANDREAS SPORTING CLUB,,03,,N,0,1,,,,,PA3540330,_VV__________,,,40.70369,County Centroid,0,,2,,110051699925,,30000,SCHUYLKILL,-76.2178
,,,Y,PA,,$0,1,Transient non-community system,,,,ANDRES PIZZA,,03,,N,0,1,,,,,PA1150538,VVV__VV______,,,39.973965,County Centroid,0,,5,,110051777234,,30000,CHESTER,-75.749732
,,,Y,PA,,$0,1,Transient non-community system,,,,ANDY PEPPERS,,03,,N,0,0,,,,,PA3061050,_____________,,,40.413957,County Centroid,0,,,,110051910330,,30000,BERKS,-75.92686
,,,Y,PA,,$0,1,Transient non-community system,,,,ANDYS MKT,,03,,N,0,1,,,,,PA5320867,VVVVVVVVVVVVV,,,40.651432,County Centroid,0,,5,,110052810375,,30000,INDIANA,-79.087545
,,,Y,PA,,$0,1,Transient non-community system,,,,ANGELLS DAIRY BAR,,03,,Y,0,1,,,,,PA2640453,_VVVVVVVVVVVV,,,41.646589,County Centroid,1,,4,,110051857451,,30000,WAYNE,-75.292485
,,,Y,PA,,$0,1,Transient non-community system,,,,ANGIES TRAIL DINER,,03,,Y,0,1,,,,,PA7500333,VVVVVVVVVVVVV,,,40.39778,County Centroid,1,,17,,110052480123,,30000,PERRY,-77.266328
,,,Y,PA,,$0,1,Transient non-community system,,,,ANGLERS REST CAMPGROUND,,03,,N,0,0,,,,,PA6610881,_____________,,,41.40198,County Centroid,0,,,,PA6610881,,30000,Venango,-79.754418
,,,Y,PA,,$0,1,Transient non-community system,,,,ANGUS INN,,03,,N,0,0,,,,,PA4410879,_____________,,,41.343624,County Centroid,0,,2,,110051659317,,30000,LYCOMING,-77.055253
,,,Y,PA,,$0,1,Non-Transient non-community system,,,,ANIMAL CARE SANCTUARY,,03,,N,0,1,,,,,PA2080353,VVVVVVVVVVVV,,,41.791495,County Centroid,0,,13,,110051367212,,30000,BRADFORD,-76.502124
42007,,,Y,PA,05030101,$0,1,Community water system,,42007,,ANKROM ACRES MHP,,03,,Y,0,1,ENTRANCE POINT OF A FACILITY OR STATION,,,,PA5040018,VVVVVVV__VVVV,2.243,050301010204,40.5024,ADDRESS MATCHING-NEAREST INTERSECTION,1,BEAVER COUNTY,29,15026,110001107196,,100,BEAVER,-80.33935
,,,Y,PA,,$0,1,Transient non-community system,,,,ANNANDALE COUNTRY STATION,,03,,N,0,1,,,,,PA5100884,_V___________,,,40.913834,County Centroid,0,,1,,110051728270,,30000,BUTLER,-79.91896
,,,Y,PA,,$0,1,Non-Transient non-community system,,,,ANNE MCLAUGHLINS CHILD CARE,,03,,N,0,1,,,,,PA2400463,VVV__________,,,41.172787,County Centroid,0,,5,,110051648133,,30000,LUZERNE,-75.976035
,,,Y,PA,,$0,1,Transient non-community system,,,,ANSONIA VALLEY INN,,03,,N,0,1,,,,,PA2590854,VVVV_________,,,41.766859,County Centroid,0,,,,110051744029,,30000,TIOGA,-77.257288
,,,Y,PA,,$0,1,Community water system,,,,ANSONVILLE WATER AUTHORITY,,03,,N,0,1,,,,,PA6170003,_VVVVV_______,,,41.000249,County Centroid,0,,3,,110010256374,,30000,CLEARFIELD,-78.473749
,,,Y,PA,,$0,1,Transient non-community system,,,,ANTHONYS RESTAURANT,,03,,N,0,0,,,,,PA2580403,_____________,,,41.819665,County Centroid,0,,,,110051847061,,30000,SUSQUEHANNA,-75.800969
,,,Y,PA,,$0,1,Transient non-community system,,,,ANTIOCHIAN VILLAGE,,03,,N,0,1,,,,,PA5650425,__VV_________,,,40.311068,County Centroid,0,,8,,110052736759,,30000,WESTMORELAND,-79.466688
,,,Y,PA,,$0,1,Transient non-community system,,04003,,ANTOLS DRIVE IN,18801,03,,Y,0,1,,MONTROSE,,,PA2580363 PA2580510,_VVVVVVVVVVVV,,,41.837281,Zip Code Centroid,1,COCHISE COUNTY,7,,110036952704,ROUTE 29,10000,SUSQUEHANNA,-75.861888
,,,Y,PA,,$0,1,Transient non-community system,,,,ANTONIOS,,03,,N,0,0,,,,,PA6200912,V____________,,,41.68684,County Centroid,0,,3,,110052866779,,30000,CRAWFORD,-80.107811
,,,Y,PA,,$0,1,Transient non-community system,,,,ANTONIOS PIZZA,,03,,N,0,1,,,,,PA7670927,VV__V__VV___V,,,39.921839,County Centroid,0,,5,,110052513222,,30000,YORK,-76.728446
,,,Y,PA,,$0,1,Transient non-community system,,,,ANTRIM BIC CHURCH,,03,,N,0,1,,,,,PA7280935,______V______,,,39.926686,County Centroid,0,,1,,110052760598,,30000,FRANKLIN,-77.724485
,,,Y,PA,,$0,1,Community water system,,42055,,ANTRIM TOWNSHIP MUNICIPAL AUTHORITY,17225,03,,N,0,1,,GREENCASTLE,,,PA7280063,___________VV,,,39.79954,Zip Code Centroid,0,FRANKLIN COUNTY,4,,110016620389,PO BOX 130,10000,FRANKLIN,-77.729372
,,,Y,PA,,$0,1,Transient non-community system,,,,ANTRIM TOWNSHIP PARK,,03,,N,0,1,,,,,PA7280958,____VVVVVV___,,,39.926686,County Centroid,0,,1,,110052768812,,30000,FRANKLIN,-77.724485
,,,Y,PA,,$0,1,Non-Transient non-community system,,,,API TECHNOLOGIES CORP,,03,,N,0,1,,,,,PA6250825,_____VV___V__,,,42.117952,County Centroid,0,,7,,110052879346,,30000,ERIE,-80.096386
,,,Y,PA,,$0,1,Transient non-community system,,,,APPALACHIAN CAMPSITES,,03,,N,0,1,,,,,PA3060452,_VV__VV______,,,40.413957,County Centroid,0,,6,,110051842583,,30000,BERKS,-75.92686
,,,Y,PA,,$0,1,Community water system,,42035,,APPALACHIAN UTILITIES WATER SYS,17779,03,,N,0,1,,WOOLRICH,,,PA4180067,VVVV_____VVV,,,41.19396,Zip Code Centroid,0,CLINTON COUNTY,,,110010216275,OLD WOOLRICH STORE BLDG.,10000,CLINTON,-77.299924
,,,Y,PA,,$0,1,Non-Transient non-community system,,,,APPEELING FRUIT,,03,,N,0,1,,,,,PA3061227,_V_______VV__,,,40.413957,County Centroid,0,,4,,110063351117,,30000,BERKS,-75.92686
,,,Y,PA,,$0,1,Transient non-community system,,42001,,APPLE BIN GRILL & BAKERY,17307,03,,N,0,0,,BIGLERVILLE,,,PA7010936,_____________,,,39.999517,Zip Code Centroid,0,ADAMS COUNTY,,,110049938608,PO BOX 515,10000,ADAMS,-77.408758
,,,Y,PA,,$0,1,Community water system,,42011,,APPLE BLOSSOM LANE MHP,19543,03,,N,0,0,,MORGANTOWN,,,PA4070050,_____________,,,40.175156,Zip Code Centroid,0,BERKS COUNTY,1,,110052883634,P.O. BOX 677,10000,BERKS,-75.868354
,,,Y,PA,,$0,1,Transient non-community system,,,,APPLE TREE HOUSE,,03,,N,0,1,,,,,PA2400449,_VV__________,,,41.172787,County Centroid,0,,1,,110051647866,,30000,LUZERNE,-75.976035
42001,,,Y,PA,02050306,$0,1,Transient non-community system,,42001,,APPLE VALLEY CREAMERY,17316,03,,N,0,1,CENTER OF A FACILITY OR STATION,EAST BERLIN,,,PA7011000,__V______VV__,4.254,020503060303,39.96705,ADDRESS MATCHING-HOUSE NUMBER,0,ADAMS COUNTY,8,17316,110063548834,541 GERMANY RD,30,ADAMS,-77.05191
,,,Y,PA,,$0,1,Community water system,,42029,,APPLEVILLE MOBILE HOME PARK,19365,03,,N,0,1,,PARKESBURG,,,PA1150094,________VV_VV,,,39.967426,Zip Code Centroid,0,CHESTER COUNTY,7,,110048982026,3982 WEST LINCOLN HIGHWAY,10000,CHESTER,-75.921257
42013,,12/14/2017,Y,PA,02050302,"$11,241",1,Non-Transient non-community system,,42013,"$1,077",APPVION INC,16673,03,Y,Y,3,1,CENTER OF FACILITY,ROARING SPRING,Y,3,PA4070803,,1.943,020503020104,40.33873,INTERPOLATION-PHOTO,1,BLAIR COUNTY,,16673,110000332177,100 PAPER MILL RD,99999999,BLAIR,-78.405175
,1,,Y,PA,,$0,1,Transient non-community system,,,,APRILS KOUNTRY KITCHEN,,03,,Y,1,1,,,,,PA7500844,VVVVVVSVSSVSV,,,40.39778,County Centroid,1,,35,,110052503732,,30000,PERRY,-77.266328
,,,Y,PA,,$0,1,Community water system,,42079,,AQUA PA APPLEWOOD,,03,,N,0,0,,,,,PA2400083,_____________,,,41.172787,County Centroid,0,LUZERNE COUNTY,2,,110010180348,,30000,LUZERNE,-75.976035
,,,Y,PA,,$0,1,Community water system,,42079,,AQUA PA BARRETT,18643,03,,N,0,0,,HARDING,,,PA2400085,_____________,,,41.370746,Zip Code Centroid,0,LUZERNE COUNTY,2,,110001120206,ROUTE 92 & MT ZION RD,10000,LUZERNE,-75.83506
42079,,,Y,PA,02050107,$0,1,Community water system,,42079,,AQUA PA BEECH MOUNTAIN,,03,,N,0,1,,,,,PA2400114,_VV_VV_______,6.609,020501070401,41.048233,ADDRESS MATCHING-HOUSE NUMBER,0,LUZERNE COUNTY,4,18222,110000961497,,180,LUZERNE,-75.915479
,,,Y,PA,,$0,1,Community water system,,42017,,AQUA PA BENSALEM,,03,,N,0,1,,,,,PA1090078,______VVVVV__,,,40.336887,County Centroid,0,BUCKS COUNTY,6,,110001122026,,30000,BUCKS,-75.10706
42017,,,Y,PA,02040201,$0,1,Community water system,,42017,,AQUA PA BRISTOL,,03,,N,0,1,ENTRANCE POINT OF A FACILITY OR STATION,,,,PA1090001,____VVVV_____,32.898,020402010407,40.09647,ADDRESS MATCHING-HOUSE NUMBER,0,BUCKS COUNTY,1,19007,110000954913,,50,BUCKS,-74.85286
,,,Y,PA,,$0,1,Non-Transient non-community system,,,,AQUA PA BULK HAULER,,03,,N,0,0,,,,,PA1466618,_____________,,,40.209999,County Centroid,0,,,,PA1466618,,30000,Montgomery,-75.370201
42123,,,Y,PA,05010003,$0,1,Community water system,,42123,,AQUA PA CLARENDON,,03,,N,0,0,CENTER OF A FACILITY OR STATION,,,,PA6620021,_____________,2.005,050100030305,41.78047,ADDRESS MATCHING-HOUSE NUMBER,0,WARREN COUNTY,,16313,110000929372,,30,WARREN,-79.09515
42077,,,Y,PA,02040106,$0,1,Community water system,,42077,,AQUA PA COUNTRY CLUB GARDENS,,03,,N,0,1,,,,,PA3390028,VV___________,49.755,020401060813,40.619703,ADDRESS MATCHING-HOUSE NUMBER,0,LEHIGH COUNTY,8,18109,110000950221,,17560,LEHIGH,-75.435099
,,,Y,PA,,$0,1,Community water system,,42039,,AQUA PA CRAWFORD DIV,,03,,N,0,1,,,,,PA6200014,____VVV______,,,41.68684,County Centroid,0,CRAWFORD COUNTY,2,,110000933839,,30000,CRAWFORD,-80.107811
,,,Y,PA,,$0,1,Community water system,,,,AQUA PA EAST POINTE,,03,,N,0,1,,,,,PA3061153,_VV__________,,,40.413957,County Centroid,0,,1,,110047131064,,30000,BERKS,-75.92686
42121,,,Y,PA,05010003,$0,1,Community water system,,42121,,AQUA PA EMLENTON,,03,,N,0,0,CENTER OF A FACILITY OR STATION,,,,PA6610019,_____________,6.516,050100030909,41.17694,ADDRESS MATCHING-HOUSE NUMBER,0,VENANGO COUNTY,,16373,110000972537,,30,VENANGO,-79.7126
42069,,,Y,PA,02050107,$0,1,Community water system,,42069,,AQUA PA FACTORYVILLE,,03,,N,0,1,CENTER OF A FACILITY OR STATION,,,,PA2660036,__V__________,18.498,020501070109,41.39549,ADDRESS MATCHING-HOUSE NUMBER,0,LACKAWANNA COUNTY,5,18505,110001139456,,30,WYOMING,-75.67616
,,,Y,PA,,$0,1,Community water system,,,,AQUA PA FAWN LAKE FOREST,,03,,N,0,1,,,,,PA2520037,VV____V__VVVV,,,41.325949,County Centroid,0,,4,,110010189232,,30000,PIKE,-75.031514
42079,,,Y,PA,02050107,$0,1,Community water system,,42079,,AQUA PA FIELDCREST,,03,,N,0,0,CENTER OF A FACILITY OR STATION,,,,PA2400012,_____________,4.905,020501070203,41.30264,ADDRESS MATCHING-HOUSE NUMBER,0,LUZERNE COUNTY,5,18708,110000957787,,30,LUZERNE,-75.96638
42011,,,Y,PA,02040203,$0,1,Community water system,,42011,,AQUA PA FLYING HILLS WA SYS,,03,,N,0,0,ENTRANCE POINT OF A FACILITY OR STATION,,,,PA3060018,_____________,20.216,020402030609,40.281119,ADDRESS MATCHING-HOUSE NUMBER,0,BERKS COUNTY,3,19607,110000982544,,50,BERKS,-75.922842
,,,Y,PA,,$0,1,Community water system,,42079,,AQUA PA FOREST PARK,,03,,N,0,0,,,,,PA2400078,_____________,,,41.172787,County Centroid,0,LUZERNE COUNTY,2,,110010176709,,30000,LUZERNE,-75.976035
,,,Y,PA,,$0,1,Community water system,,42123,,AQUA PA FRANKLIN,,03,,N,0,0,,,,,PA1150126,_____________,,,41.843669,County Centroid,0,WARREN COUNTY,,,110010222892,,30000,CHESTER,-79.313173
42029,,,Y,PA,02040205,$0,1,Community water system,,42029,,AQUA PA FRIENDSHIP,,03,,N,0,0,ENTRANCE POINT OF A FACILITY OR STATION,,,,PA1150137,_____________,31.046,020402050102,40.02134,ADDRESS MATCHING-HOUSE NUMBER,0,CHESTER COUNTY,,19320,110010225274,,50,CHESTER,-75.79247
,,,Y,PA,,$0,1,Community water system,,42079,,AQUA PA GARBUSH,,03,,N,0,0,,,,,PA2400089,_____________,,,41.172787,County Centroid,0,LUZERNE COUNTY,2,,110010175728,,30000,LUZERNE,-75.976035
,,,Y,PA,,$0,1,Community water system,,42103,,AQUA PA GARDEN HILLS,,03,,N,0,1,,,,,PA2640017,______VV_____,,,41.325949,County Centroid,0,PIKE COUNTY,2,,110000945390,,30000,WAYNE,-75.031514
,,,Y,PA,,$0,1,Community water system,,42011,,AQUA PA GEIGERTOWN WATER SYS,,03,,N,0,0,,,,,PA3060030,_____________,,,40.413957,County Centroid,0,BERKS COUNTY,1,,110010233050,,30000,BERKS,-75.92686
,,,Y,PA,,$0,1,Community water system,,,,AQUA PA GOLDEN OAKS,,03,,N,0,0,,,,,PA3130054,_____________,,,40.917833,County Centroid,0,,2,,110016613645,,30000,CARBON,-75.709428
,,,Y,PA,,$0,1,Community water system,,42069,,AQUA PA GOULDSBORO,,03,,N,0,1,,,,,PA2640022,______VV_____,,,41.44025,County Centroid,0,LACKAWANNA COUNTY,3,,110000942357,,30000,WAYNE,-75.609587
,,,Y,PA,,$0,1,Non-Transient non-community system,,,,AQUA PA GREEN HILLS CORP CNTR,,03,,N,0,1,,,,,PA3060811,_______V_____,,,40.413957,County Centroid,0,,3,,110051721749,,30000,BERKS,-75.92686
,,,Y,PA,,$0,1,Community water system,,,,AQUA PA GREENBRIAR,,03,,N,0,0,,,,,PA2400147,_____________,,,41.172787,County Centroid,0,,2,,110046930470,,30000,LUZERNE,-75.976035
,,,Y,PA,,$0,1,Community water system,,42089,,AQUA PA HAMILTON WATER CO,,03,,N,0,0,,,,,PA2450044,_____________,,,41.056233,County Centroid,0,MONROE COUNTY,1,,110001106062,,30000,MONROE,-75.329037
42091,,,Y,PA,02040203,$0,1,Community water system,,42091,,AQUA PA HATBORO,,03,,N,0,1,ENTRANCE POINT OF A FACILITY OR STATION,,,,PA1460028,______VVVV___,19.407,020402020303,40.156357,ADDRESS MATCHING-HOUSE NUMBER,0,MONTGOMERY COUNTY,6,19090,110000944140,,50,MONTGOMERY,-75.136389
,,,Y,PA,,$0,1,Community water system,,,,AQUA PA HEX ACRES,,03,,N,0,0,,,,,PA2400053,_____________,,,41.172787,County Centroid,0,,2,,110010194949,,30000,LUZERNE,-75.976035
,,,Y,PA,,$0,1,Community water system,,,,AQUA PA HILLCREST ESTATES II,,03,,N,0,0,,,,,PA3060133,_____________,,,40.413957,County Centroid,0,,,,110017627344,,30000,BERKS,-75.92686
,,,Y,PA,,$0,1,Community water system,,42127,,AQUA PA HONESDALE,,03,,N,0,1,,,,,PA2640018,______VV_____,,,41.646589,County Centroid,0,WAYNE COUNTY,2,,110010211467,,30000,WAYNE,-75.292485
,,,Y,PA,,$0,1,Community water system,,42071,,AQUA PA HONEYBROOK,,03,,N,0,0,,,,,PA1150195,_____________,,,40.041992,County Centroid,0,LANCASTER COUNTY,,,110010238625,,30000,CHESTER,-76.250198
42067,,,Y,PA,02050304,$0,1,Community water system,,42067,,AQUA PA INC MERIBAH WATER CO,,03,,N,0,1,ENTRANCE POINT OF A FACILITY OR STATION,,,,PA4340018,__V______VVV,2.686,020503041201,40.56532,ADDRESS MATCHING-HOUSE NUMBER,0,JUNIATA COUNTY,3,17094,110010244645,,50,JUNIATA,-77.22589
,,,Y,PA,,$0,1,Community water system,,,,AQUA PA JENKS TWP WTP,,03,,N,0,1,,,,,PA6270008,VVV__________,,,41.513304,County Centroid,0,,3,,110020625983,,30000,FOREST,-79.249705
,,,Y,PA,,$0,1,Community water system,,42109,,AQUA PA KRATZERVILLE,,03,,N,0,1,,,,,PA4550008,VVVV_____VV__,,,40.755348,County Centroid,0,SNYDER COUNTY,1,,110000941553,,30000,SNYDER,-77.072954
42085,,,Y,PA,05030102,$0,1,Community water system,,42085,,AQUA PA LAKE LATONKA WTP,,03,,N,0,1,ENTRANCE POINT OF A FACILITY OR STATION,,,,PA6430059,___V__VVV____,1.304,050301020502,41.28922,ADDRESS MATCHING-HOUSE NUMBER,0,MERCER COUNTY,5,16137,110010219744,,30,MERCER,-80.17685
42079,,,Y,PA,02050107,$0,1,Community water system,,42079,,AQUA PA LAUREL LAKES VILLAGE,18707,03,,N,0,0,ENTRANCE POINT OF A FACILITY OR STATION,MOUNTAIN TOP,,,PA2400111,_____________,7.967,020501070401,41.04987,ADDRESS MATCHING-NEAREST INTERSECTION,0,LUZERNE COUNTY,5,18222,110010204377,PINE LANE & OAK DRIVE,200,LUZERNE,-75.95644
42097,,,Y,PA,02050301,$0,1,Community water system,,42097,,AQUA PA LINKS AT GETTYSBURG SY - TREATMENT PLANT,17872,03,,N,0,1,CENTER OF A FACILITY OR STATION,SHAMOKIN,,,PA7010057,_________VVV,9.429,020503010102,40.79319,ADDRESS MATCHING-HOUSE NUMBER,0,NORTHUMBERLAND COUNTY,3,17872,110048009542,204 E. SUNBURY STREET,30,NORTHUMBERLAND,-76.55343
,,,Y,PA,,$0,1,Community water system,,42077,,AQUA PA MAPLE HILLS,,03,,N,0,0,,,,,PA3390049,_____________,,,40.614241,County Centroid,0,LEHIGH COUNTY,5,,110010210048,,30000,LEHIGH,-75.590627
42079,,,Y,PA,02050107,$0,1,Community water system,,42079,,AQUA PA MIDWAY SYSTEM,,03,,N,0,0,ENTRANCE POINT OF A FACILITY OR STATION,,,,PA2400104,_____________,15.64,020501070205,41.25321,ADDRESS MATCHING-HOUSE NUMBER,0,LUZERNE COUNTY,2,18704,110010196518,,50,LUZERNE,-75.88558
,,,Y,PA,,$0,1,Community water system,,42037,,AQUA PA MIFFLIN TOWNSHIP,,03,,N,0,1,,,,,PA4190016,__VVVV___VVV,,,41.045517,County Centroid,0,COLUMBIA COUNTY,3,,110010216417,,30000,COLUMBIA,-76.40426
42109,,,Y,PA,02050301,$0,1,Community water system,,42109,,AQUA PA MONROE TWP,,03,,N,0,1,ENTRANCE POINT OF A FACILITY OR STATION,,,,PA4550009,VVVV_________,7.626,020503010406,40.826427,ADDRESS MATCHING-HOUSE NUMBER,0,SNYDER COUNTY,,17870,110000926749,,50,SNYDER,-76.861348
42069,,,Y,PA,02050107,$0,1,Community water system,,42069,,AQUA PA MOUNTAINHOME SYSTEM,,03,,N,0,1,CENTER OF A FACILITY OR STATION,,,,PA2450039,______V______,18.498,020501070109,41.39549,ADDRESS MATCHING-HOUSE NUMBER,0,LACKAWANNA COUNTY,4,18505,110001140845,,30,MONROE,-75.67616
42069,,,Y,PA,02050107,$0,1,Community water system,,42069,,AQUA PA OAKHILL,,03,,N,0,1,CENTER OF A FACILITY OR STATION,,,,PA2400095,________VVV__,18.498,020501070109,41.39549,ADDRESS MATCHING-HOUSE NUMBER,0,LACKAWANNA COUNTY,3,18505,110003551291,,30,LUZERNE,-75.67616
,,,Y,PA,,$0,1,Community water system,,42107,,AQUA PA ONEIDA,,03,,N,0,0,,,,,PA3540071,_____________,,,40.70369,County Centroid,0,SCHUYLKILL COUNTY,2,,110010188698,,30000,SCHUYLKILL,-76.2178
,,,Y,PA,,$0,1,Community water system,,,,AQUA PA PAUPACKAN LAKE ESTATES,,03,,N,0,1,,,,,PA2640048,______VV_____,,,41.646589,County Centroid,0,,3,,110000953415,,30000,WAYNE,-75.292485
,,,Y,PA,,$0,1,Community water system,,42017,,AQUA PA PEDDLERS VIEW,,03,,N,0,0,,,,,PA1090147,_____________,,,40.336887,County Centroid,0,BUCKS COUNTY,,,110010192941,,30000,BUCKS,-75.10706
42079,,,Y,PA,02040106,$0,1,Community water system,,42079,,AQUA PA PENN LAKE,18661,03,,N,0,0,,WHITE HAVEN,,,PA2400079,_____________,3.465,020401060204,41.113943,ADDRESS MATCHING-HOUSE NUMBER,0,LUZERNE COUNTY,2,18661,110001105036,PENN AVE & CROSS DR,183,LUZERNE,-75.762513
42109,,,Y,PA,02050301,$0,1,Community water system,,42109,,AQUA PA PENNSVIEW SYSTEM,,03,,N,0,0,ENTRANCE POINT OF A FACILITY OR STATION,,,,PA4550024,_____________,8.313,020503010406,40.78054,ADDRESS MATCHING-BLOCK FACE,0,SNYDER COUNTY,,17870,110010208701,,1000,SNYDER,-76.87431
42091,,,Y,PA,02040203,$0,1,Community water system,,42091,,AQUA PA PERKIOMEN TOWNSHIP,,03,,N,0,0,ENTRANCE POINT OF A FACILITY OR STATION,,,,PA1460069,_____________,17.567,020402030809,40.21784,ADDRESS MATCHING-HOUSE NUMBER,0,MONTGOMERY COUNTY,,19426,110000942598,,50,MONTGOMERY,-75.45343
42091,,,Y,PA,02040203,$0,1,Community water system,,42091,,AQUA PA PERKIOMEN WOODS,,03,,N,0,0,ENTRANCE POINT OF A FACILITY OR STATION,,,,PA1460068,_____________,17.748,020402030809,40.175405,ADDRESS MATCHING-HOUSE NUMBER,0,MONTGOMERY COUNTY,,19426,110000927070,,50,MONTGOMERY,-75.461578
42079,,,Y,PA,02050107,$0,1,Community water system,,42079,,AQUA PA RHODES TERRACE,,03,,N,0,0,ENTRANCE POINT OF A FACILITY OR STATION,,,,PA2400101,_____________,2.093,020501070301,41.35363,ADDRESS MATCHING-BLOCK FACE,0,LUZERNE COUNTY,2,18618,110010196821,,1000,LUZERNE,-76.03148
,,,Y,PA,,$0,1,Community water system,,42131,,AQUA PA RIVERCREST,,03,,N,0,0,,,,,PA2660017,_____________,,,41.525137,County Centroid,0,WYOMING COUNTY,3,,110000944266,,30000,WYOMING,-76.00878
42097,,,Y,PA,02050301,$0,1,Community water system,,42097,,AQUA PA ROARING CREEK DIVISION,,03,,N,0,0,CENTER OF A FACILITY OR STATION,,,,PA4490024,_____________,9.43,020503010102,40.79319,ADDRESS MATCHING-HOUSE NUMBER,0,NORTHUMBERLAND COUNTY,,17872,110000559841,,30,NORTHUMBERLAND,-76.55338
,,,Y,PA,,$0,1,Community water system,,,,AQUA PA SAND SPRINGS,,03,,N,0,0,,,,,PA2400140,_____________,,,41.172787,County Centroid,0,,2,,110017935546,,30000,LUZERNE,-75.976035
42079,,,Y,PA,02050107,$0,1,Community water system,,42079,,AQUA PA SHICKSHINNY APACHE,,03,,N,0,0,ENTRANCE POINT OF A FACILITY OR STATION,,,,PA2400029 PA2400045,_____________,2.121,020501070504,41.20519,ADDRESS MATCHING-HOUSE NUMBER,0,LUZERNE COUNTY,5,18655,110010197214,,30,LUZERNE,-76.20378
42029,,,Y,PA,02040205,$0,1,Community water system,,42029,,AQUA PA SPRING RUN,,03,,N,0,1,PLANT ENTRANCE (GENERAL),,,,PA1150089,______VVVVV__,3.784,020402050202,40.10369,ADDRESS MATCHING-HOUSE NUMBER,0,CHESTER COUNTY,7,19344,110001093708,,18675,CHESTER,-75.933676
,,,Y,PA,,$0,1,Community water system,,42077,,AQUA PA SPRINGHOUSE FARMS,,03,,N,0,0,,,,,PA3390068,_____________,,,40.614241,County Centroid,0,LEHIGH COUNTY,2,,110010209915,,30000,LEHIGH,-75.590627
,,,Y,PA,,$0,1,Community water system,,42087,,AQUA PA ST JOHNS ESTATES,,03,,N,0,0,,,,,PA2400144,_____________,,,40.61189,County Centroid,0,MIFFLIN COUNTY,2,,110010208471,,30000,LUZERNE,-77.620661
,,,Y,PA,,$0,1,Community water system,,,,AQUA PA STONECROFT,,03,,N,0,0,,,,,PA3060134,_____________,,,40.413957,County Centroid,0,,,,110047507792,,30000,BERKS,-75.92686
,,,Y,PA,,$0,1,Community water system,,,,AQUA PA SUPERIOR IVY RIDGE,,03,,N,0,0,,,,,PA1460007,_____________,,,40.209999,County Centroid,0,,3,,110016613725,,30000,MONTGOMERY,-75.370201
,,,Y,PA,,$0,1,Community water system,,42091,,AQUA PA SUPERIOR MAIN SYSTEM,,03,,N,0,0,,,,,PA1460085,_____________,,,40.209999,County Centroid,0,MONTGOMERY COUNTY,4,,110010177389,,30000,MONTGOMERY,-75.370201
,,,Y,PA,,$0,1,Non-Transient non-community system,,,,AQUA PA SUPERIOR SUBURBIA CTR,,03,,N,0,0,,,,,PA1150547,_____________,,,39.973965,County Centroid,0,,4,,110051708648,,30000,CHESTER,-75.749732
,,,Y,PA,,$0,1,Community water system,,42107,,AQUA PA THE PINES,,03,,N,0,0,,,,,PA3540069,S____________,,,40.70369,County Centroid,0,SCHUYLKILL COUNTY,2,,110010256828,,30000,SCHUYLKILL,-76.2178
,,,Y,PA,,$0,1,Community water system,,42029,,AQUA PA UWCHLAN,,03,,N,0,1,,,,,PA1150035,______VVVV___,,,39.973965,County Centroid,0,CHESTER COUNTY,3,,110010181007,,30000,CHESTER,-75.749732
,,,Y,PA,,$0,1,Community water system,,42079,,AQUA PA WAPWALLOPEN,,03,,N,0,0,,,,,PA2400066,_____________,,,41.172787,County Centroid,0,LUZERNE COUNTY,5,,110010192157,,30000,LUZERNE,-75.976035
,,,Y,PA,,$0,1,Community water system,,42079,,AQUA PA WARDEN PLACE,,03,,N,0,0,,,,,PA2400102,_____________,,,41.172787,County Centroid,0,LUZERNE COUNTY,2,,110010196992,,30000,LUZERNE,-75.976035
42077,,,Y,PA,02040106,$0,1,Community water system,,42077,,AQUA PA WASHINGTON PARK,,03,,N,0,0,CENTER OF A FACILITY OR STATION,,,,PA2660016,_____________,14.691,020401060703,40.5635,ADDRESS MATCHING-HOUSE NUMBER,0,LEHIGH COUNTY,3,18106,110010197189,,30,WYOMING,-75.55243
42103,,05/05/2003,Y,PA,02040101,$0,1,Community water system,,42103,"$7,495",AQUA PA WASTEWATER INC MAST HOPE WWTF,18428,03,,N,0,0,,HAWLEY,Y,,PA2520047 PA2520111,,10.538,020401010606,41.507968,UNKNOWN,0,PIKE COUNTY,,18435,110010189786,MASTHOPE RAPIDS,35930,PIKE,-75.003653
,,,Y,PA,,$0,1,Community water system,,42069,,AQUA PA WATER,18411,03,,N,0,0,,CLARKS SUMMIT,,,PA2350029,_____________,,,41.463432,Zip Code Centroid,0,LACKAWANNA COUNTY,2,,110010238439,ROUTE 472,10000,LACKAWANNA,-75.759486
42127,,,Y,PA,02040103,$0,1,Community water system,,42127,,AQUA PA WATER CO  WAYMART,,03,,Y,0,1,CENTER OF A FACILITY OR STATION,,,,PA2640032,V_____VVVVVVV,32.377,020401030102,41.58338,ADDRESS MATCHING-HOUSE NUMBER,1,WAYNE COUNTY,4,18472,110001062037,,30,WAYNE,-75.40813
,,,Y,PA,,$0,1,Community water system,,42115,,AQUA PA WATER CO BROOKLYN,,03,,N,0,0,,,,,PA2580010,_____________,,,41.819665,County Centroid,0,SUSQUEHANNA COUNTY,2,,110010211225,,30000,SUSQUEHANNA,-75.800969
,,,Y,PA,,$0,1,Community water system,,42069,,AQUA PA WATER CO CHINCHILLA I,,03,,N,0,0,,,,,PA2350037,_____________,,,41.44025,County Centroid,0,LACKAWANNA COUNTY,2,,110001105991,,30000,LACKAWANNA,-75.609587
,,,Y,PA,,$0,1,Community water system,,42069,,AQUA PA WATER CO CHINCHILLA II,,03,,N,0,0,,,,,PA2350036,_____________,,,41.44025,County Centroid,0,LACKAWANNA COUNTY,2,,110010224426,,30000,LACKAWANNA,-75.609587
,,,Y,PA,,$0,1,Community water system,,42069,,AQUA PA WATER CO EDGEWOOD,,03,,N,0,0,,,,,PA2350055,_____________,,,41.44025,County Centroid,0,LACKAWANNA COUNTY,2,,110010214277,,30000,LACKAWANNA,-75.609587
42069,,,Y,PA,02050107,$0,1,Community water system,,42069,,AQUA PA WATER CO ELMBROOK,,03,,N,0,1,CENTER OF A FACILITY OR STATION,,,,PA2350034,______VVV____,18.498,020501070109,41.39549,ADDRESS MATCHING-HOUSE NUMBER,0,,4,18505,110001139250,,30,LACKAWANNA,-75.67616
,,,Y,PA,,$0,1,Community water system,,42069,,AQUA PA WATER CO GLENBURN,18411,03,,N,0,0,,CLARKS SUMMIT,,,PA2350025,_____________,,,41.463432,Zip Code Centroid,0,LACKAWANNA COUNTY,2,,110001105544,OFF RTS 6 & 11 GLENBURN TERRAC,10000,LACKAWANNA,-75.759486
,,,Y,PA,,$0,1,Community water system,,42127,,AQUA PA WATER CO HAWLEY,,03,,N,0,1,,,,,PA2640028,______VV_____,,,41.646589,County Centroid,0,WAYNE COUNTY,2,,110010211163,,30000,WAYNE,-75.292485
42043,,,Y,PA,02050305,$0,1,Community water system,,42043,,AQUA PA WATER CO HOP BOTTOM,,03,,N,0,0,ENTRANCE POINT OF A FACILITY OR STATION,,,,PA2580012,_____________,57.973,020503051007,40.28542,ADDRESS MATCHING-HOUSE NUMBER,0,DAUPHIN COUNTY,2,17109,110001147615,,50,SUSQUEHANNA,-76.85809
,,,Y,PA,,$0,1,Community water system,,42069,,AQUA PA WATER CO JEFFERSON HEIGHTS,18436,03,,N,0,1,,LAKE ARIEL,,,PA2350057,____V_V______,,,41.421409,Zip Code Centroid,0,LACKAWANNA COUNTY,11,,110000953095,RR 4 BOX 55,10000,WAYNE,-75.486537
42069,,,Y,PA,02050107,$0,1,Community water system,,42069,,AQUA PA WATER CO MOSCOW,,03,,N,0,1,CENTER OF A FACILITY OR STATION,,,,PA2350027,______VVVV___,18.498,020501070109,41.39549,ADDRESS MATCHING-HOUSE NUMBER,0,LACKAWANNA COUNTY,3,18505,110000938709,,30,LACKAWANNA,-75.67616
,,,Y,PA,,$0,1,Community water system,,,,AQUA PA WATER CO MOUNT COBB,,03,,N,0,1,,,,,PA2350070,______V______,,,41.44025,County Centroid,0,,2,,110020625947,,30000,LACKAWANNA,-75.609587
,,,Y,PA,,$0,1,Non-Transient non-community system,,,,AQUA PA WATER CO PINE BEACH,,03,,Y,0,1,,,,,PA2641005,V_____VVVVVVV,,,41.646589,County Centroid,1,,2,,110051699328,,30000,WAYNE,-75.292485
,,,Y,PA,,$0,1,Community water system,,42069,,AQUA PA WATER CO STANTON,,03,,N,0,0,,,,,PA2350004,_____________,,,41.44025,County Centroid,0,LACKAWANNA COUNTY,5,,110010238297,,30000,LACKAWANNA,-75.609587
,,,Y,PA,,$0,1,Community water system,,42089,,AQUA PA WATER CO THORNHURST CC,,03,,N,0,0,,,,,PA2350053,_____________,,,41.056233,County Centroid,0,MONROE COUNTY,1,,110010238411,,30000,LACKAWANNA,-75.329037
,,,Y,PA,,$0,1,Community water system,,,,AQUA PA WAYNE COUNTY PRISON,,03,,Y,0,1,,,,,PA2640031,____VVVVVVVVV,,,41.646589,County Centroid,1,,4,,110047337388,,30000,WAYNE,-75.292485
42095,,,Y,PA,02040106,$0,1,Community water system,,42095,,AQUA PA WH CHRISTIAN SPRINGS,,03,,N,0,0,ENTRANCE POINT OF A FACILITY OR STATION,,,,PA3480030,_____________,6.585,020401060809,40.753902,ADDRESS MATCHING-HOUSE NUMBER,0,NORTHAMPTON COUNTY,5,18064,110001120527,,50,NORTHAMPTON,-75.362847
42041,,,Y,PA,02050305,$0,1,Community water system,,42041,,AQUA PA WHITE ROCK ACRES SYS,,03,,N,0,1,CENTER OF A FACILITY OR STATION,,,,PA7210048,_________VVV,4.419,020503050504,40.13017,ADDRESS MATCHING-HOUSE NUMBER,0,CUMBERLAND COUNTY,2,17007,110000942339,,30,CUMBERLAND,-77.08511
42095,,,Y,PA,02040106,$0,1,Community water system,,42095,,AQUA PA WHITEHAVEN EVANWOOD,,03,,N,0,0,ENTRANCE POINT OF A FACILITY OR STATION,,,,PA3480029,_____________,7.213,020401060809,40.749041,ADDRESS MATCHING-HOUSE NUMBER,0,NORTHAMPTON COUNTY,3,18014,110000939842,,50,NORTHAMPTON,-75.392202
,,,Y,PA,,$0,1,Community water system,,,,AQUA PA WILD PINES WATER SYS,,03,,N,0,1,,,,,PA2450141,______V______,,,41.056233,County Centroid,0,,1,,110016613672,,30000,MONROE,-75.329037
,,,Y,PA,,$0,1,Community water system,,,,AQUA PA WOODLEDGE VILLAGE,,03,,N,0,1,,,,,PA2521031,______V______,,,41.325949,County Centroid,0,,2,,110051789962,,30000,PIKE,-75.031514
,,,Y,PA,,$0,1,Community water system,,,,AQUA PA YALICK FARMS,,03,,N,0,0,,,,,PA2400149,_____________,,,41.172787,County Centroid,0,,2,,110046930586,,30000,LUZERNE,-75.976035
,,,Y,PA,,$0,1,Community water system,,42089,,AQUA PENNSYLVANIA PINECREST,,03,,N,0,1,,,,,PA2450086,______V______,,,41.056233,County Centroid,0,MONROE COUNTY,1,,110010194217,,30000,MONROE,-75.329037
,,,Y,PA,,$0,1,Transient non-community system,,,,AQUABILITIES,,03,,N,0,1,,,,,PA3061169,_______VV____,,,40.413957,County Centroid,0,,3,,110051712027,,30000,BERKS,-75.92686
,,,Y,PA,,$0,1,Community water system,,42099,,ARBOR MANOR APTS,,03,,N,0,1,,,,,PA7500037,VVVVVVVVVV___,,,40.39778,County Centroid,0,PERRY COUNTY,15,,110000982777,,30000,PERRY,-77.266328
,,,Y,PA,,$0,1,Transient non-community system,,,,ARBYS,,03,,N,0,1,,,,,PA3130392,_V___________,,,40.917833,County Centroid,0,,2,,110051846669,,30000,CARBON,-75.709428
,,,Y,PA,,$0,1,Transient non-community system,,,,ARBYS AT THE CARBON PLAZA MALL,,03,,N,0,1,,,,,PA3130928,_V___________,,,40.917833,County Centroid,0,,1,,110051911026,,30000,CARBON,-75.709428
,,,Y,PA,,$0,1,Transient non-community system,,,,ARBYS PINE GROVE,,03,,N,0,0,,,,,PA3540822,_____________,,,40.70369,County Centroid,0,,,,110051734156,,30000,SCHUYLKILL,-76.2178
,,,Y,PA,,$0,1,Transient non-community system,,,,ARBYS RESTAURANT,,03,,N,0,1,,,,,PA3060975,_VV__________,,,40.413957,County Centroid,0,,4,,110051774228,,30000,BERKS,-75.92686
,,,Y,PA,,$0,1,Transient non-community system,,,,ARBYS RESTAURANT,,03,,N,0,0,,,,,PA2640419,_____________,,,41.646589,County Centroid,0,,,,110051796730,,30000,WAYNE,-75.292485
,,,Y,PA,,$0,1,Non-Transient non-community system,,,,ARCCA REAL ESTATE CORPORATION,,03,,N,0,0,,,,,PA1090309,_____________,,,40.336887,County Centroid,0,,2,,110051522269,,30000,BUCKS,-75.10706
,,,Y,PA,,$0,1,Transient non-community system,,,,ARCHIES LUNCH,,03,,N,0,1,,,,,PA1150667,_VVVSVV_VV___,,,39.973965,County Centroid,0,,26,,110051831185,,30000,CHESTER,-75.749732
,,,Y,PA,,$0,1,Non-Transient non-community system,,,,ARDENT MILLS,,03,,N,0,1,,,,,PA3480518,VVVV_________,,,40.752791,County Centroid,0,,5,,110051800501,,30000,NORTHAMPTON,-75.307447
,,,Y,PA,,$0,1,Transient non-community system,,,,ARDS MARKET,,03,,N,0,1,,,,,PA4600869,_V_VV________,,,40.962179,County Centroid,0,,4,,110051565720,,30000,UNION,-77.055475
,,,Y,PA,,$0,1,Non-Transient non-community system,,,,AREA B 12 WELL,,03,,N,0,0,,,,,PA7380420,_____________,,,40.367344,County Centroid,0,,,,110052623363,,30000,LEBANON,-76.458009
42001,,,Y,PA,02050306,$0,1,Community water system,,42001,,ARENDTSVILLE STP,17303,03,,N,0,1,CENTER OF A FACILITY OR STATION,ARENDTSVILLE,,,PA7010001,__V______VV__,16.848,020503060202,39.92485,ADDRESS MATCHING-HOUSE NUMBER,0,ADAMS COUNTY,1,17307,110009161147,241 EAST MAIN STREET,30,ADAMS,-77.29227
,,,Y,PA,,$0,1,Transient non-community system,,,,ARIEL VIEW INN,,03,,N,0,1,,,,,PA2640402,_V___________,,,41.646589,County Centroid,0,,3,,110051770491,,30000,WAYNE,-75.292485
,,,Y,PA,,$0,1,Transient non-community system,,,,ARIELLES COUNTRY INN,,03,,N,0,0,,,,,PA1091378,_____________,,,40.336887,County Centroid,0,,,,110051653867,,30000,BUCKS,-75.10706
,,,Y,PA,,$0,1,Non-Transient non-community system,,,,ARKEMA INC,,03,,N,0,0,,,,,PA3060678,_____________,,,40.413957,County Centroid,0,,1,,110051568807,,30000,BERKS,-75.92686
,,,Y,PA,,$0,1,Transient non-community system,,42115,,ARLOS COUNTRY STORE,18413,03,,N,0,1,,CLIFFORD,,,PA2580896,_VV__________,,,41.6488,Zip Code Centroid,0,SUSQUEHANNA COUNTY,1,,110017789302,ROUTE 171,10000,SUSQUEHANNA,-75.59909
42115,,,Y,PA,02050106,$0,1,Transient non-community system,,42115,,ARMETTAS PIZZERIA,18834,03,,N,0,1,CENTER OF A FACILITY OR STATION,NEW MILFORD,,,PA2580856,_VV__________,1.986,020501061002,41.655635,INTERPOLATION-MAP,0,SUSQUEHANNA COUNTY,4,18441,110010253607,OFF EXIT 219 INTERSTATE 81 & SR 848,18550,SUSQUEHANNA,-75.67769
42019,,07/13/2017,Y,PA,05010009,"$62,962",1,Non-Transient non-community system,,42019,"$20,794",ARMSTRONG CEMENT & SUPPLY CORP,16023,03,Y,Y,5,1,CENTER OF A FACILITY OR STATION,CABOT,,3,PA5100975,V_VVVVSSSSSSV,1.466,050100090103,40.7948,INTERPOLATION-SATELLITE,1,BUTLER COUNTY,15,16023,110007029562,100 CLEARFIELD ROAD,100,BUTLER,-79.70017
,,,Y,PA,,$0,1,Community water system,,42127,,ARNOLD APARTMENTS,,03,,Y,0,1,,,,,PA2640042,VVVVVVVVSVSVV,,,41.646589,County Centroid,1,WAYNE COUNTY,45,,110010214776,,30000,WAYNE,-75.292485
,,,Y,PA,,$0,1,Transient non-community system,,,,ARNOLDS COUNTRY MINI MARKET,,03,,N,0,0,,,,,PA2520873,_____________,,,41.325949,County Centroid,0,,,,110051794965,,30000,PIKE,-75.031514
,,,Y,PA,,$0,1,Transient non-community system,,,,ARNOLDS GOLF COURSE,,03,,N,0,1,,,,,PA4190855,_VVVVVVV_____,,,41.045517,County Centroid,0,,,,110051761900,,30000,COLUMBIA,-76.40426
,,,Y,PA,,$0,1,Transient non-community system,,,,ARNOT OGDEN MEDICAL CENTER,,03,,N,0,1,,,,,PA2080395,_VVV_________,,,41.791495,County Centroid,0,,2,,110063368617,,30000,BRADFORD,-76.502124
,,,Y,PA,,$0,1,Transient non-community system,,,,ARROWHEAD BIBLE CAMP,,03,,N,0,1,,,,,PA2580816,____VVVVVVV__,,,41.819665,County Centroid,0,,17,,110051707578,,30000,SUSQUEHANNA,-75.800969
,1,,Y,PA,,$0,1,Transient non-community system,,,,ARROWHEAD CAMPGROUND,,03,,Y,1,1,,,,,PA2450613,_V_________VV,,,41.056233,County Centroid,1,,4,,110051596974,,30000,MONROE,-75.329037
,,,Y,PA,,$0,1,Transient non-community system,,,,ARROWHEAD GOLF COURSE,,03,,Y,0,1,,,,,PA3060375,_________VVVV,,,40.413957,County Centroid,1,,1,,110051721455,,30000,BERKS,-75.92686
,,,Y,PA,,$0,1,Transient non-community system,,,,ARROWHEAD LAKE BEACH 2,,03,,N,0,1,,,,,PA2450697,_VVV_____V___,,,41.056233,County Centroid,0,,4,,110051573631,,30000,MONROE,-75.329037
,,,Y,PA,,$0,1,Transient non-community system,,,,ARROWHEAD LAKE BEACH 3,,03,,N,0,1,,,,,PA2451015,_VVV_____V___,,,41.056233,County Centroid,0,,4,,110051849997,,30000,MONROE,-75.329037
,,,Y,PA,,$0,1,Transient non-community system,,,,ARROWHEAD LAKE BEACH 4,,03,,N,0,1,,,,,PA2451017,_________V___,,,41.056233,County Centroid,0,,3,,110051850038,,30000,MONROE,-75.329037
,,,Y,PA,,$0,1,Transient non-community system,,,,ARROWHEAD LAKE ISLAND POOL,,03,,N,0,1,,,,,PA2451016,_VVV_____V_VV,,,41.056233,County Centroid,0,,5,,110051850010,,30000,MONROE,-75.329037
,,,Y,PA,,$0,1,Transient non-community system,,,,ARROWHEAD LAKE MINISINK POOL,,03,,N,0,1,,,,,PA2451018,VVVV__VVVV___,,,41.056233,County Centroid,0,,15,,110051850056,,30000,MONROE,-75.329037
,,,Y,PA,,$0,1,Transient non-community system,,,,ARROWHEAD LAKE NEW LODGE,,03,,N,0,1,,,,,PA2451120,V___VVVVVV___,,,41.056233,County Centroid,0,,3,,110051730445,,30000,MONROE,-75.329037
,,,Y,PA,,$0,1,Transient non-community system,,,,ARROWHEAD LAKE WELCOME CENTER,,03,,N,0,0,,,,,PA2451014,_____________,,,41.056233,County Centroid,0,,,,110051849979,,30000,MONROE,-75.329037
,,,Y,PA,,$0,1,Transient non-community system,,,,ARROWHEAD LKE BIG CHOCTAW POOL,,03,,N,0,1,,,,,PA2451239,_VVV__VVVV___,,,41.056233,County Centroid,0,,4,,110051819216,,30000,MONROE,-75.329037
,,,Y,PA,,$0,1,Transient non-community system,,,,ARROWHEAD RESTAURANT,,03,,N,0,0,,,,,PA4490315,_____________,,,40.851524,County Centroid,0,,,,110051716746,,30000,NORTHUMBERLAND,-76.709877
,,,Y,PA,,$0,1,Transient non-community system,,,,ARTEMAS GENERAL STORE,,03,,N,0,1,,,,,PA4050871,__VV_________,,,39.997115,County Centroid,0,,4,,110051845474,,30000,BEDFORD,-78.48998
,,,Y,PA,,$0,1,Community water system,,,,ARTESIAN WATER PA INC,,03,,N,0,1,,,,,PA1150002,__VVVVVV_____,,,39.973965,County Centroid,0,,5,,110051615329,,30000,CHESTER,-75.749732
,,,Y,PA,,$0,1,Transient non-community system,,,,ARTILLERY RIDGE CPGRD,,03,,N,0,1,,,,,PA7010310,___V_____VVV,,,39.869471,County Centroid,0,,5,,110052773691,,30000,ADAMS,-77.21773
,,,Y,PA,,$0,1,Transient non-community system,,,,ARTUROS PIZZA,,03,,N,0,1,,,,,PA7280936,_VV__________,,,39.926686,County Centroid,0,,1,,110052760614,,30000,FRANKLIN,-77.724485
,,,Y,PA,,$0,1,Transient non-community system,,,,ASCENSION LUTHERAN CHURCH,,03,,N,0,1,,,,,PA1091209,_VVV_VVV_____,,,40.336887,County Centroid,0,,4,,110051693967,,30000,BUCKS,-75.10706
,,,Y,PA,,$0,1,Non-Transient non-community system,,,,ASHCOMBE VEGETABLE FARM & DELI,,03,,N,0,1,,,,,PA7210861,_VV__________,,,40.164782,County Centroid,0,,1,,110052677545,,30000,CUMBERLAND,-77.26344
,,,Y,PA,,$0,1,Non-Transient non-community system,,,,ASHLAND TECHNOLOGIES INC,,03,,N,0,0,,,,,PA3540889,_____________,,,40.70369,County Centroid,0,,,,110052583557,,30000,SCHUYLKILL,-76.2178
42107,,,Y,PA,02050301,$0,1,Community water system,,42107,,ASHLAND WATER FILTRATION PLANT,17921,03,Y,Y,1,1,CENTER OF A FACILITY OR STATION,ASHLAND,Y,,PA3540030,___VVVVV_VV__,2.585,020503010501,40.774256,INTERPOLATION-MAP,1,SCHUYLKILL COUNTY,7,17921,110000735633,501 CHESTNUT ST.,50,SCHUYLKILL,-76.274669
,,,Y,PA,,$0,1,Transient non-community system,,,,ASHLEYS PUB,,03,,N,0,1,,,,,PA6200958,_V___________,,,41.68684,County Centroid,0,,1,,110052727028,,30000,CRAWFORD,-80.107811
,,,Y,PA,,$0,1,Transient non-community system,,,,ASHVILLE VFW POST 4315,,03,,N,0,0,,,,,PA4110333,_____________,,,40.494127,County Centroid,0,,,,110051836536,,30000,CAMBRIA,-78.715284
,,,Y,PA,,$0,1,Community water system,,,,ASHWOOD APARTMENTS,,03,,N,0,1,,,,,PA1150021,__V___VV_____,,,39.973965,County Centroid,0,,4,,110046754035,,30000,CHESTER,-75.749732
,,,Y,PA,,$0,1,Community water system,,,,ASPEN RIDGE POA,,03,,Y,0,1,,,,,PA2640703,SVV__V__VV_VV,,,41.646589,County Centroid,1,,11,,110051575327,,30000,WAYNE,-75.292485
42003,,,Y,PA,05010009,$0,1,Community water system,,42003,,ASPINWALL BORO WATER DEPT,15215,03,,N,0,1,ENTRANCE POINT OF A FACILITY OR STATION,ASPINWALL,,,PA5020003,___________VV,35.248,050100090308,40.49345,ADDRESS MATCHING-HOUSE NUMBER,0,ALLEGHENY COUNTY,2,15215,110060806338,WATERWORKS RD,50,ALLEGHENY,-79.91761
,,,Y,PA,,$0,1,Non-Transient non-community system,,,,ASSEMBLIES OF YAHWEH,,03,,N,0,1,,,,,PA3061073,___VVVVVV____,,,40.413957,County Centroid,0,,2,,110051724684,,30000,BERKS,-75.92686
,,,Y,PA,,$0,1,Non-Transient non-community system,,,,ASSN OF BAPTIST FOR WORLD EVNG,,03,,N,0,1,,,,,PA7671020,___VVVV______,,,39.921839,County Centroid,0,,5,,110051875645,,30000,YORK,-76.728446
,,,Y,PA,,$0,1,Non-Transient non-community system,,,,ASSOC CERAMICS & TECH INC,,03,,N,0,0,,,,,PA5100821,_____________,,,40.913834,County Centroid,0,,3,,110051725834,,30000,BUTLER,-79.91896
42029,,,Y,PA,02050306,$0,1,Community water system,,42029,,ATGLEN MUNI WATER WORKS,19310,03,,N,0,1,ENTRANCE POINT OF A FACILITY OR STATION,ATGLEN,,,PA1150109,VVVV_____VVV,12.205,020503061402,39.96076,ADDRESS MATCHING-BLOCK FACE,0,CHESTER COUNTY,12,19310,110047535681,CHURCH RD,1000,CHESTER,-75.96601
,,,Y,PA,,$0,1,Transient non-community system,,,,ATLANTIC FOOD MART,,03,,N,0,1,,,,,PA2451188,_V______VV___,,,41.056233,County Centroid,0,,4,,110051561476,,30000,MONROE,-75.329037
,,,Y,PA,,$0,1,Non-Transient non-community system,,,,ATLAS MINERAL & CHEMICAL,,03,,Y,0,1,,,,,PA3060838,_VV_VVVVVVVVV,,,40.413957,County Centroid,1,,16,,110051766969,,30000,BERKS,-75.92686
,,,Y,PA,,$0,1,Transient non-community system,,,,AUBURN FOOD MART,,03,,N,0,1,,,,,PA3540803,_V___________,,,40.70369,County Centroid,0,,5,,110051802313,,30000,SCHUYLKILL,-76.2178
,,,Y,PA,,$0,1,Community water system,,42107,,AUBURN MUNICIPAL AUTHORITY,,03,,N,0,1,,,,,PA3540015,______VVV____,,,40.70369,County Centroid,0,SCHUYLKILL COUNTY,1,,110001094672,,30000,SCHUYLKILL,-76.2178
,,,Y,PA,,$0,1,Transient non-community system,,,,AUDUBON MART,,03,,N,0,1,,,,,PA1461130,_VV_____V____,,,40.209999,County Centroid,0,,6,,110051594431,,30000,MONTGOMERY,-75.370201
42133,,,Y,PA,02050305,$0,1,Community water system,,42133,,AUDUBON PARK MHP,17019,03,,Y,0,1,POINT WHERE SUBSTANCE IS RELEASED,DILLSBURG,,,PA7670121,VVVVVVVVVVVVV,5.626,020503050505,40.13821,GPS CODE (PSEUDO RANGE) DIFFERENTIAL,1,YORK COUNTY,7,17019,110000974214,32 AUDUBON PARK,10,YORK,-76.974967
,,,Y,PA,,$0,1,Non-Transient non-community system,,,,AUDUBON SHOPPING CENTER,,03,,N,0,1,,,,,PA1460481,_________VVV,,,40.904249,State Centroid,0,,6,,110051520494,,100000,,-77.828062
42091,,,Y,PA,02040203,$0,1,Community water system,,42091,,AUDUBON WATER,19403,03,,Y,0,1,CENTER OF A FACILITY OR STATION,NORRISTOWN,,,PA1460055,VVVVVVVV_VVVV,23.491,020402031006,40.12617,ADDRESS MATCHING-HOUSE NUMBER,1,MONTGOMERY COUNTY,23,19403,110000944462,2650 EISENHOWER DR,30,MONTGOMERY,-75.41367
,,,Y,PA,,$0,1,Non-Transient non-community system,,,,AUGUSTA WATER INC,,03,,N,0,1,,,,,PA4496443,______VV__V__,,,40.851524,County Centroid,0,,5,,110051565258,,30000,NORTHUMBERLAND,-76.709877
,,,Y,PA,,$0,1,Transient non-community system,,,,AUNT BEES RESTAURANT,,03,,N,0,0,,,,,PA6201074,_____________,,,41.68684,County Centroid,0,,,,110052835376,,30000,CRAWFORD,-80.107811
,,,Y,PA,,$0,1,Transient non-community system,,,,AUNT JENNIES 41 DINER,,03,,N,0,1,,,,,PA7360360,_V___________,,,40.041992,County Centroid,0,,10,,110052613098,,30000,LANCASTER,-76.250198
,,,Y,PA,,$0,1,Community water system,,42105,,AUSTIN BOROUGH,,03,,Y,0,1,,,,,PA6530005,VVVVVVVVVVVVV,,,41.748222,County Centroid,1,POTTER COUNTY,3,,110001126647,,30000,POTTER,-77.894735
,,,Y,PA,,$0,1,Transient non-community system,,,,AUSTIN CAMPGROUND,,03,,N,0,1,,,,,PA6530881,VVVV_________,,,41.748222,County Centroid,0,,,,110052785820,,30000,POTTER,-77.894735
,,,Y,PA,,$0,1,Transient non-community system,,,,AUTOGRILLE,,03,,N,0,1,,,,,PA3480377,_____VV______,,,40.752791,County Centroid,0,,3,,110051765265,,30000,NORTHAMPTON,-75.307447
,,,Y,PA,,$0,1,Community water system,,42013,,AUTUMN EST,,03,,Y,0,1,,,,,PA4070054,V_VVVVVVVVVVV,,,40.497926,County Centroid,1,BLAIR COUNTY,5,,110001121991,,30000,BLAIR,-78.31064
42019,,,Y,PA,05030105,$0,1,Community water system,,42019,,AUTUMN GROVE CARE CTR,16038,03,,N,0,1,CENTER OF A FACILITY OR STATION,HARRISVILLE,,,PA5100045,_VV__VV______,1.915,050301050303,41.12896,ADDRESS MATCHING-HOUSE NUMBER,0,BUTLER COUNTY,3,16038,110000960620,555 S MAIN ST,30,BUTLER,-80.00896
,,,Y,PA,,$0,1,Community water system,,42039,,AUTUMN HILLS WATER COMPANY,,03,,N,0,1,,,,,PA6200071,_V________V__,,,41.68684,County Centroid,0,CRAWFORD COUNTY,10,,110010198071,,30000,CRAWFORD,-80.107811
,,,Y,PA,,$0,1,Transient non-community system,,,,AUTUMN VIEW LODGE,,03,,Y,0,1,,,,,PA2450594,___________SV,,,41.056233,County Centroid,1,,10,,110051763588,,30000,MONROE,-75.329037
,,,Y,PA,,$0,1,Transient non-community system,,,,AVALON MOTEL & RESTAURANT,,03,,N,0,0,,,,,PA5630324,_____________,,,40.200005,County Centroid,0,,1,,110052589463,,30000,WASHINGTON,-80.252132
42091,,,Y,PA,02040203,$0,1,Community water system,,42091,,AVANTE APARTMENTS,,03,,N,0,1,ENTRANCE POINT OF A FACILITY OR STATION,,,,PA1460062,VVVVVVVVV____,6.136,020402030805,40.31193,ADDRESS MATCHING-NEAREST INTERSECTION,0,MONTGOMERY COUNTY,8,19525,110001124603,,100,MONTGOMERY,-75.61135
,,,Y,PA,,$0,1,Non-Transient non-community system,,,,AVELLA AREA SCHOOL DISTRICT,,03,,N,0,1,,,,,PA5630313,VVV__________,,,40.200005,County Centroid,0,,7,,110052856539,,30000,WASHINGTON,-80.252132
,,,Y,PA,,$0,1,Transient non-community system,,,,AVIATION INN,,03,,N,0,0,,,,,PA4070313,_____________,,,40.497926,County Centroid,0,,2,,110051725264,,30000,BLAIR,-78.31064
42029,,,Y,PA,02040205,$0,1,Non-Transient non-community system,,42029,,AVON GROVE CS,19390,03,,N,0,1,CENTER OF A FACILITY OR STATION,WEST GROVE,,,PA1150688,______VVVV___,34.334,020402050303,39.82393,ADDRESS MATCHING-HOUSE NUMBER,0,CHESTER COUNTY,4,19390,110036525613,110 EAST STATE ROAD,30,CHESTER,-75.80426
,,,Y,PA,,$0,1,Community water system,,42029,,AVONWHEEL ESTATE MHP,,03,,N,0,1,,,,,PA1150004,VVVVVVVVVVVVV,,,39.973965,County Centroid,0,CHESTER COUNTY,17,,110000947655,,30000,CHESTER,-75.749732
,,,Y,PA,,$0,1,Non-Transient non-community system,,,,AYDIN DISPLAYS INC,,03,,N,0,1,,,,,PA3061158,_V___________,,,40.413957,County Centroid,0,,1,,110051711803,,30000,BERKS,-75.92686
,,,Y,PA,,$0,1,Transient non-community system,,,,AYLESWORTH PARK,,03,,N,0,1,,,,,PA2350400,_VV__VVV_VV__,,,40.904249,State Centroid,0,,12,,110051579270,,100000,,-77.828062
,,,Y,PA,,$0,1,Transient non-community system,,42115,,AYRES STONE POST 5642,18801,03,,Y,0,1,,MONTROSE,,,PA2580372,________VVVVV,,,41.837281,Zip Code Centroid,1,SUSQUEHANNA COUNTY,9,,110010207702,RT 706,10000,SUSQUEHANNA,-75.861888
,,,Y,PA,,$0,1,Transient non-community system,,,,B & D SOFT SERVE,,03,,N,0,1,,,,,PA5100873,________VV___,,,40.904249,State Centroid,0,,2,,110051706775,,100000,,-77.828062
,1,,Y,PA,,$0,1,Transient non-community system,,,,B & E SCOOPS,,03,,Y,1,1,,,,,PA2640544,_VV__VVV__VSV,,,41.646589,County Centroid,1,,11,,110051575194,,30000,WAYNE,-75.292485
,,,Y,PA,,$0,1,Transient non-community system,,,,B & J RESTAURANT,,03,,Y,0,1,,,,,PA5320852,SVVVVVVVVVVVV,,,40.651432,County Centroid,1,,4,,110052592707,,30000,INDIANA,-79.087545
,,,Y,PA,,$0,1,Transient non-community system,,,,B & KS COUNTRY STORE,,03,,Y,0,1,,,,,PA6251014,V___VVVVVVVVV,,,42.117952,County Centroid,1,,21,,110063346936,,30000,ERIE,-80.096386
,,,Y,PA,,$0,1,Non-Transient non-community system,,,,B B  GROCERY OUTLET NEWBURG,,03,,N,0,1,,,,,PA7210333,VVVVVVVVVVV__,,,40.164782,County Centroid,0,,5,,110052775350,,30000,CUMBERLAND,-77.26344
,1,,Y,PA,,$0,1,Non-Transient non-community system,,,,B J BALDWIN ELECTRIC INC,,03,,N,1,1,,,,,PA7361105,VVVVVVVVVVV__,,,40.041992,County Centroid,0,,47,,110051883413,,30000,LANCASTER,-76.250198
,,,Y,PA,,$0,1,Transient non-community system,,,,B P INN,,03,,N,0,1,,,,,PA5320333,VVVVVV_______,,,40.651432,County Centroid,0,,2,,110052838765,,30000,INDIANA,-79.087545
,,,Y,PA,,$0,1,Transient non-community system,,,,B&B FAMILY RESTAURANT,,03,,N,0,1,,,,,PA2350871,_V________VV,,,41.44025,County Centroid,0,,4,,110051645840,,30000,LACKAWANNA,-75.609587
,,,Y,PA,,$0,1,Transient non-community system,,,,BACK FORTY BAR & GRILL,,03,,N,0,1,,,,,PA3060578,VVVVV________,,,40.413957,County Centroid,0,,6,,110051745938,,30000,BERKS,-75.92686
,,,Y,PA,,$0,1,Non-Transient non-community system,,,,BACK TO BASICS CHILD CARE,,03,,N,0,0,,,,,PA7011024,_____________,,,39.869471,County Centroid,0,,,,110063369028,,30000,ADAMS,-77.21773
,,,Y,PA,,$0,1,Transient non-community system,,42115,,BACK YARD ICE CREAM,18847,03,,Y,0,1,,SUSQUEHANNA,,,PA2580719,__VVVVVVVVVVV,,,41.990439,Zip Code Centroid,1,SUSQUEHANNA COUNTY,3,,110043453223,29036 SR 171,10000,SUSQUEHANNA,-75.421734
,,,Y,PA,,$0,1,Transient non-community system,,,,BACKDRAFT RESTAURANT,,03,,Y,0,1,,,,,PA2640853,VVVVSSVSSVVVV,,,41.646589,County Centroid,1,,25,,110051707783,,30000,WAYNE,-75.292485
,,,Y,PA,,$0,1,Transient non-community system,,,,BACKROADS CAFE,,03,,N,0,1,,,,,PA2641027,_VV__________,,,41.646589,County Centroid,0,,1,,110051676030,,30000,WAYNE,-75.292485
,,,Y,PA,,$0,1,Transient non-community system,,,,BACKYARD BURGERS #1255,,03,,Y,0,1,,,,,PA4070834,______VVVVVVV,,,40.497926,County Centroid,1,,7,,110051629939,,30000,BLAIR,-78.31064
42007,,,Y,PA,05030101,$0,1,Community water system,,42007,,BADEN BORO WATER DEPT,15005,03,,N,0,1,CENTER OF A FACILITY OR STATION,BADEN,,,PA5040080,___VVVVV___VV,20.653,050301010309,40.63489,ADDRESS MATCHING-HOUSE NUMBER,0,BEAVER COUNTY,20,15005,110000957411,369 STATE ST,30,BEAVER,-80.22816
,,,Y,PA,,$0,1,Transient non-community system,,,,BADYS GROVE,,03,,N,0,1,,,,,PA3480318,_V_______VV__,,,40.752791,County Centroid,0,,10,,110051782139,,30000,NORTHAMPTON,-75.307447
42125,,,Y,PA,05030106,$0,1,Non-Transient non-community system,,42125,,BAILEY MINE - WEST FINLEY PORTAL,15377,03,,N,0,0,ENTRANCE POINT OF A FACILITY OR STATION,WEST FINLEY,Y,,PA5630837,,1.053,050301060402,39.981332,ADDRESS MATCHING-HOUSE NUMBER,0,WASHINGTON COUNTY,,15377,110010960102,725 MAJORSVILLE RD,50,WASHINGTON,-80.475814
42059,,,Y,PA,05030106,$0,1,Non-Transient non-community system,,42059,,BAILEY MINE-CRABAPPLE PORTAL,15380,03,,N,0,1,CENTER OF A FACILITY OR STATION,WIND RIDGE,,,PA5300819,,2.355,050301060503,39.92264,ADDRESS MATCHING-HOUSE NUMBER,0,GREENE COUNTY,,15380,110054620978,192 CRABAPPLE RD.,30,GREENE,-80.46456
,,,Y,PA,,$0,1,Transient non-community system,,,,BAILEYS GRILL AND STEAKHOUSE,,03,,N,0,1,,,,,PA2450509,_V___________,,,41.056233,County Centroid,0,,4,,110051560654,,30000,MONROE,-75.329037
,,,Y,PA,,$0,1,Community water system,,42071,,BAINBRIDGE WATER AUTHORITY,,03,,N,0,1,,,,,PA7360003,________VVV__,,,40.041992,County Centroid,0,LANCASTER COUNTY,4,,110010245387,,30000,LANCASTER,-76.250198
,1,,Y,PA,,$0,1,Transient non-community system,,,,BAIRS MINI MART,,03,,Y,1,1,,,,,PA7280912,_________VVVV,,,39.926686,County Centroid,1,,5,,110052735830,,30000,FRANKLIN,-77.724485
42117,,02/20/2008,Y,PA,02050104,$0,1,Community water system,,42117,$586,BAKERCREST HOME STP,16936,03,,N,0,1,CENTER OF A FACILITY OR STATION,MILLERTON,,,PA2590054,VVVVSSSSSVV,2.202,020501040702,41.896463,INTERPOLATION-MAP,0,TIOGA COUNTY,11,16936,110017361665,T-948 BAKERCREST LANE,50,TIOGA,-76.914962
,,,Y,PA,,$0,1,Transient non-community system,,,,BAKERS BUCK HUT,,03,,N,0,0,,,,,PA5040308,_____________,,,40.68414,County Centroid,0,,1,,110051872050,,30000,BEAVER,-80.350721
,,,Y,PA,,$0,1,Transient non-community system,,,,BAKERS QUICK STOP,,03,,Y,0,1,,,,,PA7280867,__________VVV,,,39.926686,County Centroid,1,,6,,110052888960,,30000,FRANKLIN,-77.724485
,,,Y,PA,,$0,1,Transient non-community system,,,,BAKERSVILLE COMM GROVE,,03,,N,0,1,,,,,PA4560399,_VV__________,,,39.981297,County Centroid,0,,14,,110051813793,,30000,SOMERSET,-79.028486
42021,,,Y,PA,02050201,$0,1,Community water system,,42021,,BAKERTON WTP,15737,03,,Y,0,1,CENTER OF A FACILITY OR STATION,BAKERTON,,,PA4110058,VVVVV__VVVVVV,.868,020502010401,40.59196,INTERPOLATION-MAP,1,CAMBRIA COUNTY,9,15722,110000932983,191 MITCHEL RD,18800,CAMBRIA,-78.730001
,,,Y,PA,,$0,1,Community water system,,42035,,BALD EAGLE BOYS CAMP,,03,,N,0,1,,,,,PA4180069,VVVV_________,,,41.245301,County Centroid,0,CLINTON COUNTY,,,110010180776,,30000,CLINTON,-77.649141
,,,Y,PA,,$0,1,Transient non-community system,,,,BALD EAGLE STATE PARK,,03,,N,0,0,,,,,PA4140823,_____________,,,40.90916,County Centroid,0,,2,,110051860571,,30000,CENTRE,-77.84783
,,,Y,PA,,$0,1,Transient non-community system,,,,BALL PARK TAVERN,,03,,N,0,1,,,,,PA1091142,_VVVVVV______,,,40.336887,County Centroid,0,,2,,110051702430,,30000,BUCKS,-75.10706
,,,Y,PA,,$0,1,Transient non-community system,,,,BALLIBAY CAMP,,03,,N,0,1,,,,,PA2080850,VVVVVVVVV____,,,41.791495,County Centroid,0,,10,,110051752313,,30000,BRADFORD,-76.502124
42011,,,Y,PA,02040203,$0,1,Community water system,,42011,,BALLY BORO MUN AUTH/WATER AUTH PLANT,19503,03,,Y,0,1,CENTER OF A FACILITY OR STATION,BALLY,,,PA3060002,______VVVVVVV,2.611,020402030802,40.395375,INTERPOLATION-MAP,1,BERKS COUNTY,8,19504,110001108685,4TH AND CHERRY STREET,18550,BERKS,-75.571851
,,,Y,PA,,$0,1,Transient non-community system,,,,BALLY MEDICAL GROUP,,03,,Y,0,1,,,,,PA3060839,_V____VVVVVVV,,,40.413957,County Centroid,1,,4,,110051766987,,30000,BERKS,-75.92686
42079,,,Y,PA,02050107,$0,1,Transient non-community system,,42079,,BANDIT II TRUCK STOP,18702,03,,Y,0,1,ENTRANCE POINT OF A FACILITY OR STATION,WILKES BARRE,,,PA3130342,_V________VVV,16.738,020501070205,41.24323,ADDRESS MATCHING-HOUSE NUMBER,1,LUZERNE COUNTY,3,18702,110051784574,100 N WILKES-BARRE BLVD,50,LUZERNE,-75.87596
42011,,,Y,PA,02040203,$0,1,Transient non-community system,,42011,,BANDITS PUBLIC HOUSE & INN,19505,03,,Y,0,1,CENTER OF A FACILITY OR STATION,BECHTELSVILLE,,,PA3060547,_VV__VVVVVVVV,2.596,020402030805,40.38323,ADDRESS MATCHING-HOUSE NUMBER,1,BERKS COUNTY,10,19505,110051774004,2116 OLD RTE 100,30,BERKS,-75.6213
,,,Y,PA,,$0,1,Non-Transient non-community system,,,,BANGOR AREA HIGH SCHOOL,,03,,N,0,0,,,,,PA3480346,_____________,,,40.752791,County Centroid,0,,,,110051823531,,30000,NORTHAMPTON,-75.307447
,,,Y,PA,,$0,1,Non-Transient non-community system,,,,BANGOR AREA MIDDLE SCHOOL,,03,,N,0,1,,,,,PA3480345,___VVV_VV_VVV,,,40.752791,County Centroid,0,,9,,110051823513,,30000,NORTHAMPTON,-75.307447
,,,Y,PA,,$0,1,Transient non-community system,,,,BANNERVILLE VOL FIRE COMPANY,,03,,N,0,1,,,,,PA4550317,____VVVVVVVV,,,40.755348,County Centroid,0,,1,,110051787580,,30000,SNYDER,-77.072954
,1,,Y,PA,,$0,1,Transient non-community system,,,,BANQUET HOTEL,,03,,N,2,1,,,,,PA3540838,_VV__________,,,40.70369,County Centroid,0,,6,,110051862196,,30000,SCHUYLKILL,-76.2178
,,,Y,PA,,$0,1,Transient non-community system,,,,BARBACCIS HICKORY GROVE CAMP,,03,,Y,0,1,,,,,PA2400502,VVVVVVVVVVVVV,,,41.172787,County Centroid,1,,19,,110051824772,,30000,LUZERNE,-75.976035
,,,Y,PA,,$0,1,Transient non-community system,,,,BARBERS ORCHARD,,03,,N,0,1,,,,,PA6610874,_V___________,,,41.40198,County Centroid,0,,1,,110052631390,,30000,VENANGO,-79.754418
,,,Y,PA,,$0,1,Transient non-community system,,,,BARBS COUNTRY STORE,,03,,N,0,1,,,,,PA5650892,__VVV________,,,40.311068,County Centroid,0,,8,,110052877730,,30000,WESTMORELAND,-79.466688
,,,Y,PA,,$0,1,Non-Transient non-community system,,,,BARC PRODUCTION SERVICES,,03,,N,0,0,,,,,PA1090353,_____________,,,40.336887,County Centroid,0,,,,110051639134,,30000,BUCKS,-75.10706
42121,,11/07/2003,Y,PA,05030105,$0,1,Community water system,,42121,"$1,000",BARKEYVILLE BORO WTP,16127,03,,N,0,1,CENTER OF A FACILITY OR STATION,GROVE CITY,,,PA6610036,___VV________,2.812,050301050302,41.18867,ADDRESS MATCHING-HOUSE NUMBER,0,VENANGO COUNTY,14,16127,110001120590,1610 BARKEYVILLE RD,30,MERCER,-79.97706
,,,Y,PA,,$0,1,Transient non-community system,,,,BARKMAN OIL CO COGOS,,03,,N,0,0,,,,,PA4050882,_____________,,,39.997115,County Centroid,0,,,,110051855998,,30000,BEDFORD,-78.48998
,,,Y,PA,,$0,1,Non-Transient non-community system,,,,BARLEY CREEK BREWING CO,,03,,Y,0,1,,,,,PA2451253,_VV__VVVVVVVV,,,41.056233,County Centroid,1,,6,,110051775566,,30000,MONROE,-75.329037
,,,Y,PA,,$0,1,Transient non-community system,,,,BARLEY SHEAF FARM,,03,,N,0,1,,,,,PA1090346,_VVVV________,,,40.336887,County Centroid,0,,2,,110051638992,,30000,BUCKS,-75.10706
,,,Y,PA,,$0,1,Transient non-community system,,,,BARLOW FIRE DEPT,,03,,N,0,0,,,,,PA7010937,_____________,,,39.869471,County Centroid,0,,,,110052602947,,30000,ADAMS,-77.21773
,,,Y,PA,,$0,1,Transient non-community system,,,,BARNHARTS,,03,,Y,0,1,,,,,PA5100829,VVVVVVVVVVVVV,,,40.913834,County Centroid,1,,4,,110051819074,,30000,BUTLER,-79.91896
,,,Y,PA,,$0,1,Transient non-community system,,,,BARNHOUSE VILLAGE RESTAURANT,,03,,N,0,0,,,,,PA3480893,_____________,,,40.752791,County Centroid,0,,,,110051651967,,30000,NORTHAMPTON,-75.307447
,,,Y,PA,,$0,1,Non-Transient non-community system,,,,BARNSLEY ACADEMY,,03,,N,0,0,,,,,PA1150318,_____________,,,39.973965,County Centroid,0,,,,110063343564,,30000,CHESTER,-75.749732
,,,Y,PA,,$0,1,Non-Transient non-community system,,,,BARR AREA MUNICIPAL AUTHORITY,,03,,N,0,1,,,,,PA4110842,VVVVV________,,,40.494127,County Centroid,0,,11,,110051818850,,30000,CAMBRIA,-78.715284
,,,Y,PA,,$0,1,Non-Transient non-community system,,,,BARR BUILDING,,03,,N,0,1,,,,,PA1150625,VVVVVV___VV__,,,39.973965,County Centroid,0,,3,,110051779036,,30000,CHESTER,-75.749732
,,,Y,PA,,$0,1,Transient non-community system,,,,BARRETT FRIENDLY LIBRARY,,03,,N,0,1,,,,,PA2451388,___________VV,,,41.056233,County Centroid,0,,6,,110051751038,,30000,MONROE,-75.329037
,,,Y,PA,,$0,1,Transient non-community system,,42133,,BARRYS COUNTRY MARKET,17312,03,,N,0,1,,CRALEY,,,PA7670977,_VVV_________,,,39.9475,Zip Code Centroid,0,YORK COUNTY,3,,110052456524,RTE 624 & RTE 124,10000,YORK,-76.51079
,,,Y,PA,,$0,1,Non-Transient non-community system,,,,BART COLERAIN ELEM SCH,,03,,N,0,1,,,,,PA7361084,_V____VV_____,,,40.041992,County Centroid,0,,3,,110052521712,,30000,LANCASTER,-76.250198
,,,Y,PA,,$0,1,Transient non-community system,,,,BARTO SHELL,,03,,N,0,1,,,,,PA3061087,_V___________,,,40.413957,County Centroid,0,,1,,110051827494,,30000,BERKS,-75.92686
42089,,,Y,PA,02040104,$0,1,Community water system,,42089,,BARTON COURT,,03,,N,0,1,ENTRANCE POINT OF A FACILITY OR STATION,,,,PA2450005,___S_________,26.659,020401040804,40.989313,ADDRESS MATCHING-HOUSE NUMBER,0,MONROE COUNTY,,18360,110000940796,,50,MONROE,-75.21123
,,,Y,PA,,$0,1,Transient non-community system,,,,BARTS BAR AND GRILL,,03,,N,0,1,,,,,PA2450725,_VVV_VVVV____,,,41.056233,County Centroid,0,,6,,110051830417,,30000,MONROE,-75.329037
,,,Y,PA,,$0,1,Transient non-community system,,,,BASEBALL CONCESSION STAND,,03,,N,0,1,,,,,PA2521064,_VVVV______VV,,,41.325949,County Centroid,0,,7,,110051733353,,30000,PIKE,-75.031514
,,,Y,PA,,$0,1,Transient non-community system,,,,BASHORE SCOUT RESERVATION,,03,,N,0,1,,,,,PA7380374,_V___________,,,40.367344,County Centroid,0,,5,,110052655300,,30000,LEBANON,-76.458009
,,,Y,PA,,$0,1,Transient non-community system,,,,BASIL PIZZERIA,,03,,Y,0,1,,,,,PA3061231,_VVVVVVVVVVVV,,,40.413957,County Centroid,1,,15,,110063343332,,30000,BERKS,-75.92686
,,,Y,PA,,$0,1,Transient non-community system,,,,BASILES ITALIAN DELIGHT,,03,,N,0,0,,,,,PA3540388,_____________,,,40.70369,County Centroid,0,,,,110051771409,,30000,SCHUYLKILL,-76.2178
,,,Y,PA,,$0,1,Transient non-community system,,,,BASSO,,03,,Y,0,1,,,,,PA2450423,_VVVV___VVVVV,,,41.056233,County Centroid,1,,6,,110051745331,,30000,MONROE,-75.329037
,1,,Y,PA,,$0,1,Transient non-community system,,,,BASTRESS WINERY,,03,,Y,2,1,,,,,PA4410845,VVVVVVVVVVVVV,,,41.343624,County Centroid,1,,8,,110051703885,,30000,LYCOMING,-77.055253
,,,Y,PA,,$0,1,Transient non-community system,,,,BATH MART,,03,,Y,0,1,,,,,PA3480928,_V_______VVVV,,,40.752791,County Centroid,1,,11,,110051733558,,30000,NORTHAMPTON,-75.307447
,,,Y,PA,,$0,1,Community water system,,42095,,BATH MUNICIPAL WATER WORKS,,03,,N,0,1,,,,,PA3480066,___VV________,,,40.752791,County Centroid,0,NORTHAMPTON COUNTY,1,,110010210422,,30000,NORTHAMPTON,-75.307447
42019,,11/30/2011,Y,PA,05030105,$0,1,Community water system,,42019,"$7,500",BAXTER MHP,16001,03,,N,0,0,CENTER OF A FACILITY OR STATION,BUTLER,,,PA5100010,,2.082,050301050307,40.94075,ADDRESS MATCHING-HOUSE NUMBER,0,BUTLER COUNTY,,16001,110000948609,457 JAMISONVILLE RD,30,BUTLER,-79.95357
,,,Y,PA,,$0,1,Transient non-community system,,,,BAY PONY INN AT LEDERACH,,03,,N,0,1,,,,,PA1461087,_V__VVV______,,,40.209999,County Centroid,0,,2,,110051715578,,30000,MONTGOMERY,-75.370201
42075,,,Y,PA,02040203,$0,1,Non-Transient non-community system,,42075,,BAYER HEALTHCARE,17067,03,,N,0,0,CENTER OF A FACILITY OR STATION,MYERSTOWN,,,PA7380323,,4.147,020402030402,40.36596,ADDRESS MATCHING-HOUSE NUMBER,0,LEBANON COUNTY,,17067,110000818287,400 WEST STOEVER AVENUE,99999999,LEBANON,-76.30874
,,,Y,PA,,$0,1,Transient non-community system,,42115,,BB S COUNTRY CORRAL,18801,03,,Y,0,1,,MONTROSE,,,PA2580874,________VVVVV,,,41.837281,Zip Code Centroid,1,SUSQUEHANNA COUNTY,11,,110010253180,RR 4 BOX 192 C,10000,SUSQUEHANNA,-75.861888
,,,Y,PA,,$0,1,Non-Transient non-community system,,,,BC MONTESSORI COUNTRY DAY SCH,,03,,N,0,1,,,,,PA3061194,VVVV_________,,,40.413957,County Centroid,0,,13,,110051697366,,30000,BERKS,-75.92686
,,,Y,PA,,$0,1,Community water system,,,,BCWSA FOX RUN PRESERVE,,03,,N,0,1,,,,,PA1090160,_VV__________,,,40.336887,County Centroid,0,,2,,110013284347,,30000,BUCKS,-75.10706
42017,,,Y,PA,02040105,$0,1,Community water system,,42017,,BCWSA MAIN LOWER SOUTH,,03,,N,0,1,ENTRANCE POINT OF A FACILITY OR STATION,,,,PA1090079,VVVV___VVVSVV,4.62,020401050703,40.42305,ADDRESS MATCHING-BLOCK FACE,0,BUCKS COUNTY,28,18938,110010232417,,1000,BUCKS,-75.06631
42017,,,Y,PA,02040105,$0,1,Community water system,,42017,,BCWSA NEW HOPE,,03,,N,0,1,ENTRANCE POINT OF A FACILITY OR STATION,,,,PA1090130,__VVVVVVV____,14.226,020401050909,40.353677,ADDRESS MATCHING-HOUSE NUMBER,0,BUCKS COUNTY,5,18938,110000946567,,50,BUCKS,-74.94883
42017,,,Y,PA,02040105,$0,1,Community water system,,42017,,BCWSA SOLEBURY,,03,,Y,0,1,ENTRANCE POINT OF A FACILITY OR STATION,,,,PA1090129,VVVVVVVVVVVVV,13.52,020401050909,40.36429,ADDRESS MATCHING-HOUSE NUMBER,1,BUCKS COUNTY,2,18938,110010233434,,30,BUCKS,-74.9758
,1,,Y,PA,,$0,1,Transient non-community system,,,,BEACH LAKE COUNTRY CAFE,,03,,N,2,1,,,,,PA2640358,_VV__________,,,41.646589,County Centroid,0,,7,,110051698882,,30000,WAYNE,-75.292485
,,,Y,PA,,$0,1,Transient non-community system,,,,BEACON HILL CAMPING,,03,,Y,0,1,,,,,PA7360927,_VVVVVVVVVVVV,,,40.041992,County Centroid,1,,1,,110051880693,,30000,LANCASTER,-76.250198
,,,Y,PA,,$0,1,Transient non-community system,,,,BEACON HOTEL,,03,,N,0,1,,,,,PA5100854,VVVVV_VV_____,,,40.913834,County Centroid,0,,10,,110051686760,,30000,BUTLER,-79.91896
42019,,,Y,PA,05030105,$0,1,Community water system,,42019,,BEACON LITE MOBILE ESTATES,,03,,Y,0,1,ENTRANCE POINT OF A FACILITY OR STATION,,,,PA5100017,VVVVVVVVVVVVV,1.635,050301050307,40.954203,ADDRESS MATCHING-HOUSE NUMBER,1,BUTLER COUNTY,23,16001,110000972500,,50,BUTLER,-79.965473
,,,Y,PA,,$0,1,Transient non-community system,,42115,,BEACON RESTAURANT,18470,03,,N,0,1,,UNION DALE,,,PA2580407,_VVVV________,,,41.712612,Zip Code Centroid,0,SUSQUEHANNA COUNTY,11,,110010208104,RR 2,10000,SUSQUEHANNA,-75.603862
,,,Y,PA,,$0,1,Transient non-community system,,,,BEAR  LAKE INN,,03,,N,0,0,,,,,PA6620390,_____________,,,41.843669,County Centroid,0,,,,110052786213,,30000,WARREN,-79.313173
,,,Y,PA,,$0,1,Transient non-community system,,,,BEAR CLAW INN,,03,,N,0,1,,,,,PA6330836,___VVV_VV____,,,41.130287,County Centroid,0,,3,,110052889380,,30000,JEFFERSON,-78.999044
,,,Y,PA,,$0,1,Transient non-community system,,,,BEAR CREEK CAFE,,03,,N,0,0,,,,,PA2400982,_____________,,,41.172787,County Centroid,0,,,,110051492504,,30000,LUZERNE,-75.976035
,1,,Y,PA,,$0,1,Transient non-community system,,,,BEAR CREEK CAMP,,03,,Y,1,1,,,,,PA2400530,VVVVVVVVVVVVV,,,41.172787,County Centroid,1,,29,,110051705525,,30000,LUZERNE,-75.976035
,,,Y,PA,,$0,1,Transient non-community system,,,,BEAR CREEK INNE,,03,,N,0,1,,,,,PA2400326,_V___________,,,41.172787,County Centroid,0,,7,,110051557409,,30000,LUZERNE,-75.976035
,,,Y,PA,,$0,1,Transient non-community system,,,,BEAR CREEK LAKES CIVIC ASSOC,,03,,Y,0,1,,,,,PA3130823,________VVVVV,,,40.917833,County Centroid,1,,1,,110051736396,,30000,CARBON,-75.709428
,,,Y,PA,,$0,1,Non-Transient non-community system,,,,BEAR CREEK MOUNTAIN RESORT,,03,,N,0,1,,,,,PA3060310,VVVV_______VV,,,40.413957,County Centroid,0,,2,,110051762829,,30000,BERKS,-75.92686
,,,Y,PA,,$0,1,Transient non-community system,,,,BEAR INN,,03,,N,0,1,,,,,PA6200950,_VV__________,,,41.68684,County Centroid,0,,6,,110052726804,,30000,CRAWFORD,-80.107811
,,,Y,PA,,$0,1,Transient non-community system,,,,BEAR LAKE TAVERN,,03,,N,0,0,,,,,PA2350515,_____________,,,41.44025,County Centroid,0,,,,110051752616,,30000,LACKAWANNA,-75.609587
,,,Y,PA,,$0,1,Transient non-community system,,,,BEAR MART 1 MOBIL,,03,,N,0,1,,,,,PA2400824,_VV__________,,,41.172787,County Centroid,0,,1,,110051816843,,30000,LUZERNE,-75.976035
,,,Y,PA,,$0,1,Transient non-community system,,,,BEAR MART 2 EXXON,,03,,N,0,0,,,,,PA2401002,_____________,,,41.172787,County Centroid,0,,,,110051548367,,30000,LUZERNE,-75.976035
,,,Y,PA,,$0,1,Transient non-community system,,,,BEAR RIDGE CAMPGROUND,,03,,Y,0,1,,,,,PA5030372,VVVVSSSSSVVVV,,,40.812379,County Centroid,1,,19,,110052561054,,30000,ARMSTRONG,-79.464128
,,,Y,PA,,$0,1,Transient non-community system,,,,BEAR ROCK JUNCTION MINI GOLF,,03,,N,0,1,,,,,PA3391039,_____V_______,,,40.614241,County Centroid,0,,3,,110051742842,,30000,LEHIGH,-75.590627
,,,Y,PA,,$0,1,Transient non-community system,,,,BEAR ROCKS COMMUNITY CLUB INC,,03,,N,0,1,,,,,PA5260831,VVVVVVVVV_VV,,,39.914115,County Centroid,0,,7,,110051553715,,30000,FAYETTE,-79.644586
,,,Y,PA,,$0,1,Transient non-community system,,,,BEAR RUN CAMPGROUND,,03,,N,0,1,,,,,PA5100406,__VVVVVVVVVVV,,,40.913834,County Centroid,0,,5,,110051695493,,30000,BUTLER,-79.91896
42055,,,Y,PA,02070004,$0,1,Community water system,,42055,,BEAR VALLEY WS,17236,03,,N,0,1,POINT WHERE SUBSTANCE IS RELEASED,FT LOUDON,,,PA7280043,____VVVVVV___,2.775,020700040603,39.930833,GPS CODE (PSEUDO RANGE) DIFFERENTIAL,0,FRANKLIN COUNTY,4,17252,110009816422,1338 BBEAR VALLEY ROAD,18510,FRANKLIN,-77.8725
,,,Y,PA,,$0,1,Transient non-community system,,,,BEARS DEN,,03,,N,0,1,,,,,PA7500831,________VVVVV,,,40.39778,County Centroid,0,,7,,110052653384,,30000,PERRY,-77.266328
,,,Y,PA,,$0,1,Transient non-community system,,,,BEAUMONT INN,,03,,N,0,1,,,,,PA2400410,_VVVV________,,,41.172787,County Centroid,0,,10,,110051465053,,30000,LUZERNE,-75.976035
42007,,,Y,PA,05030101,$0,1,Community water system,,42007,,BEAVER BORO,15009,03,,Y,0,1,CENTER OF A FACILITY OR STATION,BEAVER,,,PA5040009,VVVVVVV______,9.048,050301010310,40.69608,ADDRESS MATCHING-HOUSE NUMBER,1,BEAVER COUNTY,23,15009,110000963814,469 3RD ST,30,BEAVER,-80.30279
,,,Y,PA,,$0,1,Community water system,,,,BEAVER BROOK ASSOC,,03,,Y,0,1,,,,,PA2400088,VVVVVVVVVVVVV,,,41.172787,County Centroid,1,,18,,110010256659,,30000,LUZERNE,-75.976035
